{"type":"FeatureCollection","data_type":"Dataset","url_type":null,"permissions":[{"permissions":{"download":true,"view":true},"group_id":"everyone"}],"classification":null,"title":"PabstBrewers","count":5,"stream_id":109457,"contributor":{"url":"http://geocommons.com/users/14486","name":"laural"},"data_attributes":null,"calculation_params":null,"icon_link":null,"link":"http://geocommons.com/overlays/109457.json","extent":[-122.909,27.9475,-74.1724,47.0073],"geometry_types":null,"unique_name":null,"name":"PabstBrewers","feature_count":5,"description":"","next_feature":null,"is_raster":false,"short_classification":"Y","stats":{"category":{"max":2,"variance":0.0,"mean":2.0,"stdev":0.0,"min":2,"median":2}},"features":[{"properties":{"category":2,"geo_score":0.857,"brewer":"Pabst","id":"a66s2pi7yxfo","geo_precision":"city","location":"Milwaukee, WI"},"type":"Feature","geometry":{"type":"Point","coordinates":[-87.906474,43.038903]}},{"properties":{"category":2,"geo_score":0.857,"brewer":"Pabst","id":"a66s2pgynbhv","geo_precision":"city","location":"Newark, NJ"},"type":"Feature","geometry":{"type":"Point","coordinates":[-74.172367,40.735657]}},{"properties":{"category":2,"geo_score":0.857,"brewer":"Pabst","id":"a66s2pnewkwi","geo_precision":"city","location":"Tumwater, WA"},"type":"Feature","geometry":{"type":"Point","coordinates":[-122.909306,47.007319]}},{"properties":{"category":2,"geo_score":0.429,"brewer":"Pabst","id":"a66s2pmsqtc8","geo_precision":"street","location":"St. Paul, MN"},"type":"Feature","geometry":{"type":"Point","coordinates":[-92.608882,46.861568]}},{"properties":{"category":2,"geo_score":0.857,"brewer":"Pabst","id":"a66s2pktey6c","geo_precision":"city","location":"Tampa, FL"},"type":"Feature","geometry":{"type":"Point","coordinates":[-82.458428,27.947522]}}],"is_temporal":false,"author":{"url":"","metadata":"","contact_name":"","contact_address":"","source":"","contact_phone":""},"source":"","pagination":{"sort":null,"start":0,"total":5,"limit":1000000},"state":"complete","tags":"","published":"2014-08-13T11:35:56-04:00","id":109457}