{"type":"FeatureCollection","data_type":"Dataset","url_type":null,"permissions":[{"permissions":{"download":true,"view":true},"group_id":"everyone"}],"classification":null,"title":"Barnes &amp; Noble's Locations USA","count":694,"stream_id":14621,"contributor":{"url":"http://geocommons.com/users/6849","name":"kunal"},"data_attributes":null,"calculation_params":null,"icon_link":null,"link":"http://geocommons.com/overlays/14621.json","extent":[-123.107,25.4238,-70.2956,48.7896],"geometry_types":["point"],"unique_name":null,"name":"Barnes & Noble's Locations USA","feature_count":694,"description":"These are the locations of 694 Barnes and Nobel's Bookstores across the USA","next_feature":null,"is_raster":false,"short_classification":"Y","stats":{},"features":[{"properties":{"name":"1 Mid America Plz","id":"a62eg1t10vaj"},"type":"Feature","geometry":{"type":"Point","coordinates":[-87.95808,41.84986]}},{"properties":{"name":"1 Worcester Rd","id":"a62eg1p96blt"},"type":"Feature","geometry":{"type":"Point","coordinates":[-71.39379,42.29903]}},{"properties":{"name":"100 Quinn Drive","id":"a62eg1uh6htw"},"type":"Feature","geometry":{"type":"Point","coordinates":[-80.1787,40.44752]}},{"properties":{"name":"10180 S. State Street","id":"a62eg20v3fzs"},"type":"Feature","geometry":{"type":"Point","coordinates":[-111.89098,40.56638]}},{"properties":{"name":"102 Dorset Street","id":"a62eg1ydk7f3"},"type":"Feature","geometry":{"type":"Point","coordinates":[-73.18107,44.46661]}},{"properties":{"name":"102 Park Avenue","id":"a62eg1y968xz"},"type":"Feature","geometry":{"type":"Point","coordinates":[-75.11762,40.14391]}},{"properties":{"name":"10206 SW Washington Square Rd","id":"a62eg22ukpo7"},"type":"Feature","geometry":{"type":"Point","coordinates":[-122.77736,45.446]}},{"properties":{"name":"10317 Silverdale Way NW","id":"a62eg1srgsmv"},"type":"Feature","geometry":{"type":"Point","coordinates":[-122.68794,47.65642]}},{"properties":{"name":"1055 Old Camp Road","id":"a62eg1pthu0g"},"type":"Feature","geometry":{"type":"Point","coordinates":[-82.0061,28.9315]}},{"properties":{"name":"1091 El Camino Real","id":"a62eg1t1mzcv"},"type":"Feature","geometry":{"type":"Point","coordinates":[-122.23149,37.48361]}},{"properties":{"name":"11025 Carolina Place","id":"a62eg1w2z32x"},"type":"Feature","geometry":{"type":"Point","coordinates":[-80.87958,35.08281]}},{"properties":{"name":"111 South Central Avenue","id":"a62eg1ume6rl"},"type":"Feature","geometry":{"type":"Point","coordinates":[-73.80109,41.01639]}},{"properties":{"name":"111 W Colorado Blvd","id":"a62eg24uov98"},"type":"Feature","geometry":{"type":"Point","coordinates":[-118.15275,34.14594]}},{"properties":{"name":"1130 North State Street","id":"a62eg203aixw"},"type":"Feature","geometry":{"type":"Point","coordinates":[-87.62872,41.90285]}},{"properties":{"name":"11380 Legacy Ave","id":"a62eg1yx19ln"},"type":"Feature","geometry":{"type":"Point","coordinates":[-80.08501,26.85124]}},{"properties":{"name":"1145 Seaboard St.","id":"a62eg1t9mk7x"},"type":"Feature","geometry":{"type":"Point","coordinates":[-78.89506,33.71443]}},{"properties":{"name":"1149 S. Main St.","id":"a62eg1r4lhuc"},"type":"Feature","geometry":{"type":"Point","coordinates":[-122.06011,37.89645]}},{"properties":{"name":"11500 Financial Ctr Pkwy","id":"a62eg1y3o8i1"},"type":"Feature","geometry":{"type":"Point","coordinates":[-92.40179,34.74714]}},{"properties":{"name":"1180 Raritan Road","id":"a62eg1wxy6gl"},"type":"Feature","geometry":{"type":"Point","coordinates":[-74.31077,40.63001]}},{"properties":{"name":"11802 N. Dale Mabry Highway","id":"a62eg1vgz3bp"},"type":"Feature","geometry":{"type":"Point","coordinates":[-82.50409,28.05616]}},{"properties":{"name":"11952 Manchester Rd","id":"a62eg1tr7dug"},"type":"Feature","geometry":{"type":"Point","coordinates":[-90.43339,38.60123]}},{"properties":{"name":"120 Perimeter Center West Ste 300","id":"a62eg2105g2e"},"type":"Feature","geometry":{"type":"Point","coordinates":[-84.34177,33.92677]}},{"properties":{"name":"1200 Huguenot Rd","id":"a62eg23bxx4q"},"type":"Feature","geometry":{"type":"Point","coordinates":[-77.61352,37.50917]}},{"properties":{"name":"1201 42 St SW","id":"a62eg1os41oj"},"type":"Feature","geometry":{"type":"Point","coordinates":[-96.8511,46.86308]}},{"properties":{"name":"12089 Rockville Pike","id":"a62eg1qn3j7t"},"type":"Feature","geometry":{"type":"Point","coordinates":[-77.11753,39.05461]}},{"properties":{"name":"1212 Greenbrier Pkwy","id":"a62eg24ozgg5"},"type":"Feature","geometry":{"type":"Point","coordinates":[-76.22816,36.76974]}},{"properties":{"name":"1260 Churn Creek Rd.","id":"a62eg1yhzww7"},"type":"Feature","geometry":{"type":"Point","coordinates":[-122.35144,40.58928]}},{"properties":{"name":"1300 East Main Street","id":"a62eg1zd8nkc"},"type":"Feature","geometry":{"type":"Point","coordinates":[-89.18998,37.73319]}},{"properties":{"name":"1315 North Milwaukee","id":"a62eg21qs65t"},"type":"Feature","geometry":{"type":"Point","coordinates":[-116.28448,43.61676]}},{"properties":{"name":"1336 Augusta West Pkwy","id":"a62eg1qie92a"},"type":"Feature","geometry":{"type":"Point","coordinates":[-82.08613,33.47071]}},{"properties":{"name":"1350 Scenic Highway Suite 100","id":"a62eg1r6epkd"},"type":"Feature","geometry":{"type":"Point","coordinates":[-84.00601,33.89772]}},{"properties":{"name":"1375 Boston Post Road","id":"a62eg1p7wjgr"},"type":"Feature","geometry":{"type":"Point","coordinates":[-73.03374,41.24021]}},{"properties":{"name":"140 Rockland Plaza","id":"a62eg1uw8io0"},"type":"Feature","geometry":{"type":"Point","coordinates":[-74.0146,41.0991]}},{"properties":{"name":"1400 Biddle Road","id":"a62eg1oxn0uq"},"type":"Feature","geometry":{"type":"Point","coordinates":[-122.87326,42.34345]}},{"properties":{"name":"1489 W.O. Ezell Blvd","id":"a62eg1szga1l"},"type":"Feature","geometry":{"type":"Point","coordinates":[-81.98437,34.93696]}},{"properties":{"name":"14999 Preston Road","id":"a62eg1sa3vdu"},"type":"Feature","geometry":{"type":"Point","coordinates":[-96.80393,32.95234]}},{"properties":{"name":"1518 Flammang Drive","id":"a62eg1qzoa1g"},"type":"Feature","geometry":{"type":"Point","coordinates":[-92.32672,42.45976]}},{"properties":{"name":"152 Miracle Mile","id":"a62eg1q9wpo4"},"type":"Feature","geometry":{"type":"Point","coordinates":[-80.25768,25.74951]}},{"properties":{"name":"1530 Black Lake Blvd SW","id":"a62eg1ympogx"},"type":"Feature","geometry":{"type":"Point","coordinates":[-122.93817,47.03435]}},{"properties":{"name":"1550 West 75th","id":"a62eg22v6350"},"type":"Feature","geometry":{"type":"Point","coordinates":[-88.0201,41.75117]}},{"properties":{"name":"1565 Briargate","id":"a62eg23g8v7x"},"type":"Feature","geometry":{"type":"Point","coordinates":[-104.7991,38.94535]}},{"properties":{"name":"1599 South East Rd","id":"a62eg1wvcmb0"},"type":"Feature","geometry":{"type":"Point","coordinates":[-72.76268,41.71682]}},{"properties":{"name":"160 E 54th Street","id":"a62eg1uqvnc5"},"type":"Feature","geometry":{"type":"Point","coordinates":[-73.96987,40.75857]}},{"properties":{"name":"1601 Market Place Drive Suite 65","id":"a62eg22uozm7"},"type":"Feature","geometry":{"type":"Point","coordinates":[-111.34033,47.48274]}},{"properties":{"name":"1630 Sherman Avenue","id":"a62eg1xe47qd"},"type":"Feature","geometry":{"type":"Point","coordinates":[-87.68208,42.04737]}},{"properties":{"name":"16461 Ventura Blvd","id":"a62eg23w04jq"},"type":"Feature","geometry":{"type":"Point","coordinates":[-118.49143,34.15762]}},{"properties":{"name":"16535 Southwest Frwy Suite 4000","id":"a62eg224vgxz"},"type":"Feature","geometry":{"type":"Point","coordinates":[-95.62552,29.59472]}},{"properties":{"name":"170 Boylston Street","id":"a62eg1yj3rul"},"type":"Feature","geometry":{"type":"Point","coordinates":[-71.17514,42.3203]}},{"properties":{"name":"1701 E Empire","id":"a62eg24k7psk"},"type":"Feature","geometry":{"type":"Point","coordinates":[-88.95178,40.48594]}},{"properties":{"name":"1701 Mallory Lane","id":"a62eg21lgrwk"},"type":"Feature","geometry":{"type":"Point","coordinates":[-86.81373,35.96696]}},{"properties":{"name":"17111 Haggerty Rd.","id":"a62eg1xoedwg"},"type":"Feature","geometry":{"type":"Point","coordinates":[-83.4335,42.43398]}},{"properties":{"name":"1725 Arden Way","id":"a62eg24eaipv"},"type":"Feature","geometry":{"type":"Point","coordinates":[-121.42609,38.59936]}},{"properties":{"name":"1739 Olentangy River Road","id":"a62eg1ri4ngb"},"type":"Feature","geometry":{"type":"Point","coordinates":[-83.02571,39.99378]}},{"properties":{"name":"17490 Colima Road","id":"a62eg1txt7ne"},"type":"Feature","geometry":{"type":"Point","coordinates":[-117.92465,33.9903]}},{"properties":{"name":"175 Falon Lane","id":"a62eg1qo0d2r"},"type":"Feature","geometry":{"type":"Point","coordinates":[-78.4073,40.468]}},{"properties":{"name":"175 Glastonbury Blvd.","id":"a62eg1yu8zgz"},"type":"Feature","geometry":{"type":"Point","coordinates":[-72.62069,41.7215]}},{"properties":{"name":"1851 Dell Range Blvd","id":"a62eg215ta70"},"type":"Feature","geometry":{"type":"Point","coordinates":[-104.79564,41.16006]}},{"properties":{"name":"1900 W International Spdway","id":"a62eg1ygvmrm"},"type":"Feature","geometry":{"type":"Point","coordinates":[-81.07241,29.19116]}},{"properties":{"name":"1901 Sproul Rd","id":"a62eg1rzlzu4"},"type":"Feature","geometry":{"type":"Point","coordinates":[-75.35437,39.95777]}},{"properties":{"name":"1925 Hampton Inn Court","id":"a62eg1yxlerk"},"type":"Feature","geometry":{"type":"Point","coordinates":[-80.30625,36.06503]}},{"properties":{"name":"1930 U.S. 1 South","id":"a62eg1s1n8ei"},"type":"Feature","geometry":{"type":"Point","coordinates":[-81.3219,29.8638]}},{"properties":{"name":"1939 Mount Zion Road","id":"a62eg1otej5j"},"type":"Feature","geometry":{"type":"Point","coordinates":[-84.32803,33.56669]}},{"properties":{"name":"1940 RT-10 West","id":"a62eg1ozefyn"},"type":"Feature","geometry":{"type":"Point","coordinates":[-74.46494,40.8448]}},{"properties":{"name":"19401 Alderwood Mall Parkway","id":"a62eg20exxle"},"type":"Feature","geometry":{"type":"Point","coordinates":[-122.2708,47.8226]}},{"properties":{"name":"1955 W. New Haven","id":"a62eg1vi6eh1"},"type":"Feature","geometry":{"type":"Point","coordinates":[-80.65294,28.07856]}},{"properties":{"name":"20 Wolf Road","id":"a62eg241qmek"},"type":"Feature","geometry":{"type":"Point","coordinates":[-73.82037,42.71009]}},{"properties":{"name":"200 South Gary Avenue","id":"a62eg20vcd1h"},"type":"Feature","geometry":{"type":"Point","coordinates":[-88.12065,41.94654]}},{"properties":{"name":"200 West Route 70","id":"a62eg1tk85yv"},"type":"Feature","geometry":{"type":"Point","coordinates":[-74.93112,39.89404]}},{"properties":{"name":"2015 Birch Road Suite 700","id":"a62eg20fbje2"},"type":"Feature","geometry":{"type":"Point","coordinates":[-116.97934,32.61768]}},{"properties":{"name":"2020 Redwood Highway","id":"a62eg237fw7i"},"type":"Feature","geometry":{"type":"Point","coordinates":[-122.51609,37.93647]}},{"properties":{"name":"2031 Whitman Avenue Suite 2","id":"a62eg1tibojy"},"type":"Feature","geometry":{"type":"Point","coordinates":[-121.81211,39.72434]}},{"properties":{"name":"213 N Dale Mabry","id":"a62eg1zfw917"},"type":"Feature","geometry":{"type":"Point","coordinates":[-82.50548,27.94638]}},{"properties":{"name":"2201 Preston Rd Suite E","id":"a62eg20dcsoy"},"type":"Feature","geometry":{"type":"Point","coordinates":[-96.79516,33.0294]}},{"properties":{"name":"2230 Hamilton Place Blvd.","id":"a62eg215ec9a"},"type":"Feature","geometry":{"type":"Point","coordinates":[-85.1563,35.03823]}},{"properties":{"name":"2240 E 80th Ave","id":"a62eg20ckr8t"},"type":"Feature","geometry":{"type":"Point","coordinates":[-87.30938,41.47231]}},{"properties":{"name":"23130 Fashion Drive","id":"a62eg1xee4bi"},"type":"Feature","geometry":{"type":"Point","coordinates":[-81.72498,26.41761]}},{"properties":{"name":"2323 Sagamore Parkway South","id":"a62eg23fm77z"},"type":"Feature","geometry":{"type":"Point","coordinates":[-86.85486,40.39396]}},{"properties":{"name":"235 Daniel Webster Hwy","id":"a62eg23vdlj8"},"type":"Feature","geometry":{"type":"Point","coordinates":[-71.44201,42.71032]}},{"properties":{"name":"23654 US 19 North","id":"a62eg24pp2sy"},"type":"Feature","geometry":{"type":"Point","coordinates":[-82.7296,27.99634]}},{"properties":{"name":"240 Route 22 West","id":"a62eg23sok3l"},"type":"Feature","geometry":{"type":"Point","coordinates":[-74.32326,40.6855]}},{"properties":{"name":"2451 Patterson Road","id":"a62eg1r5dfnc"},"type":"Feature","geometry":{"type":"Point","coordinates":[-108.5982,39.09157]}},{"properties":{"name":"2480 PGA Boulevard","id":"a62eg234xb63"},"type":"Feature","geometry":{"type":"Point","coordinates":[-80.07144,26.84444]}},{"properties":{"name":"2501 Tyrone Boulevard","id":"a62eg24cdnau"},"type":"Feature","geometry":{"type":"Point","coordinates":[-82.72897,27.79313]}},{"properties":{"name":"2516 Solomon's Island Rd.","id":"a62eg1ujv0uk"},"type":"Feature","geometry":{"type":"Point","coordinates":[-76.54141,38.97502]}},{"properties":{"name":"2518 South Road","id":"a62eg1yhk2op"},"type":"Feature","geometry":{"type":"Point","coordinates":[-73.93003,41.66069]}},{"properties":{"name":"2617 West Loop 250 N","id":"a62eg1zv08ps"},"type":"Feature","geometry":{"type":"Point","coordinates":[-102.1116,32.03758]}},{"properties":{"name":"2621 Plainfield Road","id":"a62eg1vsekjw"},"type":"Feature","geometry":{"type":"Point","coordinates":[-88.15351,41.57394]}},{"properties":{"name":"2640 N. Reserve Street","id":"a62eg1yd1osd"},"type":"Feature","geometry":{"type":"Point","coordinates":[-114.0393,46.8941]}},{"properties":{"name":"265 Tom Hill Sr. Blvd.","id":"a62eg1q32qz4"},"type":"Feature","geometry":{"type":"Point","coordinates":[-83.68969,32.89724]}},{"properties":{"name":"267 7th Avenue","id":"a62eg21weo9f"},"type":"Feature","geometry":{"type":"Point","coordinates":[-73.97978,40.66882]}},{"properties":{"name":"2790 University Drive","id":"a62eg1was6tl"},"type":"Feature","geometry":{"type":"Point","coordinates":[-80.25034,26.26488]}},{"properties":{"name":"280 Metro Center","id":"a62eg1sepy7v"},"type":"Feature","geometry":{"type":"Point","coordinates":[-122.46585,37.67683]}},{"properties":{"name":"2800 S. Rochester Road","id":"a62eg1yenb37"},"type":"Feature","geometry":{"type":"Point","coordinates":[-83.13209,42.63934]}},{"properties":{"name":"2813 East 3rd St.","id":"a62eg1tbv2zp"},"type":"Feature","geometry":{"type":"Point","coordinates":[-86.49626,39.16434]}},{"properties":{"name":"28th Street Retail","id":"a62eg1z3y4zy"},"type":"Feature","geometry":{"type":"Point","coordinates":[-85.57639,42.91236]}},{"properties":{"name":"2952 Cobb Pkwy.","id":"a62eg1pyv6iz"},"type":"Feature","geometry":{"type":"Point","coordinates":[-84.46111,33.88027]}},{"properties":{"name":"2960 Center Valley Pkwy Ste 742","id":"a62eg213pede"},"type":"Feature","geometry":{"type":"Point","coordinates":[-75.4126,40.55664]}},{"properties":{"name":"3035 William St.","id":"a62eg1uls0gx"},"type":"Feature","geometry":{"type":"Point","coordinates":[-89.5695,37.30066]}},{"properties":{"name":"3040 M Street NW","id":"a62eg22fmxsm"},"type":"Feature","geometry":{"type":"Point","coordinates":[-77.06037,38.90506]}},{"properties":{"name":"3045 North Rock Rd","id":"a62eg22j6ox8"},"type":"Feature","geometry":{"type":"Point","coordinates":[-97.24477,37.73871]}},{"properties":{"name":"3055 South Glenstone","id":"a62eg1zz5gzh"},"type":"Feature","geometry":{"type":"Point","coordinates":[-93.263,37.15824]}},{"properties":{"name":"3111 South Veterans Pkwy","id":"a62eg1z1j9r1"},"type":"Feature","geometry":{"type":"Point","coordinates":[-89.70667,39.75896]}},{"properties":{"name":"313 Corte Madera Town Center","id":"a62eg1psz3gh"},"type":"Feature","geometry":{"type":"Point","coordinates":[-122.51673,37.92584]}},{"properties":{"name":"321 NW Loop 410 #104","id":"a62eg1yfyayb"},"type":"Feature","geometry":{"type":"Point","coordinates":[-98.49675,29.52094]}},{"properties":{"name":"325 Harvard Street","id":"a62eg20iplbm"},"type":"Feature","geometry":{"type":"Point","coordinates":[-71.12343,42.34363]}},{"properties":{"name":"3280 Tremont Road","id":"a62eg23fmoof"},"type":"Feature","geometry":{"type":"Point","coordinates":[-83.0584,40.02383]}},{"properties":{"name":"333 N. Congress Avenue","id":"a62eg1zp8shj"},"type":"Feature","geometry":{"type":"Point","coordinates":[-80.09077,26.52854]}},{"properties":{"name":"339 Sixth Ave","id":"a62eg221qhjg"},"type":"Feature","geometry":{"type":"Point","coordinates":[-79.99878,40.44198]}},{"properties":{"name":"340 South 500 West","id":"a62eg239tems"},"type":"Feature","geometry":{"type":"Point","coordinates":[-111.89238,40.88564]}},{"properties":{"name":"351 Town Sq","id":"a62eg1tyld36"},"type":"Feature","geometry":{"type":"Point","coordinates":[-88.10058,41.83407]}},{"properties":{"name":"3700 West 41st Street","id":"a62eg1t9wgzw"},"type":"Feature","geometry":{"type":"Point","coordinates":[-96.77128,43.51495]}},{"properties":{"name":"3721 Veterans Boulevard","id":"a62eg1szrdhk"},"type":"Feature","geometry":{"type":"Point","coordinates":[-90.15122,30.0032]}},{"properties":{"name":"3800 State Highway 16","id":"a62eg20p7fwd"},"type":"Feature","geometry":{"type":"Point","coordinates":[-91.204,43.78977]}},{"properties":{"name":"381 Boardman-Poland Rd","id":"a62eg1y13lm6"},"type":"Feature","geometry":{"type":"Point","coordinates":[-80.64835,41.02416]}},{"properties":{"name":"3900 Mowry Ave.","id":"a62eg210bz6p"},"type":"Feature","geometry":{"type":"Point","coordinates":[-121.98771,37.54915]}},{"properties":{"name":"3909 S Cooper St","id":"a62eg1wxstr2"},"type":"Feature","geometry":{"type":"Point","coordinates":[-97.13339,32.68237]}},{"properties":{"name":"3956 Route 31","id":"a62eg1yahj01"},"type":"Feature","geometry":{"type":"Point","coordinates":[-76.2182,43.1056]}},{"properties":{"name":"396 John R. Road","id":"a62eg24dz8px"},"type":"Feature","geometry":{"type":"Point","coordinates":[-83.10677,42.53653]}},{"properties":{"name":"3981 US Hwy 9","id":"a62eg22mz1ps"},"type":"Feature","geometry":{"type":"Point","coordinates":[-74.29209,40.26156]}},{"properties":{"name":"3rd Street Promenade","id":"a62eg215vhx3"},"type":"Feature","geometry":{"type":"Point","coordinates":[-118.49905,34.01829]}},{"properties":{"name":"4001 California Avenue","id":"a62eg23neeo4"},"type":"Feature","geometry":{"type":"Point","coordinates":[-119.04685,35.36717]}},{"properties":{"name":"4010 S. Tamiami Tr","id":"a62eg225ztzy"},"type":"Feature","geometry":{"type":"Point","coordinates":[-82.5307,27.29678]}},{"properties":{"name":"4015 Medina Road","id":"a62eg1x64qc2"},"type":"Feature","geometry":{"type":"Point","coordinates":[-81.6427,41.13604]}},{"properties":{"name":"4045 S. College","id":"a62eg1wgbepg"},"type":"Feature","geometry":{"type":"Point","coordinates":[-105.07738,40.53193]}},{"properties":{"name":"4099 Meridian St.","id":"a62eg23hsf8g"},"type":"Feature","geometry":{"type":"Point","coordinates":[-122.48631,48.78956]}},{"properties":{"name":"44 Brick Plaza","id":"a62eg1vyy7jn"},"type":"Feature","geometry":{"type":"Point","coordinates":[-74.14154,40.05948]}},{"properties":{"name":"4415 State Highway 16","id":"a62eg1pf9m5v"},"type":"Feature","geometry":{"type":"Point","coordinates":[-91.20014,43.79073]}},{"properties":{"name":"4478 Electric Road Southwest","id":"a62eg21g99x4"},"type":"Feature","geometry":{"type":"Point","coordinates":[-79.97454,37.23118]}},{"properties":{"name":"4485 Virginia Beach Blvd","id":"a62eg1v9bjvb"},"type":"Feature","geometry":{"type":"Point","coordinates":[-76.13046,36.84324]}},{"properties":{"name":"4600 Barranca Parkway","id":"a62eg22x9y2v"},"type":"Feature","geometry":{"type":"Point","coordinates":[-117.8,33.67849]}},{"properties":{"name":"4601 Grape Rd","id":"a62eg1uuvjct"},"type":"Feature","geometry":{"type":"Point","coordinates":[-86.18768,41.70198]}},{"properties":{"name":"47 East Chicago Ave. Suite #132","id":"a62eg1opeco4"},"type":"Feature","geometry":{"type":"Point","coordinates":[-88.14728,41.77168]}},{"properties":{"name":"4751 West 117th Street","id":"a62eg211j7k3"},"type":"Feature","geometry":{"type":"Point","coordinates":[-94.64289,38.91679]}},{"properties":{"name":"4801 Bethesda Avenue","id":"a62eg1s9qghp"},"type":"Feature","geometry":{"type":"Point","coordinates":[-77.09534,38.98109]}},{"properties":{"name":"4935 South 76th St","id":"a62eg1y7d0u0"},"type":"Feature","geometry":{"type":"Point","coordinates":[-88.00865,42.95487]}},{"properties":{"name":"4940 Monroe St","id":"a62eg20uj02u"},"type":"Feature","geometry":{"type":"Point","coordinates":[-83.63772,41.69668]}},{"properties":{"name":"5001 N. Big Hollow Road","id":"a62eg1sjrey1"},"type":"Feature","geometry":{"type":"Point","coordinates":[-89.64255,40.75347]}},{"properties":{"name":"5101 Main Street","id":"a62eg1wlmif7"},"type":"Feature","geometry":{"type":"Point","coordinates":[-76.7418,37.2784]}},{"properties":{"name":"5129 Blanche D Moore Drive","id":"a62eg20j2xkw"},"type":"Feature","geometry":{"type":"Point","coordinates":[-97.3772,27.7112]}},{"properties":{"name":"5130 E. Broadway","id":"a62eg233j9j2"},"type":"Feature","geometry":{"type":"Point","coordinates":[-110.88243,32.22146]}},{"properties":{"name":"5150 O Street","id":"a62eg1xb412h"},"type":"Feature","geometry":{"type":"Point","coordinates":[-96.64937,40.81361]}},{"properties":{"name":"5155 Route 30","id":"a62eg22dw2q3"},"type":"Feature","geometry":{"type":"Point","coordinates":[-79.5839,40.264]}},{"properties":{"name":"530 S 24th Street West","id":"a62eg1uiczrr"},"type":"Feature","geometry":{"type":"Point","coordinates":[-108.5764,45.75963]}},{"properties":{"name":"5301 Beltline Road Suite 118","id":"a62eg1ymh9ga"},"type":"Feature","geometry":{"type":"Point","coordinates":[-96.81524,32.95424]}},{"properties":{"name":"5303 FM 1960 West","id":"a62eg1xp3ggn"},"type":"Feature","geometry":{"type":"Point","coordinates":[-95.50988,29.9814]}},{"properties":{"name":"540 Ed Noble Parkway","id":"a62eg1prhnzd"},"type":"Feature","geometry":{"type":"Point","coordinates":[-97.48433,35.21132]}},{"properties":{"name":"55 Old Orchard Shopping Center","id":"a62eg1ymm9zn"},"type":"Feature","geometry":{"type":"Point","coordinates":[-87.74918,42.05545]}},{"properties":{"name":"552 Contra Costa Blvd Ste 90","id":"a62eg21v9kbk"},"type":"Feature","geometry":{"type":"Point","coordinates":[-122.06649,37.97861]}},{"properties":{"name":"555 12th Street","id":"a62eg22ag2fx"},"type":"Feature","geometry":{"type":"Point","coordinates":[-77.02792,38.8968]}},{"properties":{"name":"555 Fifth Avenue","id":"a62eg1rg7t5m"},"type":"Feature","geometry":{"type":"Point","coordinates":[-73.97908,40.75564]}},{"properties":{"name":"555 Hubbard Ave","id":"a62eg1zi65c5"},"type":"Feature","geometry":{"type":"Point","coordinates":[-73.19607,42.46814]}},{"properties":{"name":"567 North Stephanie","id":"a62eg21twsti"},"type":"Feature","geometry":{"type":"Point","coordinates":[-115.04637,36.06261]}},{"properties":{"name":"5705 Johnston St","id":"a62eg1r008x3"},"type":"Feature","geometry":{"type":"Point","coordinates":[-92.07758,30.17471]}},{"properties":{"name":"5755 N Bayshore Drive","id":"a62eg1p682i1"},"type":"Feature","geometry":{"type":"Point","coordinates":[-87.91621,43.12141]}},{"properties":{"name":"5909 Peach St","id":"a62eg1ot4yhx"},"type":"Feature","geometry":{"type":"Point","coordinates":[-80.09335,42.06443]}},{"properties":{"name":"6100 North May Ave","id":"a62eg24vaiuc"},"type":"Feature","geometry":{"type":"Point","coordinates":[-97.56553,35.53284]}},{"properties":{"name":"6130 SW 17th St","id":"a62eg1szs6tm"},"type":"Feature","geometry":{"type":"Point","coordinates":[-95.77714,39.03643]}},{"properties":{"name":"624 South Green River Rd","id":"a62eg1rks1ym"},"type":"Feature","geometry":{"type":"Point","coordinates":[-87.49253,37.96907]}},{"properties":{"name":"626 106th Ave NE","id":"a62eg1yrd634"},"type":"Feature","geometry":{"type":"Point","coordinates":[-122.19872,47.61586]}},{"properties":{"name":"6300 S. Main Street Suite N101","id":"a62eg1tqrfbm"},"type":"Feature","geometry":{"type":"Point","coordinates":[-104.7111,39.5999]}},{"properties":{"name":"6575 Telegraph Road","id":"a62eg1wpiuzl"},"type":"Feature","geometry":{"type":"Point","coordinates":[-83.28461,42.54359]}},{"properties":{"name":"6685 E State St","id":"a62eg23zf3o3"},"type":"Feature","geometry":{"type":"Point","coordinates":[-88.98526,42.26826]}},{"properties":{"name":"6707 Slide Rd","id":"a62eg1oolrw8"},"type":"Feature","geometry":{"type":"Point","coordinates":[-101.92223,33.53327]}},{"properties":{"name":"7 Holyoke Street","id":"a62eg1wid6mf"},"type":"Feature","geometry":{"type":"Point","coordinates":[-72.6404,42.17141]}},{"properties":{"name":"710 County Highway 10 NE","id":"a62eg1ynh5t6"},"type":"Feature","geometry":{"type":"Point","coordinates":[-93.25648,45.12778]}},{"properties":{"name":"7119 South 1300 East St","id":"a62eg1v28z76"},"type":"Feature","geometry":{"type":"Point","coordinates":[-111.85532,40.62209]}},{"properties":{"name":"720 Hawthorne Center","id":"a62eg1we40ju"},"type":"Feature","geometry":{"type":"Point","coordinates":[-87.95027,42.241]}},{"properties":{"name":"735 Haywood Rd","id":"a62eg1u3uj8a"},"type":"Feature","geometry":{"type":"Point","coordinates":[-82.33673,34.85117]}},{"properties":{"name":"7370 Transit Rd","id":"a62eg1tw5a69"},"type":"Feature","geometry":{"type":"Point","coordinates":[-78.69701,42.96806]}},{"properties":{"name":"7685 West Bell Road","id":"a62eg1swgdiu"},"type":"Feature","geometry":{"type":"Point","coordinates":[-112.22415,33.63796]}},{"properties":{"name":"780 E. Merritt Island Causeway","id":"a62eg20nxfv8"},"type":"Feature","geometry":{"type":"Point","coordinates":[-80.68478,28.35744]}},{"properties":{"name":"795 Citadel Drive East","id":"a62eg21gy2km"},"type":"Feature","geometry":{"type":"Point","coordinates":[-104.75862,38.84393]}},{"properties":{"name":"801 South Hurstbourne Pkwy","id":"a62eg1sg6x64"},"type":"Feature","geometry":{"type":"Point","coordinates":[-85.57672,38.23576]}},{"properties":{"name":"8136 West Bowles Avenue","id":"a62eg20l5g6f"},"type":"Feature","geometry":{"type":"Point","coordinates":[-105.08763,39.60946]}},{"properties":{"name":"819 W 32nd Street","id":"a62eg1xt2q53"},"type":"Feature","geometry":{"type":"Point","coordinates":[-114.62984,32.66926]}},{"properties":{"name":"829 State Street","id":"a62eg1x8cmsz"},"type":"Feature","geometry":{"type":"Point","coordinates":[-119.69998,34.41997]}},{"properties":{"name":"82nd &amp; Broadway","id":"a62eg208f3qz"},"type":"Feature","geometry":{"type":"Point","coordinates":[-73.97858,40.78618]}},{"properties":{"name":"86th &amp; 2nd","id":"a62eg1sgey7n"},"type":"Feature","geometry":{"type":"Point","coordinates":[-73.95317,40.7783]}},{"properties":{"name":"86th &amp; Lexington","id":"a62eg208g1zo"},"type":"Feature","geometry":{"type":"Point","coordinates":[-73.95567,40.77969]}},{"properties":{"name":"906 Mall Loop Road","id":"a62eg1vfw45l"},"type":"Feature","geometry":{"type":"Point","coordinates":[-80.00558,35.98826]}},{"properties":{"name":"9282 Atlantic Blvd","id":"a62eg1uung7g"},"type":"Feature","geometry":{"type":"Point","coordinates":[-81.55715,30.31737]}},{"properties":{"name":"934 East Copeland Rd","id":"a62eg22gzld1"},"type":"Feature","geometry":{"type":"Point","coordinates":[-97.09653,32.75887]}},{"properties":{"name":"9370 Sheridan Blvd","id":"a62eg1y51aef"},"type":"Feature","geometry":{"type":"Point","coordinates":[-105.05283,39.86714]}},{"properties":{"name":"960 Lakes Drive","id":"a62eg1p4q1pm"},"type":"Feature","geometry":{"type":"Point","coordinates":[-117.92411,34.07038]}},{"properties":{"name":"960 S Colorado Blvd","id":"a62eg22e4c5y"},"type":"Feature","geometry":{"type":"Point","coordinates":[-104.94059,39.69924]}},{"properties":{"name":"9605 Village Place Blvd.","id":"a62eg23tiq84"},"type":"Feature","geometry":{"type":"Point","coordinates":[-83.7567,42.50699]}},{"properties":{"name":"9618 Watson Rd.","id":"a62eg1rbqd2w"},"type":"Feature","geometry":{"type":"Point","coordinates":[-90.38205,38.55708]}},{"properties":{"name":"98 Middlesex Pkwy","id":"a62eg1t13sxx"},"type":"Feature","geometry":{"type":"Point","coordinates":[-71.21618,42.47892]}},{"properties":{"name":"Ahwatukee Foothills Towne Center III","id":"a62eg1sz7it7"},"type":"Feature","geometry":{"type":"Point","coordinates":[-111.97934,33.3196]}},{"properties":{"name":"Aliso Viejo Town Center","id":"a62eg1ul0oiq"},"type":"Feature","geometry":{"type":"Point","coordinates":[-117.72356,33.57425]}},{"properties":{"name":"Almaden Plaza","id":"a62eg1oj2tea"},"type":"Feature","geometry":{"type":"Point","coordinates":[-121.87577,37.2523]}},{"properties":{"name":"Altamonte Mall","id":"a62eg1u21sim"},"type":"Feature","geometry":{"type":"Point","coordinates":[-81.37554,28.66404]}},{"properties":{"name":"Amerige Heights Town Center","id":"a62eg1xfbzx2"},"type":"Feature","geometry":{"type":"Point","coordinates":[-117.95986,33.87714]}},{"properties":{"name":"Apache Mall","id":"a62eg1zm2dmj"},"type":"Feature","geometry":{"type":"Point","coordinates":[-92.47866,44.00714]}},{"properties":{"name":"Arapahoe Marketplace","id":"a62eg1zbteg4"},"type":"Feature","geometry":{"type":"Point","coordinates":[-104.88988,39.59522]}},{"properties":{"name":"Arboretum","id":"a62eg1yi8qgv"},"type":"Feature","geometry":{"type":"Point","coordinates":[-97.74706,30.39276]}},{"properties":{"name":"Astor Place","id":"a62eg1uph5f0"},"type":"Feature","geometry":{"type":"Point","coordinates":[-73.9926,40.72993]}},{"properties":{"name":"Athens Promenade","id":"a62eg1zuutik"},"type":"Feature","geometry":{"type":"Point","coordinates":[-83.45892,33.93924]}},{"properties":{"name":"Aurora City Center","id":"a62eg20ebraz"},"type":"Feature","geometry":{"type":"Point","coordinates":[-104.82504,39.7132]}},{"properties":{"name":"Austin Street","id":"a62eg1ozck9i"},"type":"Feature","geometry":{"type":"Point","coordinates":[-73.84682,40.72082]}},{"properties":{"name":"Avon Commons","id":"a62eg1t2w296"},"type":"Feature","geometry":{"type":"Point","coordinates":[-86.3924,39.7635]}},{"properties":{"name":"Bandera Pointe Shopping Center","id":"a62eg212pp3d"},"type":"Feature","geometry":{"type":"Point","coordinates":[-98.66344,29.54977]}},{"properties":{"name":"Barnes &amp; Noble Bookstore","id":"a62eg1q81q20"},"type":"Feature","geometry":{"type":"Point","coordinates":[-86.81466,35.96615]}},{"properties":{"name":"Barnes &amp; Noble Bookstore","id":"a62eg1tfqre8"},"type":"Feature","geometry":{"type":"Point","coordinates":[-86.43487,35.85769]}},{"properties":{"name":"Barnes &amp; Noble Plaza","id":"a62eg1vjxmog"},"type":"Feature","geometry":{"type":"Point","coordinates":[-81.29167,35.70175]}},{"properties":{"name":"Barracks Road Shopping Center","id":"a62eg1s8yo5l"},"type":"Feature","geometry":{"type":"Point","coordinates":[-78.50181,38.05056]}},{"properties":{"name":"Bay Plaza","id":"a62eg1yzlych"},"type":"Feature","geometry":{"type":"Point","coordinates":[-73.83049,40.86617]}},{"properties":{"name":"Bay Street-Emeryville","id":"a62eg1zgb8c1"},"type":"Feature","geometry":{"type":"Point","coordinates":[-122.29195,37.83392]}},{"properties":{"name":"Bay Terrace S.C.","id":"a62eg21o13eh"},"type":"Feature","geometry":{"type":"Point","coordinates":[-73.77549,40.77999]}},{"properties":{"name":"Baybrook ll","id":"a62eg1si9eju"},"type":"Feature","geometry":{"type":"Point","coordinates":[-95.14074,29.54062]}},{"properties":{"name":"Bayou Walk","id":"a62eg23s8fp0"},"type":"Feature","geometry":{"type":"Point","coordinates":[-93.71963,32.44455]}},{"properties":{"name":"Bella Terra","id":"a62eg1va9w84"},"type":"Feature","geometry":{"type":"Point","coordinates":[-117.99074,33.73044]}},{"properties":{"name":"Best on the Boulevard","id":"a62eg1t9xcr2"},"type":"Feature","geometry":{"type":"Point","coordinates":[-115.13748,36.1186]}},{"properties":{"name":"Birdcage Walk","id":"a62eg1pzavpu"},"type":"Feature","geometry":{"type":"Point","coordinates":[-121.27168,38.67712]}},{"properties":{"name":"Birkdale Village","id":"a62eg22sbrca"},"type":"Feature","geometry":{"type":"Point","coordinates":[-80.87975,35.44424]}},{"properties":{"name":"Block C of Downtown Woodinville","id":"a62eg231duzh"},"type":"Feature","geometry":{"type":"Point","coordinates":[-122.15545,47.75699]}},{"properties":{"name":"Bohl Farm Market Place","id":"a62eg1qwsnsk"},"type":"Feature","geometry":{"type":"Point","coordinates":[-88.30276,42.22634]}},{"properties":{"name":"Boulevard Consumer Sq.","id":"a62eg209qvsw"},"type":"Feature","geometry":{"type":"Point","coordinates":[-78.82221,42.99763]}},{"properties":{"name":"Bowie Town Center","id":"a62eg1x2w1xi"},"type":"Feature","geometry":{"type":"Point","coordinates":[-76.7356,38.94414]}},{"properties":{"name":"Braintree","id":"a62eg1trihob"},"type":"Feature","geometry":{"type":"Point","coordinates":[-71.03117,42.22381]}},{"properties":{"name":"Brandon Square","id":"a62eg1zf85ka"},"type":"Feature","geometry":{"type":"Point","coordinates":[-82.32441,27.93889]}},{"properties":{"name":"Brass Mill Commons","id":"a62eg1yozuq8"},"type":"Feature","geometry":{"type":"Point","coordinates":[-73.03679,41.55203]}},{"properties":{"name":"Brier Creek Commons","id":"a62eg1wbukdd"},"type":"Feature","geometry":{"type":"Point","coordinates":[-78.78544,35.90705]}},{"properties":{"name":"Broadcasting Square Shopping Center","id":"a62eg1swa3ru"},"type":"Feature","geometry":{"type":"Point","coordinates":[-75.98491,40.35818]}},{"properties":{"name":"Brookdale Mall","id":"a62eg1whwekq"},"type":"Feature","geometry":{"type":"Point","coordinates":[-93.32042,45.05812]}},{"properties":{"name":"Brookfield Square Mall","id":"a62eg218ui3n"},"type":"Feature","geometry":{"type":"Point","coordinates":[-88.10709,43.03237]}},{"properties":{"name":"Broward Mall","id":"a62eg21kcbrf"},"type":"Feature","geometry":{"type":"Point","coordinates":[-80.25063,26.11237]}},{"properties":{"name":"Brunswick Square Mall","id":"a62eg237h8bj"},"type":"Feature","geometry":{"type":"Point","coordinates":[-74.38079,40.42547]}},{"properties":{"name":"Bryn Mawr","id":"a62eg1qqkw50"},"type":"Feature","geometry":{"type":"Point","coordinates":[-75.31436,40.01939]}},{"properties":{"name":"Buckhead","id":"a62eg21r3ztx"},"type":"Feature","geometry":{"type":"Point","coordinates":[-84.3874,33.82894]}},{"properties":{"name":"Buckland Hills Mall","id":"a62eg24ex8kk"},"type":"Feature","geometry":{"type":"Point","coordinates":[-72.54257,41.80831]}},{"properties":{"name":"Burbank Town Center","id":"a62eg1td4upx"},"type":"Feature","geometry":{"type":"Point","coordinates":[-118.31476,34.185]}},{"properties":{"name":"Burnhaven Shopping Center","id":"a62eg1qvqwzi"},"type":"Feature","geometry":{"type":"Point","coordinates":[-93.28981,44.74674]}},{"properties":{"name":"Butler Plaza West","id":"a62eg22pyjuf"},"type":"Feature","geometry":{"type":"Point","coordinates":[-82.38216,29.61963]}},{"properties":{"name":"Caldor Plaza","id":"a62eg1skvzac"},"type":"Feature","geometry":{"type":"Point","coordinates":[-74.21962,40.89002]}},{"properties":{"name":"Calhoun Village Shopping Center","id":"a62eg212jkw4"},"type":"Feature","geometry":{"type":"Point","coordinates":[-93.32171,44.94864]}},{"properties":{"name":"Camp Creek Market Place","id":"a62eg1zhtlq1"},"type":"Feature","geometry":{"type":"Point","coordinates":[-84.50179,33.65718]}},{"properties":{"name":"Camp Hill Shopping Center","id":"a62eg1vn4pn0"},"type":"Feature","geometry":{"type":"Point","coordinates":[-76.93461,40.23904]}},{"properties":{"name":"Campbell Lane Town Center","id":"a62eg1t3sc58"},"type":"Feature","geometry":{"type":"Point","coordinates":[-86.43554,36.95204]}},{"properties":{"name":"Cape Cod Mall","id":"a62eg235jkru"},"type":"Feature","geometry":{"type":"Point","coordinates":[-70.29556,41.66865]}},{"properties":{"name":"Carmel Mountain","id":"a62eg1wrt442"},"type":"Feature","geometry":{"type":"Point","coordinates":[-117.07822,32.98059]}},{"properties":{"name":"Carriage Crossing","id":"a62eg24awvuh"},"type":"Feature","geometry":{"type":"Point","coordinates":[-89.6991,35.0145]}},{"properties":{"name":"Cary Commons","id":"a62eg20abwk0"},"type":"Feature","geometry":{"type":"Point","coordinates":[-78.76373,35.77101]}},{"properties":{"name":"Central Plaza","id":"a62eg1pw3ofp"},"type":"Feature","geometry":{"type":"Point","coordinates":[-73.82798,40.98271]}},{"properties":{"name":"Centre @ Westbank","id":"a62eg1qbigk1"},"type":"Feature","geometry":{"type":"Point","coordinates":[-90.06668,29.90417]}},{"properties":{"name":"Chandler Fashion Mall","id":"a62eg1zpg2cj"},"type":"Feature","geometry":{"type":"Point","coordinates":[-111.89666,33.30556]}},{"properties":{"name":"Chateau Theatre","id":"a62eg20cn113"},"type":"Feature","geometry":{"type":"Point","coordinates":[-92.46467,44.02264]}},{"properties":{"name":"Chelsea","id":"a62eg1ycbyrp"},"type":"Feature","geometry":{"type":"Point","coordinates":[-73.99376,40.74182]}},{"properties":{"name":"Chesterfield Oaks","id":"a62eg21z1fay"},"type":"Feature","geometry":{"type":"Point","coordinates":[-90.56503,38.6444]}},{"properties":{"name":"Circuit City Plaza","id":"a62eg23h6zmq"},"type":"Feature","geometry":{"type":"Point","coordinates":[-97.1792,31.52093]}},{"properties":{"name":"CitiPlace","id":"a62eg1r1y0o8"},"type":"Feature","geometry":{"type":"Point","coordinates":[-91.12837,30.42302]}},{"properties":{"name":"Citrus Plaza Shopping Center","id":"a62eg1ot65n0"},"type":"Feature","geometry":{"type":"Point","coordinates":[-117.19208,34.0701]}},{"properties":{"name":"City Center","id":"a62eg1rp53pf"},"type":"Feature","geometry":{"type":"Point","coordinates":[-73.76586,41.03277]}},{"properties":{"name":"Clackamas Towne Ctr Mall","id":"a62eg23hkep8"},"type":"Feature","geometry":{"type":"Point","coordinates":[-122.57885,45.43644]}},{"properties":{"name":"Clarendon Market Commons","id":"a62eg1ooximy"},"type":"Feature","geometry":{"type":"Point","coordinates":[-77.09178,38.88822]}},{"properties":{"name":"Clearwater Crossing","id":"a62eg1w2rbpt"},"type":"Feature","geometry":{"type":"Point","coordinates":[-86.10327,39.90979]}},{"properties":{"name":"Clifton Commons","id":"a62eg1ph3y3q"},"type":"Feature","geometry":{"type":"Point","coordinates":[-74.13924,40.8299]}},{"properties":{"name":"Coliseum Mall","id":"a62eg1p8vnz8"},"type":"Feature","geometry":{"type":"Point","coordinates":[-76.39071,37.0416]}},{"properties":{"name":"Colonial Plaza Market Center","id":"a62eg213b87s"},"type":"Feature","geometry":{"type":"Point","coordinates":[-81.35169,28.55306]}},{"properties":{"name":"Columbia Mall","id":"a62eg1oqmm0e"},"type":"Feature","geometry":{"type":"Point","coordinates":[-92.37333,38.96561]}},{"properties":{"name":"Columbus Park North","id":"a62eg1zx8u62"},"type":"Feature","geometry":{"type":"Point","coordinates":[-84.94249,32.54681]}},{"properties":{"name":"Commonwealth Centre","id":"a62eg1pwfng1"},"type":"Feature","geometry":{"type":"Point","coordinates":[-77.63453,37.41936]}},{"properties":{"name":"Concord Mall","id":"a62eg1tcpsqk"},"type":"Feature","geometry":{"type":"Point","coordinates":[-75.54578,39.82333]}},{"properties":{"name":"Consumer Center Ste 501","id":"a62eg1w8mx4g"},"type":"Feature","geometry":{"type":"Point","coordinates":[-74.0314,40.29412]}},{"properties":{"name":"Consumer Square","id":"a62eg24ewssb"},"type":"Feature","geometry":{"type":"Point","coordinates":[-75.3154,43.08616]}},{"properties":{"name":"Consumer Square Plaza","id":"a62eg24knry6"},"type":"Feature","geometry":{"type":"Point","coordinates":[-76.88308,42.15407]}},{"properties":{"name":"Coral Ridge Mall","id":"a62eg1xu0qex"},"type":"Feature","geometry":{"type":"Point","coordinates":[-91.60823,41.69111]}},{"properties":{"name":"Coronado Mall","id":"a62eg1vobbi0"},"type":"Feature","geometry":{"type":"Point","coordinates":[-106.57083,35.10886]}},{"properties":{"name":"Cortlandt Town Center","id":"a62eg221ek5v"},"type":"Feature","geometry":{"type":"Point","coordinates":[-73.85748,41.31972]}},{"properties":{"name":"Cottonwood Corners Shopping Center","id":"a62eg1sgqehq"},"type":"Feature","geometry":{"type":"Point","coordinates":[-106.65281,35.20799]}},{"properties":{"name":"Country Club Plaza","id":"a62eg1ts0b35"},"type":"Feature","geometry":{"type":"Point","coordinates":[-94.59192,39.04246]}},{"properties":{"name":"Country Glen Center","id":"a62eg1zrvx6f"},"type":"Feature","geometry":{"type":"Point","coordinates":[-73.61922,40.74279]}},{"properties":{"name":"County Line Plaza Shopping Center","id":"a62eg1tarqs6"},"type":"Feature","geometry":{"type":"Point","coordinates":[-90.13663,32.39935]}},{"properties":{"name":"Court Street","id":"a62eg1xqkmtu"},"type":"Feature","geometry":{"type":"Point","coordinates":[-73.99212,40.69066]}},{"properties":{"name":"Court Street Plaza","id":"a62eg236hftr"},"type":"Feature","geometry":{"type":"Point","coordinates":[-74.03103,40.73641]}},{"properties":{"name":"Crabtree Mall","id":"a62eg1tskd4k"},"type":"Feature","geometry":{"type":"Point","coordinates":[-78.67874,35.84122]}},{"properties":{"name":"Cranberry Square Shopping Center","id":"a62eg1zpkyp1"},"type":"Feature","geometry":{"type":"Point","coordinates":[-80.10418,40.69]}},{"properties":{"name":"Creeks @ VA Ctr.","id":"a62eg1vwfx6g"},"type":"Feature","geometry":{"type":"Point","coordinates":[-77.46092,37.66725]}},{"properties":{"name":"Creekside Place","id":"a62eg24vptdm"},"type":"Feature","geometry":{"type":"Point","coordinates":[-118.54935,34.41652]}},{"properties":{"name":"Creekside Town Center","id":"a62eg1r7t8dm"},"type":"Feature","geometry":{"type":"Point","coordinates":[-121.26542,38.7729]}},{"properties":{"name":"Creekwalk Village","id":"a62eg1upu6rc"},"type":"Feature","geometry":{"type":"Point","coordinates":[-96.71394,33.0194]}},{"properties":{"name":"Crocker Park","id":"a62eg1w1snb3"},"type":"Feature","geometry":{"type":"Point","coordinates":[-81.95203,41.45985]}},{"properties":{"name":"Crossroads Commons","id":"a62eg1xsjp34"},"type":"Feature","geometry":{"type":"Point","coordinates":[-105.25572,40.02301]}},{"properties":{"name":"Crossroads Commons","id":"a62eg22tulnn"},"type":"Feature","geometry":{"type":"Point","coordinates":[-115.28946,36.15886]}},{"properties":{"name":"Crossroads Mall","id":"a62eg214z9gt"},"type":"Feature","geometry":{"type":"Point","coordinates":[-96.02793,41.25984]}},{"properties":{"name":"Crossroads S.C.","id":"a62eg1rv5024"},"type":"Feature","geometry":{"type":"Point","coordinates":[-122.1396,47.6178]}},{"properties":{"name":"Crossroads SC","id":"a62eg1zyihju"},"type":"Feature","geometry":{"type":"Point","coordinates":[-73.79878,41.04306]}},{"properties":{"name":"Crossroads Towne Center","id":"a62eg1s6rr32"},"type":"Feature","geometry":{"type":"Point","coordinates":[-111.7896,33.34854]}},{"properties":{"name":"Crystal Beach Plaza","id":"a62eg1pvp2l8"},"type":"Feature","geometry":{"type":"Point","coordinates":[-86.42761,30.38841]}},{"properties":{"name":"Danbury Square","id":"a62eg1ro8m1p"},"type":"Feature","geometry":{"type":"Point","coordinates":[-73.4864,41.37559]}},{"properties":{"name":"Dartmouth Towne Center (Route 6)","id":"a62eg1q2wvo5"},"type":"Feature","geometry":{"type":"Point","coordinates":[-70.996,41.64034]}},{"properties":{"name":"Dayton Mall","id":"a62eg23r78o1"},"type":"Feature","geometry":{"type":"Point","coordinates":[-84.21798,39.63647]}},{"properties":{"name":"Deer Park Town Center","id":"a62eg213s3gp"},"type":"Feature","geometry":{"type":"Point","coordinates":[-88.05426,42.16272]}},{"properties":{"name":"Deerbrook Mall","id":"a62eg1spzq3v"},"type":"Feature","geometry":{"type":"Point","coordinates":[-95.26785,30.00697]}},{"properties":{"name":"Deerfield Square","id":"a62eg2415pxv"},"type":"Feature","geometry":{"type":"Point","coordinates":[-87.84545,42.16599]}},{"properties":{"name":"Del Amo Fashion Center","id":"a62eg1z1i8f9"},"type":"Feature","geometry":{"type":"Point","coordinates":[-118.35271,33.83368]}},{"properties":{"name":"Del Mar","id":"a62eg1p86x3z"},"type":"Feature","geometry":{"type":"Point","coordinates":[-117.23506,32.95023]}},{"properties":{"name":"Denver West Village","id":"a62eg1vlb2st"},"type":"Feature","geometry":{"type":"Point","coordinates":[-105.15938,39.73548]}},{"properties":{"name":"Desert Ridge Marketplace","id":"a62eg1r0miwr"},"type":"Feature","geometry":{"type":"Point","coordinates":[-111.97713,33.67694]}},{"properties":{"name":"Downtown Centre","id":"a62eg24zhydx"},"type":"Feature","geometry":{"type":"Point","coordinates":[-120.66128,35.27981]}},{"properties":{"name":"Dreamland Shopping Center","id":"a62eg1qu7ex6"},"type":"Feature","geometry":{"type":"Point","coordinates":[-82.52304,35.58044]}},{"properties":{"name":"Eagan Promenade","id":"a62eg23dt9uo"},"type":"Feature","geometry":{"type":"Point","coordinates":[-93.15864,44.83504]}},{"properties":{"name":"Eagleridge Shopping Center","id":"a62eg1szaxrx"},"type":"Feature","geometry":{"type":"Point","coordinates":[-104.61455,38.31368]}},{"properties":{"name":"East Gate Square","id":"a62eg21z0fnx"},"type":"Feature","geometry":{"type":"Point","coordinates":[-74.96452,39.93938]}},{"properties":{"name":"East Towne Mall","id":"a62eg1zx3dzq"},"type":"Feature","geometry":{"type":"Point","coordinates":[-89.30666,43.12269]}},{"properties":{"name":"Eastern Shore Centre","id":"a62eg1wqq56m"},"type":"Feature","geometry":{"type":"Point","coordinates":[-87.85193,30.67108]}},{"properties":{"name":"Eastgate","id":"a62eg1yf4pah"},"type":"Feature","geometry":{"type":"Point","coordinates":[-97.2434,37.67896]}},{"properties":{"name":"Easton Town Center","id":"a62eg227k9dh"},"type":"Feature","geometry":{"type":"Point","coordinates":[-82.91485,40.04895]}},{"properties":{"name":"Eastridge Shopping Center","id":"a62eg1s09azi"},"type":"Feature","geometry":{"type":"Point","coordinates":[-121.7964,37.35185]}},{"properties":{"name":"Eden Prairie Center","id":"a62eg1thapln"},"type":"Feature","geometry":{"type":"Point","coordinates":[-93.42142,44.85626]}},{"properties":{"name":"Edgewater Commons","id":"a62eg1y4j4yq"},"type":"Feature","geometry":{"type":"Point","coordinates":[-73.98685,40.81268]}},{"properties":{"name":"Edgewood Retail District","id":"a62eg1to5shf"},"type":"Feature","geometry":{"type":"Point","coordinates":[-84.3487,33.75828]}},{"properties":{"name":"El Camino North Shopping Center","id":"a62eg1qzruh9"},"type":"Feature","geometry":{"type":"Point","coordinates":[-117.33084,33.18306]}},{"properties":{"name":"El Cerrito Plaza","id":"a62eg1w7xxx2"},"type":"Feature","geometry":{"type":"Point","coordinates":[-122.30094,37.89915]}},{"properties":{"name":"Encinitas Town Center","id":"a62eg1xjvixs"},"type":"Feature","geometry":{"type":"Point","coordinates":[-117.26256,33.06674]}},{"properties":{"name":"Enfield Commons","id":"a62eg1ruwy95"},"type":"Feature","geometry":{"type":"Point","coordinates":[-72.581,41.99005]}},{"properties":{"name":"Entertainment and Fashion Pavilion","id":"a62eg1qk2p87"},"type":"Feature","geometry":{"type":"Point","coordinates":[-104.99065,39.74389]}},{"properties":{"name":"Eton Collection","id":"a62eg1ysws3c"},"type":"Feature","geometry":{"type":"Point","coordinates":[-81.47474,41.46254]}},{"properties":{"name":"Fair Lakes Promenade","id":"a62eg1uqf024"},"type":"Feature","geometry":{"type":"Point","coordinates":[-77.36742,38.85953]}},{"properties":{"name":"Fairlane Green","id":"a62eg1zlzg8y"},"type":"Feature","geometry":{"type":"Point","coordinates":[-83.19908,42.29118]}},{"properties":{"name":"Fairway Market Place","id":"a62eg21nh8jc"},"type":"Feature","geometry":{"type":"Point","coordinates":[-95.15814,29.64955]}},{"properties":{"name":"Fashion Island Mall","id":"a62eg1zjc5sf"},"type":"Feature","geometry":{"type":"Point","coordinates":[-117.87318,33.61418]}},{"properties":{"name":"Federal Highway","id":"a62eg1y1y06b"},"type":"Feature","geometry":{"type":"Point","coordinates":[-80.11867,26.15411]}},{"properties":{"name":"Felch St Plaza","id":"a62eg1y2rzxk"},"type":"Feature","geometry":{"type":"Point","coordinates":[-86.09524,42.8236]}},{"properties":{"name":"Fenton Commons Shopping Center","id":"a62eg20ptp2c"},"type":"Feature","geometry":{"type":"Point","coordinates":[-90.44578,38.5119]}},{"properties":{"name":"Festival @ Sawmill","id":"a62eg1pcftrr"},"type":"Feature","geometry":{"type":"Point","coordinates":[-83.08853,40.09524]}},{"properties":{"name":"Fiesta Trail","id":"a62eg1xhknmr"},"type":"Feature","geometry":{"type":"Point","coordinates":[-98.58921,29.55961]}},{"properties":{"name":"Firewheel Towne Center","id":"a62eg1v3qsyp"},"type":"Feature","geometry":{"type":"Point","coordinates":[-96.61303,32.95381]}},{"properties":{"name":"Fischer Marketplace","id":"a62eg22cdvip"},"type":"Feature","geometry":{"type":"Point","coordinates":[-93.20535,44.73314]}},{"properties":{"name":"Fisherman's Wharf","id":"a62eg21k77eq"},"type":"Feature","geometry":{"type":"Point","coordinates":[-122.41518,37.80592]}},{"properties":{"name":"Flagstaff","id":"a62eg1td1vaz"},"type":"Feature","geometry":{"type":"Point","coordinates":[-111.65848,35.19299]}},{"properties":{"name":"Florence Square S.C.","id":"a62eg1uh3sk0"},"type":"Feature","geometry":{"type":"Point","coordinates":[-84.65373,38.99794]}},{"properties":{"name":"Florida Mall","id":"a62eg1w376wx"},"type":"Feature","geometry":{"type":"Point","coordinates":[-81.40267,28.44411]}},{"properties":{"name":"Foothills Mall","id":"a62eg1rqv095"},"type":"Feature","geometry":{"type":"Point","coordinates":[-111.01296,32.34078]}},{"properties":{"name":"Fort Gratiot","id":"a62eg1uzls1e"},"type":"Feature","geometry":{"type":"Point","coordinates":[-82.45658,43.03436]}},{"properties":{"name":"Fox River Commons","id":"a62eg1zgersw"},"type":"Feature","geometry":{"type":"Point","coordinates":[-88.47627,44.26337]}},{"properties":{"name":"Fox Run Crossings","id":"a62eg20kapud"},"type":"Feature","geometry":{"type":"Point","coordinates":[-70.79626,43.09345]}},{"properties":{"name":"Franklin Terrace","id":"a62eg211l030"},"type":"Feature","geometry":{"type":"Point","coordinates":[-82.40176,36.35232]}},{"properties":{"name":"Friendly Center","id":"a62eg24zym3g"},"type":"Feature","geometry":{"type":"Point","coordinates":[-79.82982,36.08742]}},{"properties":{"name":"Gallatin Valley Mall","id":"a62eg1rx17t6"},"type":"Feature","geometry":{"type":"Point","coordinates":[-111.07532,45.67231]}},{"properties":{"name":"Galleria","id":"a62eg1ppic2b"},"type":"Feature","geometry":{"type":"Point","coordinates":[-95.46136,29.74204]}},{"properties":{"name":"Galleria Shopping Center","id":"a62eg1v2x245"},"type":"Feature","geometry":{"type":"Point","coordinates":[-93.31973,44.87626]}},{"properties":{"name":"Galleria at Tyler","id":"a62eg1sneq0r"},"type":"Feature","geometry":{"type":"Point","coordinates":[-117.45681,33.90653]}},{"properties":{"name":"Gardiner Manor Mall","id":"a62eg1qdxwiu"},"type":"Feature","geometry":{"type":"Point","coordinates":[-73.27789,40.72918]}},{"properties":{"name":"Gateway","id":"a62eg1xsvkr7"},"type":"Feature","geometry":{"type":"Point","coordinates":[-111.90405,40.76875]}},{"properties":{"name":"Gateway Courtyard","id":"a62eg1vypxpk"},"type":"Feature","geometry":{"type":"Point","coordinates":[-122.05724,38.26173]}},{"properties":{"name":"Gateway Shopping Center","id":"a62eg1vag8uo"},"type":"Feature","geometry":{"type":"Point","coordinates":[-117.0918,33.11793]}},{"properties":{"name":"Genesee Valley Mall","id":"a62eg1wvkrh8"},"type":"Feature","geometry":{"type":"Point","coordinates":[-83.76376,42.97925]}},{"properties":{"name":"Geneva Commons","id":"a62eg1sym3e1"},"type":"Feature","geometry":{"type":"Point","coordinates":[-88.34375,41.89046]}},{"properties":{"name":"Gilroy Crossing","id":"a62eg1x4jk0b"},"type":"Feature","geometry":{"type":"Point","coordinates":[-121.55101,37.00252]}},{"properties":{"name":"Glendale Fashion Center","id":"a62eg1r38rxv"},"type":"Feature","geometry":{"type":"Point","coordinates":[-118.24629,34.14908]}},{"properties":{"name":"Glensford Commons","id":"a62eg1yph5hb"},"type":"Feature","geometry":{"type":"Point","coordinates":[-78.96003,35.06858]}},{"properties":{"name":"Golden Triangle Mall","id":"a62eg1wkc8ae"},"type":"Feature","geometry":{"type":"Point","coordinates":[-97.10917,33.18805]}},{"properties":{"name":"Grand Teton Mall","id":"a62eg1ytn7e9"},"type":"Feature","geometry":{"type":"Point","coordinates":[-111.98713,43.48203]}},{"properties":{"name":"Great Lakes Mall","id":"a62eg1p3rt9s"},"type":"Feature","geometry":{"type":"Point","coordinates":[-81.35792,41.66168]}},{"properties":{"name":"Greenery Mall","id":"a62eg20upvtp"},"type":"Feature","geometry":{"type":"Point","coordinates":[-80.31972,25.68825]}},{"properties":{"name":"Greenwich Village","id":"a62eg20p5qrd"},"type":"Feature","geometry":{"type":"Point","coordinates":[-73.9995,40.7336]}},{"properties":{"name":"Greyhound Plaza","id":"a62eg24fpvy5"},"type":"Feature","geometry":{"type":"Point","coordinates":[-86.12682,40.0028]}},{"properties":{"name":"Grosse Pointe","id":"a62eg1vhzxf7"},"type":"Feature","geometry":{"type":"Point","coordinates":[-82.91069,42.41895]}},{"properties":{"name":"Grossmont Center","id":"a62eg24dtkw6"},"type":"Feature","geometry":{"type":"Point","coordinates":[-117.00973,32.77982]}},{"properties":{"name":"Gulfport Shopping Center","id":"a62eg1t1zgqz"},"type":"Feature","geometry":{"type":"Point","coordinates":[-89.09431,30.43766]}},{"properties":{"name":"Hacienda Crossings","id":"a62eg1zh7bc5"},"type":"Feature","geometry":{"type":"Point","coordinates":[-121.88627,37.7061]}},{"properties":{"name":"Hamburg Pavilion","id":"a62eg1y7sv9i"},"type":"Feature","geometry":{"type":"Point","coordinates":[-84.41695,38.02203]}},{"properties":{"name":"Happy Valley Towne Center","id":"a62eg22dq6t5"},"type":"Feature","geometry":{"type":"Point","coordinates":[-112.10924,33.71285]}},{"properties":{"name":"Har Mar Mall","id":"a62eg1pt72yo"},"type":"Feature","geometry":{"type":"Point","coordinates":[-93.16621,45.00344]}},{"properties":{"name":"Harbison Court","id":"a62eg1rur06n"},"type":"Feature","geometry":{"type":"Point","coordinates":[-81.15777,34.07291]}},{"properties":{"name":"Harrisonburg Crossing","id":"a62eg20u3m6a"},"type":"Feature","geometry":{"type":"Point","coordinates":[-78.85531,38.43274]}},{"properties":{"name":"Hazard Center","id":"a62eg1pa855s"},"type":"Feature","geometry":{"type":"Point","coordinates":[-117.1574,32.77088]}},{"properties":{"name":"Hickory Ridge Pavilion","id":"a62eg1rl4j1y"},"type":"Feature","geometry":{"type":"Point","coordinates":[-89.85133,35.04946]}},{"properties":{"name":"Highland Park","id":"a62eg20u2n0a"},"type":"Feature","geometry":{"type":"Point","coordinates":[-93.18846,44.91776]}},{"properties":{"name":"Hillsdale Shopping Center","id":"a62eg1usfnoj"},"type":"Feature","geometry":{"type":"Point","coordinates":[-122.29945,37.53546]}},{"properties":{"name":"Hilltop Plaza","id":"a62eg1sa5hqo"},"type":"Feature","geometry":{"type":"Point","coordinates":[-122.31896,37.98334]}},{"properties":{"name":"Hulen Shopping Center","id":"a62eg1w8tzh8"},"type":"Feature","geometry":{"type":"Point","coordinates":[-97.39833,32.67509]}},{"properties":{"name":"Hunters Run Centre","id":"a62eg1u7teum"},"type":"Feature","geometry":{"type":"Point","coordinates":[-82.78554,39.92529]}},{"properties":{"name":"Huntsville Commons","id":"a62eg1uog5i7"},"type":"Feature","geometry":{"type":"Point","coordinates":[-86.66349,34.74033]}},{"properties":{"name":"Huron Village","id":"a62eg1t9t183"},"type":"Feature","geometry":{"type":"Point","coordinates":[-83.69609,42.25694]}},{"properties":{"name":"Independence Commons","id":"a62eg1r7ydi6"},"type":"Feature","geometry":{"type":"Point","coordinates":[-94.35487,39.04804]}},{"properties":{"name":"Indigo Run","id":"a62eg22brued"},"type":"Feature","geometry":{"type":"Point","coordinates":[-80.72331,32.21258]}},{"properties":{"name":"Ingram Festival","id":"a62eg23jwvl6"},"type":"Feature","geometry":{"type":"Point","coordinates":[-98.61274,29.47331]}},{"properties":{"name":"Irvine Spectrum Center","id":"a62eg1v0ikvc"},"type":"Feature","geometry":{"type":"Point","coordinates":[-117.74669,33.65099]}},{"properties":{"name":"Irving Mall","id":"a62eg1q3mark"},"type":"Feature","geometry":{"type":"Point","coordinates":[-96.99491,32.83873]}},{"properties":{"name":"Jack London Sq","id":"a62eg1tgjr3d"},"type":"Feature","geometry":{"type":"Point","coordinates":[-122.27672,37.79521]}},{"properties":{"name":"Jacobson's Building","id":"a62eg22zfvs6"},"type":"Feature","geometry":{"type":"Point","coordinates":[-84.48071,42.73462]}},{"properties":{"name":"Jantzen Beach","id":"a62eg1sie1vf"},"type":"Feature","geometry":{"type":"Point","coordinates":[-122.68322,45.61329]}},{"properties":{"name":"Jefferson Pointe Shopping Center","id":"a62eg221d034"},"type":"Feature","geometry":{"type":"Point","coordinates":[-85.19462,41.07058]}},{"properties":{"name":"Jenkintown","id":"a62eg1yxfcc7"},"type":"Feature","geometry":{"type":"Point","coordinates":[-75.12442,40.10554]}},{"properties":{"name":"Jordan Creek Town Center","id":"a62eg22acrpo"},"type":"Feature","geometry":{"type":"Point","coordinates":[-93.80902,41.56853]}},{"properties":{"name":"Jordan Landing","id":"a62eg22lwyua"},"type":"Feature","geometry":{"type":"Point","coordinates":[-111.97912,40.62079]}},{"properties":{"name":"Kendall Village West","id":"a62eg20ttyjp"},"type":"Feature","geometry":{"type":"Point","coordinates":[-80.39413,25.68633]}},{"properties":{"name":"Kensington Center","id":"a62eg24sw48q"},"type":"Feature","geometry":{"type":"Point","coordinates":[-88.20328,41.64604]}},{"properties":{"name":"Kierland Commons","id":"a62eg1pcdybf"},"type":"Feature","geometry":{"type":"Point","coordinates":[-112.02548,33.62866]}},{"properties":{"name":"Kitsap","id":"a62eg1r66gje"},"type":"Feature","geometry":{"type":"Point","coordinates":[-122.69183,47.65967]}},{"properties":{"name":"La Frontera Village","id":"a62eg22m12a2"},"type":"Feature","geometry":{"type":"Point","coordinates":[-97.68098,30.48291]}},{"properties":{"name":"Ladue Crossing Shopping Center","id":"a62eg1uzampr"},"type":"Feature","geometry":{"type":"Point","coordinates":[-90.3517,38.65349]}},{"properties":{"name":"Lake Success SC","id":"a62eg1vf0ses"},"type":"Feature","geometry":{"type":"Point","coordinates":[-73.69428,40.75378]}},{"properties":{"name":"Lake shore Marketplace","id":"a62eg24mjzrq"},"type":"Feature","geometry":{"type":"Point","coordinates":[-86.20586,43.15882]}},{"properties":{"name":"Lakeland Square","id":"a62eg22rd99a"},"type":"Feature","geometry":{"type":"Point","coordinates":[-82.03888,28.2339]}},{"properties":{"name":"Lakeline Crossing","id":"a62eg1r4q8ik"},"type":"Feature","geometry":{"type":"Point","coordinates":[-97.72622,30.37306]}},{"properties":{"name":"Lakeview Sq","id":"a62eg24zwb6g"},"type":"Feature","geometry":{"type":"Point","coordinates":[-85.18361,42.26124]}},{"properties":{"name":"Lakewood Mall","id":"a62eg1vcmb40"},"type":"Feature","geometry":{"type":"Point","coordinates":[-122.51314,47.16045]}},{"properties":{"name":"Lanes Mill Marketplace","id":"a62eg24o5cjd"},"type":"Feature","geometry":{"type":"Point","coordinates":[-74.22387,40.13396]}},{"properties":{"name":"Lansing Mall","id":"a62eg23nmla3"},"type":"Feature","geometry":{"type":"Point","coordinates":[-84.62271,42.74132]}},{"properties":{"name":"Layton Market Center","id":"a62eg23ovkgs"},"type":"Feature","geometry":{"type":"Point","coordinates":[-111.98402,41.08625]}},{"properties":{"name":"Ledgewood Mall","id":"a62eg1s6j1y9"},"type":"Feature","geometry":{"type":"Point","coordinates":[-74.65072,40.87846]}},{"properties":{"name":"Libbie Place","id":"a62eg1y5a8hg"},"type":"Feature","geometry":{"type":"Point","coordinates":[-77.50124,37.58787]}},{"properties":{"name":"Lincoln Center","id":"a62eg236boiy"},"type":"Feature","geometry":{"type":"Point","coordinates":[-73.98192,40.77429]}},{"properties":{"name":"Lincoln Park","id":"a62eg1x2bj13"},"type":"Feature","geometry":{"type":"Point","coordinates":[-87.64559,41.93262]}},{"properties":{"name":"Lincoln Park","id":"a62eg1qmh9mn"},"type":"Feature","geometry":{"type":"Point","coordinates":[-96.77507,32.86526]}},{"properties":{"name":"Lincoln Plaza","id":"a62eg1w4mz69"},"type":"Feature","geometry":{"type":"Point","coordinates":[-71.7723,42.29518]}},{"properties":{"name":"Livingston","id":"a62eg22hhy5v"},"type":"Feature","geometry":{"type":"Point","coordinates":[-74.34704,40.79685]}},{"properties":{"name":"Lloyd Center","id":"a62eg1vmz29h"},"type":"Feature","geometry":{"type":"Point","coordinates":[-122.65245,45.53376]}},{"properties":{"name":"Loehmann's Fashion Island","id":"a62eg20cj1ks"},"type":"Feature","geometry":{"type":"Point","coordinates":[-80.14651,25.94862]}},{"properties":{"name":"Loisdale Center","id":"a62eg20xoibn"},"type":"Feature","geometry":{"type":"Point","coordinates":[-77.17918,38.77361]}},{"properties":{"name":"Lone-Star Pavilion","id":"a62eg1u6ox0p"},"type":"Feature","geometry":{"type":"Point","coordinates":[-96.33323,30.62661]}},{"properties":{"name":"Long Beach Towne Center","id":"a62eg2422g1j"},"type":"Feature","geometry":{"type":"Point","coordinates":[-118.08308,33.82531]}},{"properties":{"name":"Long Gate Shopping Center","id":"a62eg20w5dpm"},"type":"Feature","geometry":{"type":"Point","coordinates":[-76.8173,39.25298]}},{"properties":{"name":"Lynnhaven Mall","id":"a62eg204gae3"},"type":"Feature","geometry":{"type":"Point","coordinates":[-76.0672,36.81997]}},{"properties":{"name":"MacArthur Park at Las Colinas","id":"a62eg1zw1824"},"type":"Feature","geometry":{"type":"Point","coordinates":[-96.95896,32.91111]}},{"properties":{"name":"MacArthur Town Center","id":"a62eg1t2olq6"},"type":"Feature","geometry":{"type":"Point","coordinates":[-75.4924,40.64407]}},{"properties":{"name":"Magic Valley Mall","id":"a62eg22tuntc"},"type":"Feature","geometry":{"type":"Point","coordinates":[-114.4581,42.59214]}},{"properties":{"name":"Main Place of Royal Oak","id":"a62eg1v2ktqt"},"type":"Feature","geometry":{"type":"Point","coordinates":[-83.14437,42.48625]}},{"properties":{"name":"Main Street at Exton","id":"a62eg1pu28pf"},"type":"Feature","geometry":{"type":"Point","coordinates":[-75.62808,40.02317]}},{"properties":{"name":"Mall Of Georgia","id":"a62eg1uss5f8"},"type":"Feature","geometry":{"type":"Point","coordinates":[-83.98656,34.06732]}},{"properties":{"name":"Mall Park Center","id":"a62eg1p2bx4p"},"type":"Feature","geometry":{"type":"Point","coordinates":[-85.88859,37.73795]}},{"properties":{"name":"Mall at Greece Ridge Center","id":"a62eg1sk4w7j"},"type":"Feature","geometry":{"type":"Point","coordinates":[-77.68706,43.2051]}},{"properties":{"name":"Mall at Turtle Creek","id":"a62eg1z6dp1f"},"type":"Feature","geometry":{"type":"Point","coordinates":[-90.66863,35.82124]}},{"properties":{"name":"Mall of America","id":"a62eg23jqekr"},"type":"Feature","geometry":{"type":"Point","coordinates":[-93.24062,44.85393]}},{"properties":{"name":"Mall of the Bluffs","id":"a62eg1xkpccj"},"type":"Feature","geometry":{"type":"Point","coordinates":[-95.82513,41.24583]}},{"properties":{"name":"Manchester","id":"a62eg209ng3i"},"type":"Feature","geometry":{"type":"Point","coordinates":[-71.43549,42.95097]}},{"properties":{"name":"Mandarin Village Shopping Center","id":"a62eg1w1tivb"},"type":"Feature","geometry":{"type":"Point","coordinates":[-81.62897,30.1729]}},{"properties":{"name":"Manhasset","id":"a62eg1qvujng"},"type":"Feature","geometry":{"type":"Point","coordinates":[-73.68953,40.79379]}},{"properties":{"name":"Manhattan Gateway Shopping Center","id":"a62eg23e8xkr"},"type":"Feature","geometry":{"type":"Point","coordinates":[-118.38093,33.90166]}},{"properties":{"name":"Mansell Crossings SC","id":"a62eg1sg2k5y"},"type":"Feature","geometry":{"type":"Point","coordinates":[-84.30478,34.0405]}},{"properties":{"name":"Maple Grove","id":"a62eg21tw49h"},"type":"Feature","geometry":{"type":"Point","coordinates":[-93.44966,45.10097]}},{"properties":{"name":"Maplewood Mall","id":"a62eg21i3evn"},"type":"Feature","geometry":{"type":"Point","coordinates":[-93.01815,45.03169]}},{"properties":{"name":"Marina Del Rey","id":"a62eg1pwfo2e"},"type":"Feature","geometry":{"type":"Point","coordinates":[-118.44147,33.98648]}},{"properties":{"name":"Marina Pacifica Mall","id":"a62eg1ssbiw3"},"type":"Feature","geometry":{"type":"Point","coordinates":[-118.11373,33.76062]}},{"properties":{"name":"Market Pointe I Shopping Center","id":"a62eg20zrlcw"},"type":"Feature","geometry":{"type":"Point","coordinates":[-117.19947,47.67139]}},{"properties":{"name":"Marketplace SC","id":"a62eg1v2h70d"},"type":"Feature","geometry":{"type":"Point","coordinates":[-81.87116,26.54286]}},{"properties":{"name":"Marketview Shopping Center","id":"a62eg1xiob62"},"type":"Feature","geometry":{"type":"Point","coordinates":[-88.24067,40.13796]}},{"properties":{"name":"Mayfair Mall","id":"a62eg1v6u794"},"type":"Feature","geometry":{"type":"Point","coordinates":[-88.04741,43.06459]}},{"properties":{"name":"Mayfaire Town Ctr","id":"a62eg23kda46"},"type":"Feature","geometry":{"type":"Point","coordinates":[-77.83009,34.24339]}},{"properties":{"name":"McIntyre Center","id":"a62eg1vu7e2r"},"type":"Feature","geometry":{"type":"Point","coordinates":[-111.85934,40.72526]}},{"properties":{"name":"Meadow Wood Court","id":"a62eg24g75ru"},"type":"Feature","geometry":{"type":"Point","coordinates":[-119.78826,39.47469]}},{"properties":{"name":"Menlo Park Mall - 55 Parsonage Road","id":"a62eg1roe8tw"},"type":"Feature","geometry":{"type":"Point","coordinates":[-74.33742,40.54998]}},{"properties":{"name":"Merced Marketplace","id":"a62eg217qcmc"},"type":"Feature","geometry":{"type":"Point","coordinates":[-120.49846,37.31896]}},{"properties":{"name":"Mesilla Valley Mall","id":"a62eg1z13gxq"},"type":"Feature","geometry":{"type":"Point","coordinates":[-106.74168,32.31254]}},{"properties":{"name":"Metro Center","id":"a62eg1vcybzg"},"type":"Feature","geometry":{"type":"Point","coordinates":[-112.12007,33.58009]}},{"properties":{"name":"Metro Pointe","id":"a62eg21y35mn"},"type":"Feature","geometry":{"type":"Point","coordinates":[-117.89345,33.69017]}},{"properties":{"name":"Metropolis LifeStyle Center","id":"a62eg1w53vvn"},"type":"Feature","geometry":{"type":"Point","coordinates":[-86.4036,39.7035]}},{"properties":{"name":"Mid Rivers Mall Shopping Center","id":"a62eg1sqqym0"},"type":"Feature","geometry":{"type":"Point","coordinates":[-90.6217,38.7943]}},{"properties":{"name":"Middletown Village","id":"a62eg250f8uz"},"type":"Feature","geometry":{"type":"Point","coordinates":[-71.29263,41.5344]}},{"properties":{"name":"Midland Mall","id":"a62eg23u2d6t"},"type":"Feature","geometry":{"type":"Point","coordinates":[-84.24701,43.65813]}},{"properties":{"name":"Midwest Plaza","id":"a62eg23d30xt"},"type":"Feature","geometry":{"type":"Point","coordinates":[-93.27301,44.97571]}},{"properties":{"name":"Miller Hill Mall","id":"a62eg1vk69q8"},"type":"Feature","geometry":{"type":"Point","coordinates":[-92.16121,46.80659]}},{"properties":{"name":"Mira Mesa MarketCenter","id":"a62eg24ej7bx"},"type":"Feature","geometry":{"type":"Point","coordinates":[-117.12034,32.91649]}},{"properties":{"name":"Mohawk Commons","id":"a62eg1pgqmnv"},"type":"Feature","geometry":{"type":"Point","coordinates":[-73.89281,42.78286]}},{"properties":{"name":"Montclair Plaza","id":"a62eg24qo1iy"},"type":"Feature","geometry":{"type":"Point","coordinates":[-117.69373,34.08825]}},{"properties":{"name":"Montgomery Square","id":"a62eg1tkdub4"},"type":"Feature","geometry":{"type":"Point","coordinates":[-75.23785,40.22854]}},{"properties":{"name":"Montgomery Towne Center","id":"a62eg1qam36o"},"type":"Feature","geometry":{"type":"Point","coordinates":[-86.2396,32.32696]}},{"properties":{"name":"Mountain Farms","id":"a62eg1omyznp"},"type":"Feature","geometry":{"type":"Point","coordinates":[-72.55603,42.35505]}},{"properties":{"name":"Mt. Pleasant Towne Centre","id":"a62eg2485tzu"},"type":"Feature","geometry":{"type":"Point","coordinates":[-79.82909,32.83012]}},{"properties":{"name":"Natomas","id":"a62eg1ulcndz"},"type":"Feature","geometry":{"type":"Point","coordinates":[-121.4909,38.63906]}},{"properties":{"name":"New Hope Commons","id":"a62eg21ctmmt"},"type":"Feature","geometry":{"type":"Point","coordinates":[-78.99463,35.95446]}},{"properties":{"name":"Newburgh Crossing (Union Ave)","id":"a62eg1vzjh14"},"type":"Feature","geometry":{"type":"Point","coordinates":[-74.0702,41.50265]}},{"properties":{"name":"Newport on the Levee","id":"a62eg1w0a0gy"},"type":"Feature","geometry":{"type":"Point","coordinates":[-84.49553,39.09469]}},{"properties":{"name":"North Haven Crossing","id":"a62eg21kbttq"},"type":"Feature","geometry":{"type":"Point","coordinates":[-72.87208,41.35808]}},{"properties":{"name":"North Lexington-Springmill","id":"a62eg1x0chcq"},"type":"Feature","geometry":{"type":"Point","coordinates":[-82.59018,40.77437]}},{"properties":{"name":"North Park Mall","id":"a62eg23m1nac"},"type":"Feature","geometry":{"type":"Point","coordinates":[-90.57711,41.56038]}},{"properties":{"name":"North Village Shopping Center","id":"a62eg23bwztg"},"type":"Feature","geometry":{"type":"Point","coordinates":[-74.45042,40.46419]}},{"properties":{"name":"Northcross Shopping Center","id":"a62eg20whfb6"},"type":"Feature","geometry":{"type":"Point","coordinates":[-98.22402,26.23959]}},{"properties":{"name":"Northland Square SC","id":"a62eg1zwb9f4"},"type":"Feature","geometry":{"type":"Point","coordinates":[-91.63369,42.02777]}},{"properties":{"name":"Northshore Mall","id":"a62eg1vtukhy"},"type":"Feature","geometry":{"type":"Point","coordinates":[-70.94227,42.54318]}},{"properties":{"name":"Northtown Mall","id":"a62eg1va3zqt"},"type":"Feature","geometry":{"type":"Point","coordinates":[-117.4109,47.70167]}},{"properties":{"name":"Northwest Village Shopping Center","id":"a62eg20gch0w"},"type":"Feature","geometry":{"type":"Point","coordinates":[-94.14449,36.12654]}},{"properties":{"name":"Northwoods Marketplace","id":"a62eg1u4wwig"},"type":"Feature","geometry":{"type":"Point","coordinates":[-80.04008,32.94098]}},{"properties":{"name":"Northwoods Shopping Center","id":"a62eg1yija7h"},"type":"Feature","geometry":{"type":"Point","coordinates":[-98.46877,29.60621]}},{"properties":{"name":"Norwalk","id":"a62eg23lsa52"},"type":"Feature","geometry":{"type":"Point","coordinates":[-73.43818,41.10176]}},{"properties":{"name":"Oakland Place Shopping Center","id":"a62eg1qscp5j"},"type":"Feature","geometry":{"type":"Point","coordinates":[-88.72387,41.95388]}},{"properties":{"name":"Oakview Mall","id":"a62eg1rqgd3i"},"type":"Feature","geometry":{"type":"Point","coordinates":[-96.1331,41.22684]}},{"properties":{"name":"Oakwood Plaza","id":"a62eg201v8i8"},"type":"Feature","geometry":{"type":"Point","coordinates":[-80.15995,26.04765]}},{"properties":{"name":"Oglethorpe Mall","id":"a62eg1t41ct2"},"type":"Feature","geometry":{"type":"Point","coordinates":[-81.11729,32.00489]}},{"properties":{"name":"Opry Mills Mall","id":"a62eg1vge2hh"},"type":"Feature","geometry":{"type":"Point","coordinates":[-86.69742,36.20709]}},{"properties":{"name":"Orange Town &amp; Country","id":"a62eg1pudfip"},"type":"Feature","geometry":{"type":"Point","coordinates":[-117.86723,33.77867]}},{"properties":{"name":"Orange Towne Center","id":"a62eg21he6w4"},"type":"Feature","geometry":{"type":"Point","coordinates":[-72.99006,41.27633]}},{"properties":{"name":"Orchard Lake Road","id":"a62eg22lui9l"},"type":"Feature","geometry":{"type":"Point","coordinates":[-83.36075,42.53874]}},{"properties":{"name":"Orland Park Place","id":"a62eg1s33p7l"},"type":"Feature","geometry":{"type":"Point","coordinates":[-87.8492,41.61406]}},{"properties":{"name":"Owings Mills/Pikesville","id":"a62eg24nv8vx"},"type":"Feature","geometry":{"type":"Point","coordinates":[-76.7377,39.38797]}},{"properties":{"name":"Pacific Place","id":"a62eg1pap304"},"type":"Feature","geometry":{"type":"Point","coordinates":[-122.33534,47.61229]}},{"properties":{"name":"Palm Valley Pavillions West","id":"a62eg21nuxx2"},"type":"Feature","geometry":{"type":"Point","coordinates":[-112.3582,33.4625]}},{"properties":{"name":"Paramus III","id":"a62eg1z3gzrn"},"type":"Feature","geometry":{"type":"Point","coordinates":[-74.08071,40.97228]}},{"properties":{"name":"Park Centre Commons","id":"a62eg2205cv1"},"type":"Feature","geometry":{"type":"Point","coordinates":[-82.18278,29.15231]}},{"properties":{"name":"Parkdale Mall","id":"a62eg22cgypp"},"type":"Feature","geometry":{"type":"Point","coordinates":[-94.16476,30.12183]}},{"properties":{"name":"Patton Creek Shopping Center","id":"a62eg1w2k7x2"},"type":"Feature","geometry":{"type":"Point","coordinates":[-86.81486,33.37509]}},{"properties":{"name":"Pavilions Centre","id":"a62eg222s4a6"},"type":"Feature","geometry":{"type":"Point","coordinates":[-122.3136,47.32119]}},{"properties":{"name":"Pembroke Pines","id":"a62eg1pk06i2"},"type":"Feature","geometry":{"type":"Point","coordinates":[-80.30634,26.00756]}},{"properties":{"name":"Pickering Place","id":"a62eg1zlfilc"},"type":"Feature","geometry":{"type":"Point","coordinates":[-122.05396,47.54845]}},{"properties":{"name":"Pineville","id":"a62eg1wtxxu2"},"type":"Feature","geometry":{"type":"Point","coordinates":[-80.87777,35.08791]}},{"properties":{"name":"Pittsford Plaza","id":"a62eg1wf437f"},"type":"Feature","geometry":{"type":"Point","coordinates":[-77.53826,43.10253]}},{"properties":{"name":"Plaza Venezia","id":"a62eg1zrj6tx"},"type":"Feature","geometry":{"type":"Point","coordinates":[-81.49166,28.44976]}},{"properties":{"name":"Plaza at Cedar Hill","id":"a62eg20f3zy9"},"type":"Feature","geometry":{"type":"Point","coordinates":[-96.93898,32.59416]}},{"properties":{"name":"Pleasant Hill Square Shopping Center","id":"a62eg1zo786y"},"type":"Feature","geometry":{"type":"Point","coordinates":[-84.13566,33.96019]}},{"properties":{"name":"Polaris Towne Center","id":"a62eg23m3n4r"},"type":"Feature","geometry":{"type":"Point","coordinates":[-82.98462,40.14124]}},{"properties":{"name":"Post Plaza Shopping Center","id":"a62eg1t8dm75"},"type":"Feature","geometry":{"type":"Point","coordinates":[-73.32769,41.13886]}},{"properties":{"name":"Potomac Yard","id":"a62eg1r50lsz"},"type":"Feature","geometry":{"type":"Point","coordinates":[-77.05166,38.83758]}},{"properties":{"name":"Premier Center II","id":"a62eg20odltw"},"type":"Feature","geometry":{"type":"Point","coordinates":[-90.08457,30.39218]}},{"properties":{"name":"Prescott Gateway","id":"a62eg2511t68"},"type":"Feature","geometry":{"type":"Point","coordinates":[-112.4063,34.5451]}},{"properties":{"name":"Preston Royal Shopping Center","id":"a62eg1uccftk"},"type":"Feature","geometry":{"type":"Point","coordinates":[-96.80524,32.89535]}},{"properties":{"name":"Princeton Marketfair","id":"a62eg1rfttiq"},"type":"Feature","geometry":{"type":"Point","coordinates":[-74.6354,40.33364]}},{"properties":{"name":"Promenade Shopping Center","id":"a62eg1tv017p"},"type":"Feature","geometry":{"type":"Point","coordinates":[-120.99447,37.68926]}},{"properties":{"name":"Prudential Center","id":"a62eg20l7k4d"},"type":"Feature","geometry":{"type":"Point","coordinates":[-71.08191,42.34872]}},{"properties":{"name":"Quail Springs","id":"a62eg1wvg9so"},"type":"Feature","geometry":{"type":"Point","coordinates":[-97.56684,35.61156]}},{"properties":{"name":"Rainbow Promenade","id":"a62eg2138k2p"},"type":"Feature","geometry":{"type":"Point","coordinates":[-115.24247,36.19955]}},{"properties":{"name":"Rancho Cucamonga","id":"a62eg1vqub90"},"type":"Feature","geometry":{"type":"Point","coordinates":[-117.56187,34.10674]}},{"properties":{"name":"Raymour &amp; Flanigan Plaza","id":"a62eg24vy1fd"},"type":"Feature","geometry":{"type":"Point","coordinates":[-76.0691,43.04501]}},{"properties":{"name":"Red Rose Commons","id":"a62eg21f5ggz"},"type":"Feature","geometry":{"type":"Point","coordinates":[-76.31643,40.06838]}},{"properties":{"name":"Richland Centre","id":"a62eg1t42rc3"},"type":"Feature","geometry":{"type":"Point","coordinates":[-97.20077,32.83448]}},{"properties":{"name":"Richland Fashion Mall","id":"a62eg1t6odwz"},"type":"Feature","geometry":{"type":"Point","coordinates":[-80.99198,34.01823]}},{"properties":{"name":"Richmond Town","id":"a62eg1xbbnpn"},"type":"Feature","geometry":{"type":"Point","coordinates":[-81.49702,41.54161]}},{"properties":{"name":"Ridgehaven Mall","id":"a62eg22h3k66"},"type":"Feature","geometry":{"type":"Point","coordinates":[-93.44455,44.96878]}},{"properties":{"name":"Rittenhouse","id":"a62eg1t51zw3"},"type":"Feature","geometry":{"type":"Point","coordinates":[-75.17092,39.95036]}},{"properties":{"name":"River Hills Place","id":"a62eg24iq0px"},"type":"Feature","geometry":{"type":"Point","coordinates":[-93.95291,44.17022]}},{"properties":{"name":"River Town Crossing","id":"a62eg1rw78ik"},"type":"Feature","geometry":{"type":"Point","coordinates":[-85.75505,42.88216]}},{"properties":{"name":"Riverbend Center","id":"a62eg1vrbvjs"},"type":"Feature","geometry":{"type":"Point","coordinates":[-85.1628,34.2499]}},{"properties":{"name":"Rockefeller Center","id":"a62eg1wf3rbw"},"type":"Feature","geometry":{"type":"Point","coordinates":[-73.9781,40.7576]}},{"properties":{"name":"Route 28","id":"a62eg1uaq377"},"type":"Feature","geometry":{"type":"Point","coordinates":[-71.2206,42.76981]}},{"properties":{"name":"Salisbury Promenade","id":"a62eg22iqaux"},"type":"Feature","geometry":{"type":"Point","coordinates":[-75.56783,38.4115]}},{"properties":{"name":"Santee Trolley Square","id":"a62eg1t0txzn"},"type":"Feature","geometry":{"type":"Point","coordinates":[-116.98072,32.83874]}},{"properties":{"name":"Scottsdale Center Phase IV","id":"a62eg1te8uev"},"type":"Feature","geometry":{"type":"Point","coordinates":[-94.18017,36.33645]}},{"properties":{"name":"Scottsdale Fiesta Shopping Center","id":"a62eg1u2d2vh"},"type":"Feature","geometry":{"type":"Point","coordinates":[-111.88637,33.58161]}},{"properties":{"name":"Seven Corners","id":"a62eg22uiaon"},"type":"Feature","geometry":{"type":"Point","coordinates":[-77.15156,38.86729]}},{"properties":{"name":"Sharon Corners Shopping Center","id":"a62eg1to0o3u"},"type":"Feature","geometry":{"type":"Point","coordinates":[-80.83153,35.14748]}},{"properties":{"name":"Shelby Town Center","id":"a62eg21gwn1c"},"type":"Feature","geometry":{"type":"Point","coordinates":[-82.98648,42.62764]}},{"properties":{"name":"Shoppes at the Meadows","id":"a62eg1r8la8f"},"type":"Feature","geometry":{"type":"Point","coordinates":[-104.88722,39.56448]}},{"properties":{"name":"Short Pump","id":"a62eg1ovwucg"},"type":"Feature","geometry":{"type":"Point","coordinates":[-77.61695,37.6526]}},{"properties":{"name":"Slatten Ranch Shopping Center","id":"a62eg1zw1bx7"},"type":"Feature","geometry":{"type":"Point","coordinates":[-121.74107,37.96184]}},{"properties":{"name":"Somerset Shopping Center","id":"a62eg1zhxeye"},"type":"Feature","geometry":{"type":"Point","coordinates":[-74.6249,40.5825]}},{"properties":{"name":"South Center","id":"a62eg1vnrl7x"},"type":"Feature","geometry":{"type":"Point","coordinates":[-122.2542,47.45566]}},{"properties":{"name":"South Hills Village","id":"a62eg1rv8z9e"},"type":"Feature","geometry":{"type":"Point","coordinates":[-80.05456,40.34334]}},{"properties":{"name":"SouthPointe Pavilions","id":"a62eg21f9pw4"},"type":"Feature","geometry":{"type":"Point","coordinates":[-96.67966,40.74024]}},{"properties":{"name":"Southern Hills Mall","id":"a62eg1rtiudf"},"type":"Feature","geometry":{"type":"Point","coordinates":[-96.34991,42.44828]}},{"properties":{"name":"Southlake Town Square","id":"a62eg1sfsda2"},"type":"Feature","geometry":{"type":"Point","coordinates":[-97.1307,32.943]}},{"properties":{"name":"Southland Center","id":"a62eg1qmzuc2"},"type":"Feature","geometry":{"type":"Point","coordinates":[-87.85376,42.70033]}},{"properties":{"name":"Southland SC","id":"a62eg21ktex5"},"type":"Feature","geometry":{"type":"Point","coordinates":[-85.58968,42.22813]}},{"properties":{"name":"Southmont Center","id":"a62eg1ru1mvt"},"type":"Feature","geometry":{"type":"Point","coordinates":[-75.2676,40.6849]}},{"properties":{"name":"Southridge Centre","id":"a62eg1siwj1u"},"type":"Feature","geometry":{"type":"Point","coordinates":[-100.7815,46.8002]}},{"properties":{"name":"Southroads Shopping Center","id":"a62eg1u27qgf"},"type":"Feature","geometry":{"type":"Point","coordinates":[-95.91672,36.10452]}},{"properties":{"name":"Spectrum Center","id":"a62eg246i4zz"},"type":"Feature","geometry":{"type":"Point","coordinates":[-77.35665,38.96138]}},{"properties":{"name":"Spradlin Farms","id":"a62eg1ufgnww"},"type":"Feature","geometry":{"type":"Point","coordinates":[-80.42097,37.15867]}},{"properties":{"name":"Spring Hill Mall","id":"a62eg1tq8hkx"},"type":"Feature","geometry":{"type":"Point","coordinates":[-88.29707,42.10062]}},{"properties":{"name":"Springdale Plaza","id":"a62eg20nnhdc"},"type":"Feature","geometry":{"type":"Point","coordinates":[-88.12231,30.67644]}},{"properties":{"name":"Squirrel Hill","id":"a62eg1rx89gc"},"type":"Feature","geometry":{"type":"Point","coordinates":[-79.92282,40.43777]}},{"properties":{"name":"St Johns Town Center","id":"a62eg22eppqq"},"type":"Feature","geometry":{"type":"Point","coordinates":[-81.52633,30.25796]}},{"properties":{"name":"St. Cloud Rainbow Village","id":"a62eg23xqrcs"},"type":"Feature","geometry":{"type":"Point","coordinates":[-94.20712,45.55316]}},{"properties":{"name":"Stallbrook Marketplace","id":"a62eg1vmcd95"},"type":"Feature","geometry":{"type":"Point","coordinates":[-71.46028,42.11586]}},{"properties":{"name":"Staples Plaza","id":"a62eg1ppjx19"},"type":"Feature","geometry":{"type":"Point","coordinates":[-71.0219,42.47877]}},{"properties":{"name":"State College","id":"a62eg1oodc6c"},"type":"Feature","geometry":{"type":"Point","coordinates":[-77.80489,40.83066]}},{"properties":{"name":"Staten Island","id":"a62eg1q6ybe7"},"type":"Feature","geometry":{"type":"Point","coordinates":[-74.16329,40.59225]}},{"properties":{"name":"Stevens Creek Blvd","id":"a62eg1pmtrz2"},"type":"Feature","geometry":{"type":"Point","coordinates":[-121.96251,37.32313]}},{"properties":{"name":"Stonebriar Mall","id":"a62eg1uwc4js"},"type":"Feature","geometry":{"type":"Point","coordinates":[-96.80576,33.10006]}},{"properties":{"name":"Stony Creek Marketplace","id":"a62eg1q658i3"},"type":"Feature","geometry":{"type":"Point","coordinates":[-85.99348,40.03555]}},{"properties":{"name":"Streetscape at Monroeville Mall","id":"a62eg1ujpdp0"},"type":"Feature","geometry":{"type":"Point","coordinates":[-79.79415,40.4308]}},{"properties":{"name":"Suburban Plaza","id":"a62eg22e7zo4"},"type":"Feature","geometry":{"type":"Point","coordinates":[-84.04652,35.92529]}},{"properties":{"name":"Sugar Land ll","id":"a62eg1xb09ir"},"type":"Feature","geometry":{"type":"Point","coordinates":[-95.61935,29.59634]}},{"properties":{"name":"Suite 700","id":"a62eg1zwu3hb"},"type":"Feature","geometry":{"type":"Point","coordinates":[-119.22418,46.2248]}},{"properties":{"name":"Summit Shopping Center","id":"a62eg1zcbbty"},"type":"Feature","geometry":{"type":"Point","coordinates":[-86.73121,33.44699]}},{"properties":{"name":"Sundance Square","id":"a62eg1qj9432"},"type":"Feature","geometry":{"type":"Point","coordinates":[-97.33057,32.75544]}},{"properties":{"name":"Sunland Park","id":"a62eg1tler7v"},"type":"Feature","geometry":{"type":"Point","coordinates":[-106.54378,31.81895]}},{"properties":{"name":"Sunrise Promenade","id":"a62eg1s9o8e1"},"type":"Feature","geometry":{"type":"Point","coordinates":[-73.4453,40.67783]}},{"properties":{"name":"Sunset Valley Village","id":"a62eg1znv0v8"},"type":"Feature","geometry":{"type":"Point","coordinates":[-97.82196,30.22668]}},{"properties":{"name":"Surprise Marketplace","id":"a62eg1yvdg3o"},"type":"Feature","geometry":{"type":"Point","coordinates":[-112.35464,33.63846]}},{"properties":{"name":"Sycamore Plaza at Kenwood","id":"a62eg1yf45c8"},"type":"Feature","geometry":{"type":"Point","coordinates":[-84.38016,39.19884]}},{"properties":{"name":"Tallahassee Mall","id":"a62eg1u90k16"},"type":"Feature","geometry":{"type":"Point","coordinates":[-84.29163,30.47246]}},{"properties":{"name":"Tanasbourne","id":"a62eg1y3hsn3"},"type":"Feature","geometry":{"type":"Point","coordinates":[-122.86502,45.53765]}},{"properties":{"name":"Temecula","id":"a62eg1wg539r"},"type":"Feature","geometry":{"type":"Point","coordinates":[-117.15496,33.52832]}},{"properties":{"name":"The Aboretum","id":"a62eg24kwqu4"},"type":"Feature","geometry":{"type":"Point","coordinates":[-80.78438,35.09772]}},{"properties":{"name":"The Annex of Arlington Shopping Ctr","id":"a62eg206unfj"},"type":"Feature","geometry":{"type":"Point","coordinates":[-87.98248,42.11378]}},{"properties":{"name":"The Arena Hub","id":"a62eg1ru7s3u"},"type":"Feature","geometry":{"type":"Point","coordinates":[-75.84034,41.2417]}},{"properties":{"name":"The Avenue @ White Marsh","id":"a62eg1u8q95m"},"type":"Feature","geometry":{"type":"Point","coordinates":[-76.46604,39.37164]}},{"properties":{"name":"The Avenue West Cobb","id":"a62eg24oh08o"},"type":"Feature","geometry":{"type":"Point","coordinates":[-84.65841,33.95326]}},{"properties":{"name":"The Centre in Copperfield","id":"a62eg24kbfv3"},"type":"Feature","geometry":{"type":"Point","coordinates":[-95.64524,29.8801]}},{"properties":{"name":"The Commons at Calabasas Park","id":"a62eg250ruy1"},"type":"Feature","geometry":{"type":"Point","coordinates":[-118.64492,34.15416]}},{"properties":{"name":"The Commons at Holmdel","id":"a62eg1ze253q"},"type":"Feature","geometry":{"type":"Point","coordinates":[-74.15128,40.41411]}},{"properties":{"name":"The Cordova Crossing","id":"a62eg1xvr45h"},"type":"Feature","geometry":{"type":"Point","coordinates":[-87.21652,30.48024]}},{"properties":{"name":"The Court @ Oxford Valley","id":"a62eg1tk0ply"},"type":"Feature","geometry":{"type":"Point","coordinates":[-74.86841,40.1854]}},{"properties":{"name":"The Court at Deptford II","id":"a62eg1y6c6hh"},"type":"Feature","geometry":{"type":"Point","coordinates":[-75.09955,39.82444]}},{"properties":{"name":"The Crossings","id":"a62eg250gtjx"},"type":"Feature","geometry":{"type":"Point","coordinates":[-117.51902,33.82434]}},{"properties":{"name":"The Crossings at Smithfield","id":"a62eg1yoo6r0"},"type":"Feature","geometry":{"type":"Point","coordinates":[-71.52305,41.87034]}},{"properties":{"name":"The Derby Street Shoppes","id":"a62eg1umkz78"},"type":"Feature","geometry":{"type":"Point","coordinates":[-70.90681,42.18021]}},{"properties":{"name":"The Forum","id":"a62eg1xf7buj"},"type":"Feature","geometry":{"type":"Point","coordinates":[-121.26407,44.05504]}},{"properties":{"name":"The Forum on Peachtree Parkway","id":"a62eg21hddfz"},"type":"Feature","geometry":{"type":"Point","coordinates":[-84.21507,33.98151]}},{"properties":{"name":"The Grove at Farmers Market","id":"a62eg23t555f"},"type":"Feature","geometry":{"type":"Point","coordinates":[-118.35647,34.07305]}},{"properties":{"name":"The Hamilton Marketplace","id":"a62eg21egmtl"},"type":"Feature","geometry":{"type":"Point","coordinates":[-74.64262,40.19323]}},{"properties":{"name":"The Mall of Victor Valley","id":"a62eg22w5vta"},"type":"Feature","geometry":{"type":"Point","coordinates":[-117.34915,34.47064]}},{"properties":{"name":"The Market Place","id":"a62eg1urgoxo"},"type":"Feature","geometry":{"type":"Point","coordinates":[-117.79001,33.72478]}},{"properties":{"name":"The Marketplace at Palmdale","id":"a62eg230ov0p"},"type":"Feature","geometry":{"type":"Point","coordinates":[-118.14743,34.5958]}},{"properties":{"name":"The Metroplex","id":"a62eg1pgkwyt"},"type":"Feature","geometry":{"type":"Point","coordinates":[-75.28613,40.10507]}},{"properties":{"name":"The Other Center","id":"a62eg1zuw4w4"},"type":"Feature","geometry":{"type":"Point","coordinates":[-92.22767,34.79034]}},{"properties":{"name":"The Oviedo Marketplace","id":"a62eg1x4wzky"},"type":"Feature","geometry":{"type":"Point","coordinates":[-81.23567,28.66456]}},{"properties":{"name":"The Palisades Center","id":"a62eg1yknnng"},"type":"Feature","geometry":{"type":"Point","coordinates":[-73.95988,41.0996]}},{"properties":{"name":"The Palladium at CityPlace","id":"a62eg1vw7g9x"},"type":"Feature","geometry":{"type":"Point","coordinates":[-80.05705,26.70785]}},{"properties":{"name":"The Pointe at 53rd","id":"a62eg1zz7zam"},"type":"Feature","geometry":{"type":"Point","coordinates":[-111.88812,40.6572]}},{"properties":{"name":"The Power Plant","id":"a62eg1u7hfa1"},"type":"Feature","geometry":{"type":"Point","coordinates":[-76.60773,39.28661]}},{"properties":{"name":"The Promenade","id":"a62eg1qfr5gx"},"type":"Feature","geometry":{"type":"Point","coordinates":[-118.60573,34.18124]}},{"properties":{"name":"The Pruneyard","id":"a62eg1y5ypw6"},"type":"Feature","geometry":{"type":"Point","coordinates":[-121.93187,37.28952]}},{"properties":{"name":"The Rosenburg Building","id":"a62eg1s6zktr"},"type":"Feature","geometry":{"type":"Point","coordinates":[-122.71216,38.44114]}},{"properties":{"name":"The Shoppes at Blackstone Valley","id":"a62eg241zfic"},"type":"Feature","geometry":{"type":"Point","coordinates":[-71.76385,42.18512]}},{"properties":{"name":"The Shoppes at Cross Keys","id":"a62eg1qg490g"},"type":"Feature","geometry":{"type":"Point","coordinates":[-90.29701,38.80598]}},{"properties":{"name":"The Shoppes at Farmington Valley","id":"a62eg1opmvc2"},"type":"Feature","geometry":{"type":"Point","coordinates":[-72.88469,41.82406]}},{"properties":{"name":"The Shoppes at Three Fountains","id":"a62eg1pa2scz"},"type":"Feature","geometry":{"type":"Point","coordinates":[-93.76675,41.60036]}},{"properties":{"name":"The Shoppes at Wellington Green","id":"a62eg1t0jr2d"},"type":"Feature","geometry":{"type":"Point","coordinates":[-80.21134,26.6511]}},{"properties":{"name":"The Shoppes of Beavercreek","id":"a62eg1yywhns"},"type":"Feature","geometry":{"type":"Point","coordinates":[-84.05077,39.76801]}},{"properties":{"name":"The Shops @ Riverside","id":"a62eg1pryetv"},"type":"Feature","geometry":{"type":"Point","coordinates":[-74.0316,40.90839]}},{"properties":{"name":"The Shops at Centerra","id":"a62eg1wdqz38"},"type":"Feature","geometry":{"type":"Point","coordinates":[-104.98686,40.41098]}},{"properties":{"name":"The Shops at Greenridge","id":"a62eg1vjbxre"},"type":"Feature","geometry":{"type":"Point","coordinates":[-82.30529,34.83072]}},{"properties":{"name":"The Shops at Sunset Place","id":"a62eg1v8i9hl"},"type":"Feature","geometry":{"type":"Point","coordinates":[-80.28557,25.70454]}},{"properties":{"name":"The Shops at Tanforan","id":"a62eg1ykqu1j"},"type":"Feature","geometry":{"type":"Point","coordinates":[-122.42074,37.63632]}},{"properties":{"name":"The Stacks at the Waterfront","id":"a62eg20sw8dq"},"type":"Feature","geometry":{"type":"Point","coordinates":[-79.91523,40.40801]}},{"properties":{"name":"The Streets at Southpoint","id":"a62eg21amvvg"},"type":"Feature","geometry":{"type":"Point","coordinates":[-78.94955,35.90374]}},{"properties":{"name":"The Streets of Westchester","id":"a62eg1uc63fs"},"type":"Feature","geometry":{"type":"Point","coordinates":[-84.4232,39.31957]}},{"properties":{"name":"The Summit @ Louisville","id":"a62eg1qy147q"},"type":"Feature","geometry":{"type":"Point","coordinates":[-85.57745,38.30619]}},{"properties":{"name":"The Walpole Mall","id":"a62eg1qicgl7"},"type":"Feature","geometry":{"type":"Point","coordinates":[-71.20401,42.15501]}},{"properties":{"name":"Thorncreek Shopping Ctr","id":"a62eg1vx4hnr"},"type":"Feature","geometry":{"type":"Point","coordinates":[-104.9777,39.91432]}},{"properties":{"name":"Thousand Oaks","id":"a62eg1yyf1uo"},"type":"Feature","geometry":{"type":"Point","coordinates":[-118.82296,34.16021]}},{"properties":{"name":"Tollgate Marketplace","id":"a62eg1p6ex21"},"type":"Feature","geometry":{"type":"Point","coordinates":[-76.35106,39.52321]}},{"properties":{"name":"Tops Plaza","id":"a62eg1t5388w"},"type":"Feature","geometry":{"type":"Point","coordinates":[-76.50829,42.43353]}},{"properties":{"name":"Town &amp; Country Village","id":"a62eg21ita9u"},"type":"Feature","geometry":{"type":"Point","coordinates":[-95.56033,29.7728]}},{"properties":{"name":"Town Center Prado","id":"a62eg1t524dx"},"type":"Feature","geometry":{"type":"Point","coordinates":[-84.54998,34.01404]}},{"properties":{"name":"Town Square Mall","id":"a62eg1vypuuc"},"type":"Feature","geometry":{"type":"Point","coordinates":[-76.01216,42.0946]}},{"properties":{"name":"Towson Circle","id":"a62eg1pwck7l"},"type":"Feature","geometry":{"type":"Point","coordinates":[-76.60185,39.40176]}},{"properties":{"name":"Treasure Coast Commons","id":"a62eg1ude8cf"},"type":"Feature","geometry":{"type":"Point","coordinates":[-80.27059,27.24157]}},{"properties":{"name":"Triangle Town Center","id":"a62eg20zp4ea"},"type":"Feature","geometry":{"type":"Point","coordinates":[-78.57167,35.86678]}},{"properties":{"name":"Tyler Broadway Pavilion","id":"a62eg1y7iq4k"},"type":"Feature","geometry":{"type":"Point","coordinates":[-95.30113,32.29652]}},{"properties":{"name":"Tysons Corner Center","id":"a62eg1zdboca"},"type":"Feature","geometry":{"type":"Point","coordinates":[-77.22085,38.915]}},{"properties":{"name":"Ulster Plaza","id":"a62eg1y09oyc"},"type":"Feature","geometry":{"type":"Point","coordinates":[-73.99004,41.96376]}},{"properties":{"name":"Union Square","id":"a62eg1wnrh2h"},"type":"Feature","geometry":{"type":"Point","coordinates":[-73.98997,40.73711]}},{"properties":{"name":"University Commons","id":"a62eg20b9kh0"},"type":"Feature","geometry":{"type":"Point","coordinates":[-77.38126,35.57969]}},{"properties":{"name":"University Commons","id":"a62eg245ninf"},"type":"Feature","geometry":{"type":"Point","coordinates":[-80.109,26.3654]}},{"properties":{"name":"University Crossings Plaza","id":"a62eg1rxo7b7"},"type":"Feature","geometry":{"type":"Point","coordinates":[-111.68667,40.2733]}},{"properties":{"name":"University Park Village","id":"a62eg1t3gvh1"},"type":"Feature","geometry":{"type":"Point","coordinates":[-97.36136,32.72741]}},{"properties":{"name":"University Town Centre","id":"a62eg1zh9kfz"},"type":"Feature","geometry":{"type":"Point","coordinates":[-80.0636,39.7201]}},{"properties":{"name":"University Village SC","id":"a62eg1p3ue0g"},"type":"Feature","geometry":{"type":"Point","coordinates":[-122.2988,47.6638]}},{"properties":{"name":"Uptown Square","id":"a62eg2138vwk"},"type":"Feature","geometry":{"type":"Point","coordinates":[-84.43524,33.48204]}},{"properties":{"name":"Utopia Center","id":"a62eg1u7qubv"},"type":"Feature","geometry":{"type":"Point","coordinates":[-73.79144,40.72577]}},{"properties":{"name":"Valley Bend at Jones Farm Shopping Center","id":"a62eg247i3zp"},"type":"Feature","geometry":{"type":"Point","coordinates":[-86.54818,34.67765]}},{"properties":{"name":"Valley Fair","id":"a62eg1tmsr9k"},"type":"Feature","geometry":{"type":"Point","coordinates":[-75.43919,40.07091]}},{"properties":{"name":"Valley River Center","id":"a62eg1umw3rl"},"type":"Feature","geometry":{"type":"Point","coordinates":[-123.1071,44.07124]}},{"properties":{"name":"Valparaiso Marketplace","id":"a62eg1zcwudv"},"type":"Feature","geometry":{"type":"Point","coordinates":[-87.02682,41.46601]}},{"properties":{"name":"Vancouver Plaza","id":"a62eg23z3toc"},"type":"Feature","geometry":{"type":"Point","coordinates":[-122.59445,45.64653]}},{"properties":{"name":"Vanderbilt Square","id":"a62eg1tbcc6t"},"type":"Feature","geometry":{"type":"Point","coordinates":[-95.42468,29.70586]}},{"properties":{"name":"Ventana Row","id":"a62eg21i3ilw"},"type":"Feature","geometry":{"type":"Point","coordinates":[-122.26784,37.86643]}},{"properties":{"name":"Ventura Gateway","id":"a62eg2263jgf"},"type":"Feature","geometry":{"type":"Point","coordinates":[-119.2291,34.26289]}},{"properties":{"name":"Village Crossing Shopping Center","id":"a62eg1y4g5ef"},"type":"Feature","geometry":{"type":"Point","coordinates":[-87.76274,42.01176]}},{"properties":{"name":"Village Square at Dana Park","id":"a62eg1qwvt99"},"type":"Feature","geometry":{"type":"Point","coordinates":[-111.75423,33.38325]}},{"properties":{"name":"Village of Ashwaubenon","id":"a62eg21rb6hx"},"type":"Feature","geometry":{"type":"Point","coordinates":[-88.06986,44.48291]}},{"properties":{"name":"Villagio Retail Center","id":"a62eg1z6dzsh"},"type":"Feature","geometry":{"type":"Point","coordinates":[-119.79115,36.84935]}},{"properties":{"name":"Viscount Village","id":"a62eg1s1klwp"},"type":"Feature","geometry":{"type":"Point","coordinates":[-106.36314,31.76586]}},{"properties":{"name":"Vista Ridge Village","id":"a62eg1q2l9lu"},"type":"Feature","geometry":{"type":"Point","coordinates":[-96.97427,33.00748]}},{"properties":{"name":"Walt Whitman","id":"a62eg1ox34es"},"type":"Feature","geometry":{"type":"Point","coordinates":[-73.41072,40.81714]}},{"properties":{"name":"Wards Crossing","id":"a62eg1srj5fj"},"type":"Feature","geometry":{"type":"Point","coordinates":[-79.18765,37.34661]}},{"properties":{"name":"Warwick Centre","id":"a62eg1y754hl"},"type":"Feature","geometry":{"type":"Point","coordinates":[-71.4949,41.70182]}},{"properties":{"name":"Washington Center","id":"a62eg21vsgxn"},"type":"Feature","geometry":{"type":"Point","coordinates":[-77.20075,39.11745]}},{"properties":{"name":"Water Town Plaza","id":"a62eg1p205y1"},"type":"Feature","geometry":{"type":"Point","coordinates":[-87.85138,41.16605]}},{"properties":{"name":"Waterford Lakes Town Center","id":"a62eg21yua5q"},"type":"Feature","geometry":{"type":"Point","coordinates":[-81.20465,28.55238]}},{"properties":{"name":"Waterside Shops","id":"a62eg1p3lwm3"},"type":"Feature","geometry":{"type":"Point","coordinates":[-81.80067,26.21227]}},{"properties":{"name":"Waterstone","id":"a62eg1yodxup"},"type":"Feature","geometry":{"type":"Point","coordinates":[-84.30478,39.29335]}},{"properties":{"name":"Watertower Plaza","id":"a62eg1w3v3qo"},"type":"Feature","geometry":{"type":"Point","coordinates":[-71.75875,42.54227]}},{"properties":{"name":"Waterworks Mall","id":"a62eg1yit8lt"},"type":"Feature","geometry":{"type":"Point","coordinates":[-79.88875,40.48656]}},{"properties":{"name":"Wausau Shopping Center","id":"a62eg1oo3fct"},"type":"Feature","geometry":{"type":"Point","coordinates":[-89.65349,44.92637]}},{"properties":{"name":"Weberstown Mall","id":"a62eg23ed4v3"},"type":"Feature","geometry":{"type":"Point","coordinates":[-121.31354,37.9941]}},{"properties":{"name":"Webster Place","id":"a62eg1wtqwjh"},"type":"Feature","geometry":{"type":"Point","coordinates":[-87.6648,41.92146]}},{"properties":{"name":"Webster Towne Center","id":"a62eg1pnxdi3"},"type":"Feature","geometry":{"type":"Point","coordinates":[-77.45017,43.21017]}},{"properties":{"name":"West Oaks Village","id":"a62eg1tqf0ff"},"type":"Feature","geometry":{"type":"Point","coordinates":[-101.91976,25.42376]}},{"properties":{"name":"West Towne Mall","id":"a62eg24nvm8r"},"type":"Feature","geometry":{"type":"Point","coordinates":[-89.51101,43.06046]}},{"properties":{"name":"West Valley","id":"a62eg1wha4u6"},"type":"Feature","geometry":{"type":"Point","coordinates":[-83.98182,43.47996]}},{"properties":{"name":"West Valley Mall","id":"a62eg21dzqbm"},"type":"Feature","geometry":{"type":"Point","coordinates":[-121.46213,37.75882]}},{"properties":{"name":"Westfield Shoppingtown Palm Desert","id":"a62eg1vyaal5"},"type":"Feature","geometry":{"type":"Point","coordinates":[-116.39385,33.72174]}},{"properties":{"name":"Westfield West Park","id":"a62eg1w6kqpy"},"type":"Feature","geometry":{"type":"Point","coordinates":[-89.57003,37.30066]}},{"properties":{"name":"Westgate Mall","id":"a62eg22oefbm"},"type":"Feature","geometry":{"type":"Point","coordinates":[-121.98997,37.29336]}},{"properties":{"name":"Westgate Mall #7","id":"a62eg21aqvu9"},"type":"Feature","geometry":{"type":"Point","coordinates":[-101.93767,35.18563]}},{"properties":{"name":"Westgate Plaza","id":"a62eg1tjnxe6"},