{"type":"FeatureCollection","data_type":"Dataset","url_type":null,"permissions":[{"permissions":{"download":true,"view":true},"group_id":"everyone"}],"classification":null,"title":"DOITT_SUBWAY_STATION_01_13SEPT2010","count":470,"stream_id":149995,"contributor":{"url":"http://geocommons.com/users/32135","name":"stuartathompson"},"data_attributes":null,"calculation_params":null,"icon_link":null,"link":"http://geocommons.com/overlays/149995.json","extent":[-74.0309,40.576,-73.7554,40.9031],"geometry_types":["point"],"unique_name":null,"name":"DOITT_SUBWAY_STATION_01_13SEPT2010","feature_count":470,"description":"Point representing approximate location of NYC Transit Subway stations","next_feature":null,"is_raster":false,"short_classification":"Y","stats":{},"features":[{"properties":{"NAME":"W 4th St - Washington Sq (Lower)","LINE":"B-D-F-M","URL":"http://www.mta.info/nyct/subway/index.html","id":"0"},"type":"Feature","geometry":{"type":"Point","coordinates":[-74.0003081470682,40.7322548265067]}},{"properties":{"NAME":"Buhre Ave","LINE":"6-6 Express","URL":"http://www.mta.info/nyct/subway/index.html","id":"1"},"type":"Feature","geometry":{"type":"Point","coordinates":[-73.8325689992474,40.8468103326148]}},{"properties":{"NAME":"51st St","LINE":"4-6-6 Express","URL":"http://www.mta.info/nyct/subway/index.html","id":"2"},"type":"Feature","geometry":{"type":"Point","coordinates":[-73.971920000133,40.7571073331482]}},{"properties":{"NAME":"86th St","LINE":"1-2","URL":"http://www.mta.info/nyct/subway/index.html","id":"3"},"type":"Feature","geometry":{"type":"Point","coordinates":[-73.9762179981134,40.7886443340489]}},{"properties":{"NAME":"Brooklyn Bridge - City Hall","LINE":"4-5-6-6 Express","URL":"http://www.mta.info/nyct/subway/index.html","id":"4"},"type":"Feature","geometry":{"type":"Point","coordinates":[-74.0041310011169,40.713065332984]}},{"properties":{"NAME":"33rd St","LINE":"4-6-6 Express","URL":"http://www.mta.info/nyct/subway/index.html","id":"5"},"type":"Feature","geometry":{"type":"Point","coordinates":[-73.9820760012492,40.7460813321576]}},{"properties":{"NAME":"Lexington Ave - 59th St","LINE":"4-5-6-6 Express","URL":"http://www.mta.info/nyct/subway/index.html","id":"6"},"type":"Feature","geometry":{"type":"Point","coordinates":[-73.9679670006643,40.7625263338917]}},{"properties":{"NAME":"233rd St","LINE":"2-5","URL":"http://www.mta.info/nyct/subway/index.html","id":"7"},"type":"Feature","geometry":{"type":"Point","coordinates":[-73.8573623943354,40.8931435750623]}},{"properties":{"NAME":"66th St - Lincoln Ctr","LINE":"1-2","URL":"http://www.mta.info/nyct/subway/index.html","id":"8"},"type":"Feature","geometry":{"type":"Point","coordinates":[-73.9822090004121,40.7734403342314]}},{"properties":{"NAME":"Hunts Point Ave","LINE":"6-6 Express","URL":"http://www.mta.info/nyct/subway/index.html","id":"9"},"type":"Feature","geometry":{"type":"Point","coordinates":[-73.8905489997538,40.8209483318662]}},{"properties":{"NAME":"Canal St","LINE":"1-2","URL":"http://www.mta.info/nyct/subway/index.html","id":"10"},"type":"Feature","geometry":{"type":"Point","coordinates":[-74.0062770002375,40.722854331339]}},{"properties":{"NAME":"Middletown Rd","LINE":"6-6 Express","URL":"http://www.mta.info/nyct/subway/index.html","id":"11"},"type":"Feature","geometry":{"type":"Point","coordinates":[-73.8363219973265,40.8438633346736]}},{"properties":{"NAME":"23rd St","LINE":"4-6-6 Express","URL":"http://www.mta.info/nyct/subway/index.html","id":"12"},"type":"Feature","geometry":{"type":"Point","coordinates":[-73.9865990018397,40.7398643335507]}},{"properties":{"NAME":"45th Rd - Court House Sq","LINE":"7-7 Express","URL":"http://www.mta.info/nyct/subway/index.html","id":"13"},"type":"Feature","geometry":{"type":"Point","coordinates":[-73.9452640006533,40.7470233318634]}},{"properties":{"NAME":"Astor Pl","LINE":"4-6-6 Express","URL":"http://www.mta.info/nyct/subway/index.html","id":"14"},"type":"Feature","geometry":{"type":"Point","coordinates":[-73.991069998955,40.7300543337693]}},{"properties":{"NAME":"59th St - Columbus Circle","LINE":"1-2","URL":"http://www.mta.info/nyct/subway/index.html","id":"15"},"type":"Feature","geometry":{"type":"Point","coordinates":[-73.9819290016825,40.7682473339375]}},{"properties":{"NAME":"Hunters Point Ave","LINE":"7-7 Express","URL":"http://www.mta.info/nyct/subway/index.html","id":"16"},"type":"Feature","geometry":{"type":"Point","coordinates":[-73.9489160011606,40.7422163332616]}},{"properties":{"NAME":"96th St","LINE":"4-6-6 Express","URL":"http://www.mta.info/nyct/subway/index.html","id":"17"},"type":"Feature","geometry":{"type":"Point","coordinates":[-73.9510700007068,40.7856723334853]}},{"properties":{"NAME":"Mets - Willets Point","LINE":"7-7 Express","URL":"http://www.mta.info/nyct/subway/index.html","id":"18"},"type":"Feature","geometry":{"type":"Point","coordinates":[-73.8456249978671,40.7546223324577]}},{"properties":{"NAME":"23rd St","LINE":"1-2","URL":"http://www.mta.info/nyct/subway/index.html","id":"19"},"type":"Feature","geometry":{"type":"Point","coordinates":[-73.9956570019647,40.744081332884]}},{"properties":{"NAME":"Houston St","LINE":"1-2","URL":"http://www.mta.info/nyct/subway/index.html","id":"20"},"type":"Feature","geometry":{"type":"Point","coordinates":[-74.0053670018428,40.7282513336078]}},{"properties":{"NAME":"3rd Ave - 138th St","LINE":"6-6 Express","URL":"http://www.mta.info/nyct/subway/index.html","id":"21"},"type":"Feature","geometry":{"type":"Point","coordinates":[-73.9261380002227,40.8104763345413]}},{"properties":{"NAME":"Zerega Ave","LINE":"6-6 Express","URL":"http://www.mta.info/nyct/subway/index.html","id":"22"},"type":"Feature","geometry":{"type":"Point","coordinates":[-73.8470359980454,40.8364883336628]}},{"properties":{"NAME":"104th St","LINE":"A-S","URL":"http://www.mta.info/nyct/subway/index.html","id":"23"},"type":"Feature","geometry":{"type":"Point","coordinates":[-73.8376829999373,40.6817113342027]}},{"properties":{"NAME":"Bleecker St (Downtown)","LINE":"4-6-6 Express","URL":"http://www.mta.info/nyct/subway/index.html","id":"24"},"type":"Feature","geometry":{"type":"Point","coordinates":[-73.9946746782957,40.7259312382293]}},{"properties":{"NAME":"Castle Hill Ave","LINE":"6-6 Express","URL":"http://www.mta.info/nyct/subway/index.html","id":"25"},"type":"Feature","geometry":{"type":"Point","coordinates":[-73.8512219992089,40.8342553318321]}},{"properties":{"NAME":"Broad Channel","LINE":"A-S","URL":"http://www.mta.info/nyct/subway/index.html","id":"26"},"type":"Feature","geometry":{"type":"Point","coordinates":[-73.8158326867774,40.6084025139819]}},{"properties":{"NAME":"Ocean Pkwy","LINE":"Q","URL":"http://www.mta.info/nyct/subway/index.html","id":"27"},"type":"Feature","geometry":{"type":"Point","coordinates":[-73.9685010000047,40.5763120005781]}},{"properties":{"NAME":"50th St","LINE":"1-2","URL":"http://www.mta.info/nyct/subway/index.html","id":"28"},"type":"Feature","geometry":{"type":"Point","coordinates":[-73.9838489999184,40.761728333081]}},{"properties":{"NAME":"Vernon Blvd - Jackson Ave","LINE":"7-7 Express","URL":"http://www.mta.info/nyct/subway/index.html","id":"29"},"type":"Feature","geometry":{"type":"Point","coordinates":[-73.95358099882,40.7426263325713]}},{"properties":{"NAME":"68th St - Hunter College","LINE":"4-6-6 Express","URL":"http://www.mta.info/nyct/subway/index.html","id":"30"},"type":"Feature","geometry":{"type":"Point","coordinates":[-73.9638700014865,40.7681413339039]}},{"properties":{"NAME":"Queensboro Plz","LINE":"7-7 Express-N-W","URL":"http://www.mta.info/nyct/subway/index.html","id":"31"},"type":"Feature","geometry":{"type":"Point","coordinates":[-73.9401635343974,40.7506359843809]}},{"properties":{"NAME":"Rockaway Blvd","LINE":"A-S","URL":"http://www.mta.info/nyct/subway/index.html","id":"32"},"type":"Feature","geometry":{"type":"Point","coordinates":[-73.8438529971174,40.6804293333503]}},{"properties":{"NAME":"Union Sq - 14th St","LINE":"4-5-6-6 Express","URL":"http://www.mta.info/nyct/subway/index.html","id":"33"},"type":"Feature","geometry":{"type":"Point","coordinates":[-73.9899509988698,40.734673334561]}},{"properties":{"NAME":"Junction Blvd","LINE":"7-7 Express","URL":"http://www.mta.info/nyct/subway/index.html","id":"34"},"type":"Feature","geometry":{"type":"Point","coordinates":[-73.8695269997964,40.7491453327311]}},{"properties":{"NAME":"Classon Ave","LINE":"G","URL":"http://www.mta.info/nyct/subway/index.html","id":"35"},"type":"Feature","geometry":{"type":"Point","coordinates":[-73.9599900012695,40.6888893336764]}},{"properties":{"NAME":"Bedford - Nostrand Aves","LINE":"G","URL":"http://www.mta.info/nyct/subway/index.html","id":"36"},"type":"Feature","geometry":{"type":"Point","coordinates":[-73.9535219998761,40.6896273349134]}},{"properties":{"NAME":"15th St - Prospect Park","LINE":"F-G","URL":"http://www.mta.info/nyct/subway/index.html","id":"37"},"type":"Feature","geometry":{"type":"Point","coordinates":[-73.9797358060769,40.6600360216854]}},{"properties":{"NAME":"7th Ave","LINE":"F-G","URL":"http://www.mta.info/nyct/subway/index.html","id":"38"},"type":"Feature","geometry":{"type":"Point","coordinates":[-73.9802511788692,40.6662450236906]}},{"properties":{"NAME":"Ft Hamilton Pkwy","LINE":"F-G","URL":"http://www.mta.info/nyct/subway/index.html","id":"39"},"type":"Feature","geometry":{"type":"Point","coordinates":[-73.9757759988598,40.6507820009882]}},{"properties":{"NAME":"Church Ave","LINE":"F-G","URL":"http://www.mta.info/nyct/subway/index.html","id":"40"},"type":"Feature","geometry":{"type":"Point","coordinates":[-73.9797211616719,40.644272333466]}},{"properties":{"NAME":"Beverly Rd","LINE":"B-Q","URL":"http://www.mta.info/nyct/subway/index.html","id":"41"},"type":"Feature","geometry":{"type":"Point","coordinates":[-73.9643577954927,40.6439049316559]}},{"properties":{"NAME":"Church Ave","LINE":"B-Q","URL":"http://www.mta.info/nyct/subway/index.html","id":"42"},"type":"Feature","geometry":{"type":"Point","coordinates":[-73.9628824614486,40.6504935798757]}},{"properties":{"NAME":"Newkirk Ave","LINE":"B-Q","URL":"http://www.mta.info/nyct/subway/index.html","id":"43"},"type":"Feature","geometry":{"type":"Point","coordinates":[-73.9626948684797,40.6351422703947]}},{"properties":{"NAME":"Parkside Ave","LINE":"B-Q","URL":"http://www.mta.info/nyct/subway/index.html","id":"44"},"type":"Feature","geometry":{"type":"Point","coordinates":[-73.9614534400077,40.655073374717]}},{"properties":{"NAME":"Prospect Park","LINE":"B-Q-S","URL":"http://www.mta.info/nyct/subway/index.html","id":"45"},"type":"Feature","geometry":{"type":"Point","coordinates":[-73.9620313045171,40.6616337881713]}},{"properties":{"NAME":"Grand Army Plaza","LINE":"2-3-4","URL":"http://www.mta.info/nyct/subway/index.html","id":"46"},"type":"Feature","geometry":{"type":"Point","coordinates":[-73.9709563314429,40.6752950288424]}},{"properties":{"NAME":"Bergen St","LINE":"2-3-4","URL":"http://www.mta.info/nyct/subway/index.html","id":"47"},"type":"Feature","geometry":{"type":"Point","coordinates":[-73.974999150989,40.6808624704529]}},{"properties":{"NAME":"Atlantic Ave","LINE":"2-3-4-5","URL":"http://www.mta.info/nyct/subway/index.html","id":"48"},"type":"Feature","geometry":{"type":"Point","coordinates":[-73.9775499355032,40.684420498534]}},{"properties":{"NAME":"Rockaway Ave","LINE":"A-C","URL":"http://www.mta.info/nyct/subway/index.html","id":"49"},"type":"Feature","geometry":{"type":"Point","coordinates":[-73.9119459972731,40.6783403332411]}},{"properties":{"NAME":"Fulton St","LINE":"G","URL":"http://www.mta.info/nyct/subway/index.html","id":"50"},"type":"Feature","geometry":{"type":"Point","coordinates":[-73.9753749987391,40.6871193326578]}},{"properties":{"NAME":"Clinton - Washington Aves","LINE":"G","URL":"http://www.mta.info/nyct/subway/index.html","id":"51"},"type":"Feature","geometry":{"type":"Point","coordinates":[-73.9667959983086,40.6880943345886]}},{"properties":{"NAME":"7th Ave","LINE":"B-Q","URL":"http://www.mta.info/nyct/subway/index.html","id":"52"},"type":"Feature","geometry":{"type":"Point","coordinates":[-73.9728527914631,40.677102512887]}},{"properties":{"NAME":"Atlantic Ave","LINE":"B-Q","URL":"http://www.mta.info/nyct/subway/index.html","id":"53"},"type":"Feature","geometry":{"type":"Point","coordinates":[-73.976783439311,40.6844886564363]}},{"properties":{"NAME":"Union St","LINE":"D-N-R","URL":"http://www.mta.info/nyct/subway/index.html","id":"54"},"type":"Feature","geometry":{"type":"Point","coordinates":[-73.9831099993177,40.6773160004599]}},{"properties":{"NAME":"Atlantic Av - Pacific St","LINE":"D-N-R","URL":"http://www.mta.info/nyct/subway/index.html","id":"55"},"type":"Feature","geometry":{"type":"Point","coordinates":[-73.9788099993485,40.6836660004798]}},{"properties":{"NAME":"Borough Hall","LINE":"4-5","URL":"http://www.mta.info/nyct/subway/index.html","id":"56"},"type":"Feature","geometry":{"type":"Point","coordinates":[-73.9901510005831,40.6924043331009]}},{"properties":{"NAME":"Aqueduct Racetrack (To Manh Only)","LINE":"A","URL":"http://www.mta.info/nyct/subway/index.html","id":"57"},"type":"Feature","geometry":{"type":"Point","coordinates":[-73.835918998794,40.6720973323055]}},{"properties":{"NAME":"DeKalb Ave","LINE":"B-D-N-Q-R","URL":"http://www.mta.info/nyct/subway/index.html","id":"58"},"type":"Feature","geometry":{"type":"Point","coordinates":[-73.9818240003621,40.6906350003392]}},{"properties":{"NAME":"Morris Park","LINE":"5","URL":"http://www.mta.info/nyct/subway/index.html","id":"59"},"type":"Feature","geometry":{"type":"Point","coordinates":[-73.860494999982,40.8543643327001]}},{"properties":{"NAME":"Pelham Pkwy","LINE":"5","URL":"http://www.mta.info/nyct/subway/index.html","id":"60"},"type":"Feature","geometry":{"type":"Point","coordinates":[-73.8553590000599,40.8589853329393]}},{"properties":{"NAME":"Nostrand Ave","LINE":"A-C","URL":"http://www.mta.info/nyct/subway/index.html","id":"61"},"type":"Feature","geometry":{"type":"Point","coordinates":[-73.9504260004854,40.6804383331073]}},{"properties":{"NAME":"Nevins St","LINE":"2-3-4-5","URL":"http://www.mta.info/nyct/subway/index.html","id":"62"},"type":"Feature","geometry":{"type":"Point","coordinates":[-73.9804067986719,40.6883109131059]}},{"properties":{"NAME":"Eastern Pkwy - Bklyn Museum","LINE":"2-3-4","URL":"http://www.mta.info/nyct/subway/index.html","id":"63"},"type":"Feature","geometry":{"type":"Point","coordinates":[-73.9642220370174,40.6720325689256]}},{"properties":{"NAME":"Franklin Ave","LINE":"2-3-4-5","URL":"http://www.mta.info/nyct/subway/index.html","id":"64"},"type":"Feature","geometry":{"type":"Point","coordinates":[-73.9580997365901,40.6707654864579]}},{"properties":{"NAME":"Beverly Rd","LINE":"2-5","URL":"http://www.mta.info/nyct/subway/index.html","id":"65"},"type":"Feature","geometry":{"type":"Point","coordinates":[-73.9488479833557,40.6451238526565]}},{"properties":{"NAME":"Church Ave","LINE":"2-5","URL":"http://www.mta.info/nyct/subway/index.html","id":"66"},"type":"Feature","geometry":{"type":"Point","coordinates":[-73.9494551403219,40.6508610207091]}},{"properties":{"NAME":"Newkirk Ave","LINE":"2-5","URL":"http://www.mta.info/nyct/subway/index.html","id":"67"},"type":"Feature","geometry":{"type":"Point","coordinates":[-73.9482999075322,40.6399915760304]}},{"properties":{"NAME":"Brooklyn College - Flatbush Ave","LINE":"2-5","URL":"http://www.mta.info/nyct/subway/index.html","id":"68"},"type":"Feature","geometry":{"type":"Point","coordinates":[-73.9475412071948,40.6328427404675]}},{"properties":{"NAME":"Winthrop St","LINE":"2-5","URL":"http://www.mta.info/nyct/subway/index.html","id":"69"},"type":"Feature","geometry":{"type":"Point","coordinates":[-73.9500793454168,40.6566596475044]}},{"properties":{"NAME":"Sterling St","LINE":"2-5","URL":"http://www.mta.info/nyct/subway/index.html","id":"70"},"type":"Feature","geometry":{"type":"Point","coordinates":[-73.950728911504,40.6627733269901]}},{"properties":{"NAME":"Crown Hts - Utica Ave","LINE":"3-4","URL":"http://www.mta.info/nyct/subway/index.html","id":"71"},"type":"Feature","geometry":{"type":"Point","coordinates":[-73.9329325606634,40.6689786443666]}},{"properties":{"NAME":"Kingston Ave","LINE":"3-4","URL":"http://www.mta.info/nyct/subway/index.html","id":"72"},"type":"Feature","geometry":{"type":"Point","coordinates":[-73.942159783262,40.6694817816043]}},{"properties":{"NAME":"Kingston - Throop Aves","LINE":"A-C","URL":"http://www.mta.info/nyct/subway/index.html","id":"73"},"type":"Feature","geometry":{"type":"Point","coordinates":[-73.9408589983912,40.679919332914]}},{"properties":{"NAME":"Nassau Ave","LINE":"G","URL":"http://www.mta.info/nyct/subway/index.html","id":"74"},"type":"Feature","geometry":{"type":"Point","coordinates":[-73.951182999797,40.7244803311835]}},{"properties":{"NAME":"Greenpoint Ave","LINE":"G","URL":"http://www.mta.info/nyct/subway/index.html","id":"75"},"type":"Feature","geometry":{"type":"Point","coordinates":[-73.9544250017507,40.7312673327231]}},{"properties":{"NAME":"Marcy Ave","LINE":"J-M-Z","URL":"http://www.mta.info/nyct/subway/index.html","id":"76"},"type":"Feature","geometry":{"type":"Point","coordinates":[-73.9578319999985,40.7083833336101]}},{"properties":{"NAME":"Hewes St","LINE":"J-M","URL":"http://www.mta.info/nyct/subway/index.html","id":"77"},"type":"Feature","geometry":{"type":"Point","coordinates":[-73.9534880004083,40.7068903312179]}},{"properties":{"NAME":"Essex St","LINE":"J-M-Z","URL":"http://www.mta.info/nyct/subway/index.html","id":"78"},"type":"Feature","geometry":{"type":"Point","coordinates":[-73.9874094023335,40.7183063890855]}},{"properties":{"NAME":"138th St - Grand Concourse","LINE":"4-5","URL":"http://www.mta.info/nyct/subway/index.html","id":"79"},"type":"Feature","geometry":{"type":"Point","coordinates":[-73.9298489994811,40.8132243327986]}},{"properties":{"NAME":"5th Ave - 53rd St","LINE":"E-M","URL":"http://www.mta.info/nyct/subway/index.html","id":"80"},"type":"Feature","geometry":{"type":"Point","coordinates":[-73.9752485046602,40.760087165961]}},{"properties":{"NAME":"Lexington Ave - 53rd St","LINE":"E-M","URL":"http://www.mta.info/nyct/subway/index.html","id":"81"},"type":"Feature","geometry":{"type":"Point","coordinates":[-73.9690723741773,40.7574686415725]}},{"properties":{"NAME":"28th St","LINE":"N-R","URL":"http://www.mta.info/nyct/subway/index.html","id":"82"},"type":"Feature","geometry":{"type":"Point","coordinates":[-73.9886980006626,40.7454543333092]}},{"properties":{"NAME":"Herald Sq - 34th St","LINE":"N-Q-R","URL":"http://www.mta.info/nyct/subway/index.html","id":"83"},"type":"Feature","geometry":{"type":"Point","coordinates":[-73.987936833243,40.7496448930789]}},{"properties":{"NAME":"1st Ave","LINE":"L","URL":"http://www.mta.info/nyct/subway/index.html","id":"84"},"type":"Feature","geometry":{"type":"Point","coordinates":[-73.9816808750905,40.7309753087607]}},{"properties":{"NAME":"Grand Central - 42nd St","LINE":"S","URL":"http://www.mta.info/nyct/subway/index.html","id":"85"},"type":"Feature","geometry":{"type":"Point","coordinates":[-73.9791890000073,40.7527690001725]}},{"properties":{"NAME":"Times Sq - 42nd St","LINE":"S","URL":"http://www.mta.info/nyct/subway/index.html","id":"86"},"type":"Feature","geometry":{"type":"Point","coordinates":[-73.9862289999368,40.7559833334829]}},{"properties":{"NAME":"42nd St - Bryant Pk","LINE":"B-D-F-M","URL":"http://www.mta.info/nyct/subway/index.html","id":"87"},"type":"Feature","geometry":{"type":"Point","coordinates":[-73.9845909983989,40.7541843346296]}},{"properties":{"NAME":"Times Sq - 42nd St","LINE":"N-Q-R","URL":"http://www.mta.info/nyct/subway/index.html","id":"88"},"type":"Feature","geometry":{"type":"Point","coordinates":[-73.9867680020269,40.7546123322308]}},{"properties":{"NAME":"Metropolitan Ave","LINE":"G","URL":"http://www.mta.info/nyct/subway/index.html","id":"89"},"type":"Feature","geometry":{"type":"Point","coordinates":[-73.9514239995614,40.71277433427]}},{"properties":{"NAME":"Grand St","LINE":"L","URL":"http://www.mta.info/nyct/subway/index.html","id":"90"},"type":"Feature","geometry":{"type":"Point","coordinates":[-73.9404969989823,40.711576333817]}},{"properties":{"NAME":"Graham Ave","LINE":"L","URL":"http://www.mta.info/nyct/subway/index.html","id":"91"},"type":"Feature","geometry":{"type":"Point","coordinates":[-73.9439439978815,40.7145763314997]}},{"properties":{"NAME":"Lorimer St","LINE":"L","URL":"http://www.mta.info/nyct/subway/index.html","id":"92"},"type":"Feature","geometry":{"type":"Point","coordinates":[-73.9502480001932,40.7140723341722]}},{"properties":{"NAME":"Bedford Ave","LINE":"L","URL":"http://www.mta.info/nyct/subway/index.html","id":"93"},"type":"Feature","geometry":{"type":"Point","coordinates":[-73.9566649983701,40.7171743323137]}},{"properties":{"NAME":"Broadway","LINE":"G","URL":"http://www.mta.info/nyct/subway/index.html","id":"94"},"type":"Feature","geometry":{"type":"Point","coordinates":[-73.9503122559598,40.7061269098406]}},{"properties":{"NAME":"Lorimer St","LINE":"J-M","URL":"http://www.mta.info/nyct/subway/index.html","id":"95"},"type":"Feature","geometry":{"type":"Point","coordinates":[-73.9473549981358,40.7038443337936]}},{"properties":{"NAME":"Montrose Ave","LINE":"L","URL":"http://www.mta.info/nyct/subway/index.html","id":"96"},"type":"Feature","geometry":{"type":"Point","coordinates":[-73.9397928465133,40.7073913972524]}},{"properties":{"NAME":"23rd St - Ely Av","LINE":"E-M","URL":"http://www.mta.info/nyct/subway/index.html","id":"97"},"type":"Feature","geometry":{"type":"Point","coordinates":[-73.946054702705,40.7477684547948]}},{"properties":{"NAME":"Long Island City - Court Sq","LINE":"G","URL":"http://www.mta.info/nyct/subway/index.html","id":"98"},"type":"Feature","geometry":{"type":"Point","coordinates":[-73.9438155955715,40.746305367062]}},{"properties":{"NAME":"21st St","LINE":"G","URL":"http://www.mta.info/nyct/subway/index.html","id":"99"},"type":"Feature","geometry":{"type":"Point","coordinates":[-73.9495999993797,40.7441290000131]}},{"properties":{"NAME":"39th Ave","LINE":"N-Q","URL":"http://www.mta.info/nyct/subway/index.html","id":"100"},"type":"Feature","geometry":{"type":"Point","coordinates":[-73.932851376069,40.7527633945594]}},{"properties":{"NAME":"36th Ave","LINE":"N-Q","URL":"http://www.mta.info/nyct/subway/index.html","id":"101"},"type":"Feature","geometry":{"type":"Point","coordinates":[-73.9298619983323,40.7564423334375]}},{"properties":{"NAME":"145th St","LINE":"1","URL":"http://www.mta.info/nyct/subway/index.html","id":"102"},"type":"Feature","geometry":{"type":"Point","coordinates":[-73.950359998095,40.8265513327747]}},{"properties":{"NAME":"157th St","LINE":"1","URL":"http://www.mta.info/nyct/subway/index.html","id":"103"},"type":"Feature","geometry":{"type":"Point","coordinates":[-73.9448899987427,40.8340413335438]}},{"properties":{"NAME":"96th St","LINE":"1-2-3","URL":"http://www.mta.info/nyct/subway/index.html","id":"104"},"type":"Feature","geometry":{"type":"Point","coordinates":[-73.9723229994829,40.7939193344186]}},{"properties":{"NAME":"103rd St","LINE":"1","URL":"http://www.mta.info/nyct/subway/index.html","id":"105"},"type":"Feature","geometry":{"type":"Point","coordinates":[-73.9683789992482,40.7994463339473]}},{"properties":{"NAME":"Central Park North (110th St)","LINE":"2-3","URL":"http://www.mta.info/nyct/subway/index.html","id":"106"},"type":"Feature","geometry":{"type":"Point","coordinates":[-73.9518220010737,40.7990753328411]}},{"properties":{"NAME":"103rd St","LINE":"A-B-C","URL":"http://www.mta.info/nyct/subway/index.html","id":"107"},"type":"Feature","geometry":{"type":"Point","coordinates":[-73.9613700821618,40.7960610735625]}},{"properties":{"NAME":"Cathedral Pkwy (110th St)","LINE":"A-B-C","URL":"http://www.mta.info/nyct/subway/index.html","id":"108"},"type":"Feature","geometry":{"type":"Point","coordinates":[-73.9580667066434,40.8005818915856]}},{"properties":{"NAME":"72nd St","LINE":"1-2-3","URL":"http://www.mta.info/nyct/subway/index.html","id":"109"},"type":"Feature","geometry":{"type":"Point","coordinates":[-73.9819700010418,40.7784533339516]}},{"properties":{"NAME":"72nd St","LINE":"A-B-C","URL":"http://www.mta.info/nyct/subway/index.html","id":"110"},"type":"Feature","geometry":{"type":"Point","coordinates":[-73.9763365754865,40.7755197310346]}},{"properties":{"NAME":"81st St","LINE":"A-B-C","URL":"http://www.mta.info/nyct/subway/index.html","id":"111"},"type":"Feature","geometry":{"type":"Point","coordinates":[-73.9720979494142,40.7813464177244]}},{"properties":{"NAME":"75th Ave","LINE":"E-F","URL":"http://www.mta.info/nyct/subway/index.html","id":"112"},"type":"Feature","geometry":{"type":"Point","coordinates":[-73.8369236931772,40.7180449870688]}},{"properties":{"NAME":"Kew Gardens - Union Tpke","LINE":"E-F","URL":"http://www.mta.info/nyct/subway/index.html","id":"113"},"type":"Feature","geometry":{"type":"Point","coordinates":[-73.830370270175,40.7140351529374]}},{"properties":{"NAME":"86th St","LINE":"A-B-C","URL":"http://www.mta.info/nyct/subway/index.html","id":"114"},"type":"Feature","geometry":{"type":"Point","coordinates":[-73.968828494562,40.7858233796515]}},{"properties":{"NAME":"96th St","LINE":"A-B-C","URL":"http://www.mta.info/nyct/subway/index.html","id":"115"},"type":"Feature","geometry":{"type":"Point","coordinates":[-73.9646024565511,40.7916191312481]}},{"properties":{"NAME":"Cathedral Pkwy (110th St)","LINE":"1","URL":"http://www.mta.info/nyct/subway/index.html","id":"116"},"type":"Feature","geometry":{"type":"Point","coordinates":[-73.9668470001431,40.8039673330169]}},{"properties":{"NAME":"116th St - Columbia University","LINE":"1","URL":"http://www.mta.info/nyct/subway/index.html","id":"117"},"type":"Feature","geometry":{"type":"Point","coordinates":[-73.9641099979357,40.8077223342618]}},{"properties":{"NAME":"125th St","LINE":"2-3","URL":"http://www.mta.info/nyct/subway/index.html","id":"118"},"type":"Feature","geometry":{"type":"Point","coordinates":[-73.9454950001921,40.8077543328404]}},{"properties":{"NAME":"135th St","LINE":"2-3","URL":"http://www.mta.info/nyct/subway/index.html","id":"119"},"type":"Feature","geometry":{"type":"Point","coordinates":[-73.9407700002949,40.8142293334777]}},{"properties":{"NAME":"149th St - Grand Concourse","LINE":"4","URL":"http://www.mta.info/nyct/subway/index.html","id":"120"},"type":"Feature","geometry":{"type":"Point","coordinates":[-73.9273847543082,40.8183037768467]}},{"properties":{"NAME":"116th St","LINE":"2-3","URL":"http://www.mta.info/nyct/subway/index.html","id":"121"},"type":"Feature","geometry":{"type":"Point","coordinates":[-73.9496250010514,40.8020983325459]}},{"properties":{"NAME":"Tremont Ave","LINE":"B-D","URL":"http://www.mta.info/nyct/subway/index.html","id":"122"},"type":"Feature","geometry":{"type":"Point","coordinates":[-73.9052270008801,40.850410333188]}},{"properties":{"NAME":"182nd-183rd Sts","LINE":"B-D","URL":"http://www.mta.info/nyct/subway/index.html","id":"123"},"type":"Feature","geometry":{"type":"Point","coordinates":[-73.9007409992674,40.8560933318779]}},{"properties":{"NAME":"137th St - City College","LINE":"1","URL":"http://www.mta.info/nyct/subway/index.html","id":"124"},"type":"Feature","geometry":{"type":"Point","coordinates":[-73.9536760003415,40.8220083326451]}},{"properties":{"NAME":"145th St","LINE":"3","URL":"http://www.mta.info/nyct/subway/index.html","id":"125"},"type":"Feature","geometry":{"type":"Point","coordinates":[-73.9362449989074,40.8204213329788]}},{"properties":{"NAME":"176th St","LINE":"4","URL":"http://www.mta.info/nyct/subway/index.html","id":"126"},"type":"Feature","geometry":{"type":"Point","coordinates":[-73.9117939980514,40.8484803342341]}},{"properties":{"NAME":"Burnside Ave","LINE":"4","URL":"http://www.mta.info/nyct/subway/index.html","id":"127"},"type":"Feature","geometry":{"type":"Point","coordinates":[-73.9076840006649,40.8534533344287]}},{"properties":{"NAME":"170th St","LINE":"B-D","URL":"http://www.mta.info/nyct/subway/index.html","id":"128"},"type":"Feature","geometry":{"type":"Point","coordinates":[-73.9133999979604,40.8393063333287]}},{"properties":{"NAME":"174th-175th Sts","LINE":"B-D","URL":"http://www.mta.info/nyct/subway/index.html","id":"129"},"type":"Feature","geometry":{"type":"Point","coordinates":[-73.9101360000397,40.8459003335721]}},{"properties":{"NAME":"168th St","LINE":"1","URL":"http://www.mta.info/nyct/subway/index.html","id":"130"},"type":"Feature","geometry":{"type":"Point","coordinates":[-73.940132998897,40.840556332855]}},{"properties":{"NAME":"181st St","LINE":"1","URL":"http://www.mta.info/nyct/subway/index.html","id":"131"},"type":"Feature","geometry":{"type":"Point","coordinates":[-73.9335959998164,40.8495053332961]}},{"properties":{"NAME":"168th St","LINE":"A-C","URL":"http://www.mta.info/nyct/subway/index.html","id":"132"},"type":"Feature","geometry":{"type":"Point","coordinates":[-73.9395609998789,40.8407193334653]}},{"properties":{"NAME":"191st St","LINE":"1","URL":"http://www.mta.info/nyct/subway/index.html","id":"133"},"type":"Feature","geometry":{"type":"Point","coordinates":[-73.9294119976111,40.8552253350092]}},{"properties":{"NAME":"175th St","LINE":"A","URL":"http://www.mta.info/nyct/subway/index.html","id":"134"},"type":"Feature","geometry":{"type":"Point","coordinates":[-73.9397039967383,40.847391333954]}},{"properties":{"NAME":"Beach 44th St","LINE":"A","URL":"http://www.mta.info/nyct/subway/index.html","id":"135"},"type":"Feature","geometry":{"type":"Point","coordinates":[-73.7760129988684,40.5929433326258]}},{"properties":{"NAME":"Beach 60th St","LINE":"A","URL":"http://www.mta.info/nyct/subway/index.html","id":"136"},"type":"Feature","geometry":{"type":"Point","coordinates":[-73.7885219971778,40.5923743346157]}},{"properties":{"NAME":"Beach 105th St","LINE":"A-S","URL":"http://www.mta.info/nyct/subway/index.html","id":"137"},"type":"Feature","geometry":{"type":"Point","coordinates":[-73.8275807493166,40.5832687709787]}},{"properties":{"NAME":"Beach 98th St","LINE":"A-S","URL":"http://www.mta.info/nyct/subway/index.html","id":"138"},"type":"Feature","geometry":{"type":"Point","coordinates":[-73.8205205887206,40.5853860242541]}},{"properties":{"NAME":"Rockaway Park - Beach 116 St","LINE":"A-S","URL":"http://www.mta.info/nyct/subway/index.html","id":"139"},"type":"Feature","geometry":{"type":"Point","coordinates":[-73.8355900859631,40.5809561991664]}},{"properties":{"NAME":"Beach 90th St","LINE":"A-S","URL":"http://www.mta.info/nyct/subway/index.html","id":"140"},"type":"Feature","geometry":{"type":"Point","coordinates":[-73.8136514029454,40.5880918976809]}},{"properties":{"NAME":"Beach 36th St","LINE":"A","URL":"http://www.mta.info/nyct/subway/index.html","id":"141"},"type":"Feature","geometry":{"type":"Point","coordinates":[-73.768174997928,40.5953983345618]}},{"properties":{"NAME":"Beach 25th St","LINE":"A","URL":"http://www.mta.info/nyct/subway/index.html","id":"142"},"type":"Feature","geometry":{"type":"Point","coordinates":[-73.7613529967363,40.6000663342196]}},{"properties":{"NAME":"Parsons Blvd","LINE":"F","URL":"http://www.mta.info/nyct/subway/index.html","id":"143"},"type":"Feature","geometry":{"type":"Point","coordinates":[-73.8032889987804,40.7075723332744]}},{"properties":{"NAME":"169th St","LINE":"F","URL":"http://www.mta.info/nyct/subway/index.html","id":"144"},"type":"Feature","geometry":{"type":"Point","coordinates":[-73.7934741978182,40.7105178363857]}},{"properties":{"NAME":"103rd St - Corona Plaza","LINE":"7","URL":"http://www.mta.info/nyct/subway/index.html","id":"145"},"type":"Feature","geometry":{"type":"Point","coordinates":[-73.8626999970615,40.7498653343015]}},{"properties":{"NAME":"111th St","LINE":"7","URL":"http://www.mta.info/nyct/subway/index.html","id":"146"},"type":"Feature","geometry":{"type":"Point","coordinates":[-73.8553339972922,40.7517303329995]}},{"properties":{"NAME":"63rd Dr - Rego Park","LINE":"E-M-R","URL":"http://www.mta.info/nyct/subway/index.html","id":"147"},"type":"Feature","geometry":{"type":"Point","coordinates":[-73.8616182002905,40.7297643054717]}},{"properties":{"NAME":"Grant Ave","LINE":"A-S","URL":"http://www.mta.info/nyct/subway/index.html","id":"148"},"type":"Feature","geometry":{"type":"Point","coordinates":[-73.8650499980871,40.6770443338524]}},{"properties":{"NAME":"79th St","LINE":"1-2","URL":"http://www.mta.info/nyct/subway/index.html","id":"149"},"type":"Feature","geometry":{"type":"Point","coordinates":[-73.9799170004064,40.7839343327408]}},{"properties":{"NAME":"Atlantic Ave","LINE":"L","URL":"http://www.mta.info/nyct/subway/index.html","id":"150"},"type":"Feature","geometry":{"type":"Point","coordinates":[-73.9030969991575,40.6753449994431]}},{"properties":{"NAME":"Christopher St - Sheridan Sq","LINE":"1-2","URL":"http://www.mta.info/nyct/subway/index.html","id":"151"},"type":"Feature","geometry":{"type":"Point","coordinates":[-74.0029059988969,40.733422333975]}},{"properties":{"NAME":"E 149th St","LINE":"6","URL":"http://www.mta.info/nyct/subway/index.html","id":"152"},"type":"Feature","geometry":{"type":"Point","coordinates":[-73.9040979979671,40.812118331738]}},{"properties":{"NAME":"Ozone Park - Lefferts Blvd","LINE":"A-S","URL":"http://www.mta.info/nyct/subway/index.html","id":"153"},"type":"Feature","geometry":{"type":"Point","coordinates":[-73.8257979983958,40.6859513319996]}},{"properties":{"NAME":"Times Sq - 42nd St","LINE":"7-7 Express","URL":"http://www.mta.info/nyct/subway/index.html","id":"154"},"type":"Feature","geometry":{"type":"Point","coordinates":[-73.9876909976599,40.7554773349906]}},{"properties":{"NAME":"77th St","LINE":"4-6-6 Express","URL":"http://www.mta.info/nyct/subway/index.html","id":"155"},"type":"Feature","geometry":{"type":"Point","coordinates":[-73.9598739980725,40.7736203340149]}},{"properties":{"NAME":"Woodside - 61st St","LINE":"7-7 Express","URL":"http://www.mta.info/nyct/subway/index.html","id":"156"},"type":"Feature","geometry":{"type":"Point","coordinates":[-73.9029840008523,40.7456303340139]}},{"properties":{"NAME":"111th St","LINE":"A-S","URL":"http://www.mta.info/nyct/subway/index.html","id":"157"},"type":"Feature","geometry":{"type":"Point","coordinates":[-73.8321629979318,40.6843313334254]}},{"properties":{"NAME":"Flushing - Main St","LINE":"7-7 Express","URL":"http://www.mta.info/nyct/subway/index.html","id":"158"},"type":"Feature","geometry":{"type":"Point","coordinates":[-73.8300300018334,40.7596003323731]}},{"properties":{"NAME":"W 8th St - NY Aquarium","LINE":"F-Q","URL":"http://www.mta.info/nyct/subway/index.html","id":"159"},"type":"Feature","geometry":{"type":"Point","coordinates":[-73.9759578740407,40.5760341512]}},{"properties":{"NAME":"28th St","LINE":"1-2","URL":"http://www.mta.info/nyct/subway/index.html","id":"160"},"type":"Feature","geometry":{"type":"Point","coordinates":[-73.9933650013927,40.7472153323565]}},{"properties":{"NAME":"28th St","LINE":"4-6-6 Express","URL":"http://www.mta.info/nyct/subway/index.html","id":"161"},"type":"Feature","geometry":{"type":"Point","coordinates":[-73.9842640014961,40.7430703328279]}},{"properties":{"NAME":"Pelham Bay Park","LINE":"6-6 Express","URL":"http://www.mta.info/nyct/subway/index.html","id":"162"},"type":"Feature","geometry":{"type":"Point","coordinates":[-73.8281209999571,40.8524623331459]}},{"properties":{"NAME":"Westchester Sq - E Tremont Ave","LINE":"6-6 Express","URL":"http://www.mta.info/nyct/subway/index.html","id":"163"},"type":"Feature","geometry":{"type":"Point","coordinates":[-73.842951998354,40.8398923343977]}},{"properties":{"NAME":"18th St","LINE":"1-2","URL":"http://www.mta.info/nyct/subway/index.html","id":"164"},"type":"Feature","geometry":{"type":"Point","coordinates":[-73.9978710011223,40.7410403329667]}},{"properties":{"NAME":"Grand Central - 42nd St","LINE":"4-5-6-6 Express","URL":"http://www.mta.info/nyct/subway/index.html","id":"165"},"type":"Feature","geometry":{"type":"Point","coordinates":[-73.9767132993616,40.751807763115]}},{"properties":{"NAME":"Grand Central - 42nd St","LINE":"7-7 Express","URL":"http://www.mta.info/nyct/subway/index.html","id":"166"},"type":"Feature","geometry":{"type":"Point","coordinates":[-73.9760410011978,40.7514313335169]}},{"properties":{"NAME":"Canal St","LINE":"4-6-6 Express","URL":"http://www.mta.info/nyct/subway/index.html","id":"167"},"type":"Feature","geometry":{"type":"Point","coordinates":[-74.0001929990035,40.7188033347274]}},{"properties":{"NAME":"Beach 67th St","LINE":"A","URL":"http://www.mta.info/nyct/subway/index.html","id":"168"},"type":"Feature","geometry":{"type":"Point","coordinates":[-73.7969239989952,40.5909273342904]}},{"properties":{"NAME":"W 4th St - Washington Sq (Upper)","LINE":"A-C-E","URL":"http://www.mta.info/nyct/subway/index.html","id":"169"},"type":"Feature","geometry":{"type":"Point","coordinates":[-74.0004950022554,40.7323383313815]}},{"properties":{"NAME":"67th Ave","LINE":"E-M-R","URL":"http://www.mta.info/nyct/subway/index.html","id":"170"},"type":"Feature","geometry":{"type":"Point","coordinates":[-73.8528604836806,40.7265058093467]}},{"properties":{"NAME":"85th St - Forest Pky","LINE":"J","URL":"http://www.mta.info/nyct/subway/index.html","id":"171"},"type":"Feature","geometry":{"type":"Point","coordinates":[-73.8600869993383,40.6924273330436]}},{"properties":{"NAME":"Woodhaven Blvd","LINE":"J-Z","URL":"http://www.mta.info/nyct/subway/index.html","id":"172"},"type":"Feature","geometry":{"type":"Point","coordinates":[-73.852051996988,40.6937043325496]}},{"properties":{"NAME":"111th St","LINE":"J","URL":"http://www.mta.info/nyct/subway/index.html","id":"173"},"type":"Feature","geometry":{"type":"Point","coordinates":[-73.8367933831699,40.6971151444217]}},{"properties":{"NAME":"121st St","LINE":"J-Z","URL":"http://www.mta.info/nyct/subway/index.html","id":"174"},"type":"Feature","geometry":{"type":"Point","coordinates":[-73.8283489992264,40.7004823316748]}},{"properties":{"NAME":"Sutphin Blvd - Archer Av","LINE":"E-J-Z","URL":"http://www.mta.info/nyct/subway/index.html","id":"175"},"type":"Feature","geometry":{"type":"Point","coordinates":[-73.8080047191644,40.7003827575236]}},{"properties":{"NAME":"Halsey St","LINE":"L","URL":"http://www.mta.info/nyct/subway/index.html","id":"176"},"type":"Feature","geometry":{"type":"Point","coordinates":[-73.9039340004711,40.6955183344819]}},{"properties":{"NAME":"Myrtle Ave","LINE":"L","URL":"http://www.mta.info/nyct/subway/index.html","id":"177"},"type":"Feature","geometry":{"type":"Point","coordinates":[-73.9109757178021,40.699471395338]}},{"properties":{"NAME":"New Lots Ave","LINE":"3-4","URL":"http://www.mta.info/nyct/subway/index.html","id":"178"},"type":"Feature","geometry":{"type":"Point","coordinates":[-73.8841107078646,40.6663152655744]}},{"properties":{"NAME":"Van Siclen Ave","LINE":"3-4","URL":"http://www.mta.info/nyct/subway/index.html","id":"179"},"type":"Feature","geometry":{"type":"Point","coordinates":[-73.8894049162989,40.6655182966694]}},{"properties":{"NAME":"Pennsylvania Ave","LINE":"3-4","URL":"http://www.mta.info/nyct/subway/index.html","id":"180"},"type":"Feature","geometry":{"type":"Point","coordinates":[-73.8948859112423,40.6647147843539]}},{"properties":{"NAME":"Van Siclen Ave","LINE":"A-C","URL":"http://www.mta.info/nyct/subway/index.html","id":"181"},"type":"Feature","geometry":{"type":"Point","coordinates":[-73.8903579997701,40.672710332124]}},{"properties":{"NAME":"Van Siclen Ave","LINE":"J-Z","URL":"http://www.mta.info/nyct/subway/index.html","id":"182"},"type":"Feature","geometry":{"type":"Point","coordinates":[-73.8916577259906,40.6780285481337]}},{"properties":{"NAME":"Cleveland St","LINE":"J","URL":"http://www.mta.info/nyct/subway/index.html","id":"183"},"type":"Feature","geometry":{"type":"Point","coordinates":[-73.8851940012428,40.6797783322999]}},{"properties":{"NAME":"Livonia Ave","LINE":"L","URL":"http://www.mta.info/nyct/subway/index.html","id":"184"},"type":"Feature","geometry":{"type":"Point","coordinates":[-73.9005623715631,40.6640576041822]}},{"properties":{"NAME":"Sutter Ave","LINE":"L","URL":"http://www.mta.info/nyct/subway/index.html","id":"185"},"type":"Feature","geometry":{"type":"Point","coordinates":[-73.9019159995943,40.6691453337526]}},{"properties":{"NAME":"Junius St","LINE":"3-4","URL":"http://www.mta.info/nyct/subway/index.html","id":"186"},"type":"Feature","geometry":{"type":"Point","coordinates":[-73.9024486409731,40.6635893349093]}},{"properties":{"NAME":"Rockaway Ave","LINE":"3-4","URL":"http://www.mta.info/nyct/subway/index.html","id":"187"},"type":"Feature","geometry":{"type":"Point","coordinates":[-73.908958335639,40.6626178210315]}},{"properties":{"NAME":"Canarsie - Rockaway Pkwy","LINE":"L","URL":"http://www.mta.info/nyct/subway/index.html","id":"188"},"type":"Feature","geometry":{"type":"Point","coordinates":[-73.9018499999339,40.6466540004455]}},{"properties":{"NAME":"E 105th St","LINE":"L","URL":"http://www.mta.info/nyct/subway/index.html","id":"189"},"type":"Feature","geometry":{"type":"Point","coordinates":[-73.8995476931416,40.650469118412]}},{"properties":{"NAME":"Saratoga Ave","LINE":"3-4","URL":"http://www.mta.info/nyct/subway/index.html","id":"190"},"type":"Feature","geometry":{"type":"Point","coordinates":[-73.9163302496604,40.6615301232142]}},{"properties":{"NAME":"Sutter Ave - Rutland Road","LINE":"3-4","URL":"http://www.mta.info/nyct/subway/index.html","id":"191"},"type":"Feature","geometry":{"type":"Point","coordinates":[-73.922521185067,40.6647671222076]}},{"properties":{"NAME":"New Lots Ave","LINE":"L","URL":"http://www.mta.info/nyct/subway/index.html","id":"192"},"type":"Feature","geometry":{"type":"Point","coordinates":[-73.8992779601227,40.6589151068903]}},{"properties":{"NAME":"Far Rockaway - Mott Ave","LINE":"A","URL":"http://www.mta.info/nyct/subway/index.html","id":"193"},"type":"Feature","geometry":{"type":"Point","coordinates":[-73.755404997895,40.6039953347203]}},{"properties":{"NAME":"Chauncey St","LINE":"J-Z","URL":"http://www.mta.info/nyct/subway/index.html","id":"194"},"type":"Feature","geometry":{"type":"Point","coordinates":[-73.9103835693094,40.6828516344945]}},{"properties":{"NAME":"Broadway Junction","LINE":"J-Z","URL":"http://www.mta.info/nyct/subway/index.html","id":"195"},"type":"Feature","geometry":{"type":"Point","coordinates":[-73.9042899974253,40.6793663345746]}},{"properties":{"NAME":"Halsey St","LINE":"J","URL":"http://www.mta.info/nyct/subway/index.html","id":"196"},"type":"Feature","geometry":{"type":"Point","coordinates":[-73.9166388839509,40.6864156044436]}},{"properties":{"NAME":"Alabama Ave","LINE":"J","URL":"http://www.mta.info/nyct/subway/index.html","id":"197"},"type":"Feature","geometry":{"type":"Point","coordinates":[-73.8985260009904,40.676998333601]}},{"properties":{"NAME":"Shepherd Ave","LINE":"A-C","URL":"http://www.mta.info/nyct/subway/index.html","id":"198"},"type":"Feature","geometry":{"type":"Point","coordinates":[-73.8807499971029,40.6741303348593]}},{"properties":{"NAME":"Norwood Ave","LINE":"J-Z","URL":"http://www.mta.info/nyct/subway/index.html","id":"199"},"type":"Feature","geometry":{"type":"Point","coordinates":[-73.8796259983382,40.6815203338947]}},{"properties":{"NAME":"Crescent St","LINE":"J-Z","URL":"http://www.mta.info/nyct/subway/index.html","id":"200"},"type":"Feature","geometry":{"type":"Point","coordinates":[-73.873929251904,40.6831529904788]}},{"properties":{"NAME":"Cypress Hills","LINE":"J","URL":"http://www.mta.info/nyct/subway/index.html","id":"201"},"type":"Feature","geometry":{"type":"Point","coordinates":[-73.8733219982875,40.6896163341962]}},{"properties":{"NAME":"75th St - Eldert Ln","LINE":"J-Z","URL":"http://www.mta.info/nyct/subway/index.html","id":"202"},"type":"Feature","geometry":{"type":"Point","coordinates":[-73.8672879987573,40.6912903346216]}},{"properties":{"NAME":"69th St","LINE":"7","URL":"http://www.mta.info/nyct/subway/index.html","id":"203"},"type":"Feature","geometry":{"type":"Point","coordinates":[-73.896402998386,40.7463253328243]}},{"properties":{"NAME":"74th St - Broadway","LINE":"7","URL":"http://www.mta.info/nyct/subway/index.html","id":"204"},"type":"Feature","geometry":{"type":"Point","coordinates":[-73.8912051283827,40.7468679074098]}},{"properties":{"NAME":"65th St","LINE":"E-M-R","URL":"http://www.mta.info/nyct/subway/index.html","id":"205"},"type":"Feature","geometry":{"type":"Point","coordinates":[-73.8987883776696,40.7497198627115]}},{"properties":{"NAME":"Woodhaven Blvd - Queens Mall","LINE":"E-M-R","URL":"http://www.mta.info/nyct/subway/index.html","id":"206"},"type":"Feature","geometry":{"type":"Point","coordinates":[-73.869432084992,40.7330977071503]}},{"properties":{"NAME":"Wyckoff Ave","LINE":"M","URL":"http://www.mta.info/nyct/subway/index.html","id":"207"},"type":"Feature","geometry":{"type":"Point","coordinates":[-73.9121789987563,40.6994543346485]}},{"properties":{"NAME":"Seneca Ave","LINE":"M","URL":"http://www.mta.info/nyct/subway/index.html","id":"208"},"type":"Feature","geometry":{"type":"Point","coordinates":[-73.9075819984297,40.7029193326272]}},{"properties":{"NAME":"DeKalb Ave","LINE":"L","URL":"http://www.mta.info/nyct/subway/index.html","id":"209"},"type":"Feature","geometry":{"type":"Point","coordinates":[-73.9182320015304,40.7036933325686]}},{"properties":{"NAME":"52nd St","LINE":"7","URL":"http://www.mta.info/nyct/subway/index.html","id":"210"},"type":"Feature","geometry":{"type":"Point","coordinates":[-73.9125489981402,40.7441493343501]}},{"properties":{"NAME":"46th St","LINE":"E-M-R","URL":"http://www.mta.info/nyct/subway/index.html","id":"211"},"type":"Feature","geometry":{"type":"Point","coordinates":[-73.9135217500592,40.756317285998]}},{"properties":{"NAME":"Northern Blvd","LINE":"E-M-R","URL":"http://www.mta.info/nyct/subway/index.html","id":"212"},"type":"Feature","geometry":{"type":"Point","coordinates":[-73.9060650802819,40.7528251629622]}},{"properties":{"NAME":"46th St","LINE":"7","URL":"http://www.mta.info/nyct/subway/index.html","id":"213"},"type":"Feature","geometry":{"type":"Point","coordinates":[-73.9184350005547,40.7431323341285]}},{"properties":{"NAME":"82nd St - Jackson Hts","LINE":"7","URL":"http://www.mta.info/nyct/subway/index.html","id":"214"},"type":"Feature","geometry":{"type":"Point","coordinates":[-73.8836969998634,40.7476593332023]}},{"properties":{"NAME":"90th St - Elmhurst Av","LINE":"7","URL":"http://www.mta.info/nyct/subway/index.html","id":"215"},"type":"Feature","geometry":{"type":"Point","coordinates":[-73.876612998942,40.7484083340029]}},{"properties":{"NAME":"Grand Ave - Newtown","LINE":"E-M-R","URL":"http://www.mta.info/nyct/subway/index.html","id":"216"},"type":"Feature","geometry":{"type":"Point","coordinates":[-73.877220855937,40.7368137512088]}},{"properties":{"NAME":"Elmhurst Ave","LINE":"E-M-R","URL":"http://www.mta.info/nyct/subway/index.html","id":"217"},"type":"Feature","geometry":{"type":"Point","coordinates":[-73.8820347458896,40.7423704130036]}},{"properties":{"NAME":"Howard Beach - JFK Airport","LINE":"A","URL":"http://www.mta.info/nyct/subway/index.html","id":"218"},"type":"Feature","geometry":{"type":"Point","coordinates":[-73.8303009993043,40.6604763331232]}},{"properties":{"NAME":"Aqueduct - North Conduit Av","LINE":"A","URL":"http://www.mta.info/nyct/subway/index.html","id":"219"},"type":"Feature","geometry":{"type":"Point","coordinates":[-73.8340579988262,40.6682343345802]}},{"properties":{"NAME":"104th-102nd Sts","LINE":"J-Z","URL":"http://www.mta.info/nyct/subway/index.html","id":"220"},"type":"Feature","geometry":{"type":"Point","coordinates":[-73.8444349990019,40.6951663318888]}},{"properties":{"NAME":"Briarwood - Van Wyck Blvd","LINE":"E-F","URL":"http://www.mta.info/nyct/subway/index.html","id":"221"},"type":"Feature","geometry":{"type":"Point","coordinates":[-73.820692635539,40.7091621488633]}},{"properties":{"NAME":"Forest Hills - 71st Av","LINE":"E-F-M-R","URL":"http://www.mta.info/nyct/subway/index.html","id":"222"},"type":"Feature","geometry":{"type":"Point","coordinates":[-73.8445167192068,40.7215946429368]}},{"properties":{"NAME":"Sutphin Blvd","LINE":"F","URL":"http://www.mta.info/nyct/subway/index.html","id":"223"},"type":"Feature","geometry":{"type":"Point","coordinates":[-73.8108329982716,40.70541833253]}},{"properties":{"NAME":"Jamaica - Van Wyck","LINE":"E","URL":"http://www.mta.info/nyct/subway/index.html","id":"224"},"type":"Feature","geometry":{"type":"Point","coordinates":[-73.8170128702603,40.7028988865982]}},{"properties":{"NAME":"Jamaica Ctr - Parsons / Archer","LINE":"E-J-Z","URL":"http://www.mta.info/nyct/subway/index.html","id":"225"},"type":"Feature","geometry":{"type":"Point","coordinates":[-73.8010963219811,40.7020677092466]}},{"properties":{"NAME":"Simpson St","LINE":"2-5","URL":"http://www.mta.info/nyct/subway/index.html","id":"226"},"type":"Feature","geometry":{"type":"Point","coordinates":[-73.8930663947183,40.823977174861]}},{"properties":{"NAME":"Freeman St","LINE":"2-5","URL":"http://www.mta.info/nyct/subway/index.html","id":"227"},"type":"Feature","geometry":{"type":"Point","coordinates":[-73.8917522528532,40.8299877799453]}},{"properties":{"NAME":"225th St","LINE":"2-5","URL":"http://www.mta.info/nyct/subway/index.html","id":"228"},"type":"Feature","geometry":{"type":"Point","coordinates":[-73.8602146168679,40.8880285915757]}},{"properties":{"NAME":"Elder Ave","LINE":"6","URL":"http://www.mta.info/nyct/subway/index.html","id":"229"},"type":"Feature","geometry":{"type":"Point","coordinates":[-73.8791589978172,40.8285843345728]}},{"properties":{"NAME":"Morrison Av - Soundview","LINE":"6","URL":"http://www.mta.info/nyct/subway/index.html","id":"230"},"type":"Feature","geometry":{"type":"Point","coordinates":[-73.8745159988442,40.8295213350982]}},{"properties":{"NAME":"Longwood Ave","LINE":"6","URL":"http://www.mta.info/nyct/subway/index.html","id":"231"},"type":"Feature","geometry":{"type":"Point","coordinates":[-73.8964349986489,40.8161043336434]}},{"properties":{"NAME":"Astoria Blvd","LINE":"N-Q","URL":"http://www.mta.info/nyct/subway/index.html","id":"232"},"type":"Feature","geometry":{"type":"Point","coordinates":[-73.9180950008211,40.7700373325173]}},{"properties":{"NAME":"Astoria - Ditmars Blvd","LINE":"N-Q","URL":"http://www.mta.info/nyct/subway/index.html","id":"233"},"type":"Feature","geometry":{"type":"Point","coordinates":[-73.912034000185,40.7750359996785]}},{"properties":{"NAME":"Jackson Ave","LINE":"2-5","URL":"http://www.mta.info/nyct/subway/index.html","id":"234"},"type":"Feature","geometry":{"type":"Point","coordinates":[-73.9077019385346,40.8164377998088]}},{"properties":{"NAME":"Prospect Ave","LINE":"2-5","URL":"http://www.mta.info/nyct/subway/index.html","id":"235"},"type":"Feature","geometry":{"type":"Point","coordinates":[-73.9017777862437,40.8194875978067]}},{"properties":{"NAME":"Cypress Ave","LINE":"6","URL":"http://www.mta.info/nyct/subway/index.html","id":"236"},"type":"Feature","geometry":{"type":"Point","coordinates":[-73.9140419994168,40.8053683343518]}},{"properties":{"NAME":"Whitlock Ave","LINE":"6","URL":"http://www.mta.info/nyct/subway/index.html","id":"237"},"type":"Feature","geometry":{"type":"Point","coordinates":[-73.8862829983243,40.8265253338019]}},{"properties":{"NAME":"Intervale Ave","LINE":"2-5","URL":"http://www.mta.info/nyct/subway/index.html","id":"238"},"type":"Feature","geometry":{"type":"Point","coordinates":[-73.896617383584,40.8221424644249]}},{"properties":{"NAME":"174th St","LINE":"2-5","URL":"http://www.mta.info/nyct/subway/index.html","id":"239"},"type":"Feature","geometry":{"type":"Point","coordinates":[-73.8876935975168,40.8371958833131]}},{"properties":{"NAME":"Pelham Pkwy","LINE":"2-5","URL":"http://www.mta.info/nyct/subway/index.html","id":"240"},"type":"Feature","geometry":{"type":"Point","coordinates":[-73.8674806776188,40.8571927425016]}},{"properties":{"NAME":"Allerton Ave","LINE":"2-5","URL":"http://www.mta.info/nyct/subway/index.html","id":"241"},"type":"Feature","geometry":{"type":"Point","coordinates":[-73.8672342277634,40.865483711576]}},{"properties":{"NAME":"E 143rd St - St Mary's St","LINE":"6","URL":"http://www.mta.info/nyct/subway/index.html","id":"242"},"type":"Feature","geometry":{"type":"Point","coordinates":[-73.9076569988394,40.8087193341364]}},{"properties":{"NAME":"Kingsbridge Rd","LINE":"4","URL":"http://www.mta.info/nyct/subway/index.html","id":"243"},"type":"Feature","geometry":{"type":"Point","coordinates":[-73.897174001019,40.8677603337447]}},{"properties":{"NAME":"Bedford Park Blvd - Lehman College","LINE":"4","URL":"http://www.mta.info/nyct/subway/index.html","id":"244"},"type":"Feature","geometry":{"type":"Point","coordinates":[-73.8900640005615,40.8734123326929]}},{"properties":{"NAME":"Harlem - 148 St","LINE":"3","URL":"http://www.mta.info/nyct/subway/index.html","id":"245"},"type":"Feature","geometry":{"type":"Point","coordinates":[-73.9364699999187,40.8238803340758]}},{"properties":{"NAME":"Mt Eden Ave","LINE":"4","URL":"http://www.mta.info/nyct/subway/index.html","id":"246"},"type":"Feature","geometry":{"type":"Point","coordinates":[-73.9146849986492,40.8444343338332]}},{"properties":{"NAME":"Fordham Rd","LINE":"B-D","URL":"http://www.mta.info/nyct/subway/index.html","id":"247"},"type":"Feature","geometry":{"type":"Point","coordinates":[-73.8977490007684,40.8612963318203]}},{"properties":{"NAME":"170th St","LINE":"4","URL":"http://www.mta.info/nyct/subway/index.html","id":"248"},"type":"Feature","geometry":{"type":"Point","coordinates":[-73.9177909970935,40.8400753328349]}},{"properties":{"NAME":"Kingsbridge Rd","LINE":"B-D","URL":"http://www.mta.info/nyct/subway/index.html","id":"249"},"type":"Feature","geometry":{"type":"Point","coordinates":[-73.8935090000309,40.8669783333191]}},{"properties":{"NAME":"Bedford Park Blvd","LINE":"B-D","URL":"http://www.mta.info/nyct/subway/index.html","id":"250"},"type":"Feature","geometry":{"type":"Point","coordinates":[-73.8871379986991,40.8732443317197]}},{"properties":{"NAME":"Marble Hill - 225th St","LINE":"1","URL":"http://www.mta.info/nyct/subway/index.html","id":"251"},"type":"Feature","geometry":{"type":"Point","coordinates":[-73.9098309989177,40.8745613327533]}},{"properties":{"NAME":"231st St","LINE":"1","URL":"http://www.mta.info/nyct/subway/index.html","id":"252"},"type":"Feature","geometry":{"type":"Point","coordinates":[-73.9048340004263,40.8788563318743]}},{"properties":{"NAME":"215th St","LINE":"1","URL":"http://www.mta.info/nyct/subway/index.html","id":"253"},"type":"Feature","geometry":{"type":"Point","coordinates":[-73.9152789993083,40.8694443329049]}},{"properties":{"NAME":"207th St","LINE":"1","URL":"http://www.mta.info/nyct/subway/index.html","id":"254"},"type":"Feature","geometry":{"type":"Point","coordinates":[-73.9188190007203,40.864614333714]}},{"properties":{"NAME":"Inwood - 207th St","LINE":"A","URL":"http://www.mta.info/nyct/subway/index.html","id":"255"},"type":"Feature","geometry":{"type":"Point","coordinates":[-73.9198990007626,40.8680723332653]}},{"properties":{"NAME":"238th St","LINE":"1","URL":"http://www.mta.info/nyct/subway/index.html","id":"256"},"type":"Feature","geometry":{"type":"Point","coordinates":[-73.9008699993625,40.8846673343263]}},{"properties":{"NAME":"Van Cortlandt Park - 242nd St","LINE":"1","URL":"http://www.mta.info/nyct/subway/index.html","id":"257"},"type":"Feature","geometry":{"type":"Point","coordinates":[-73.8985829997981,40.8892483334502]}},{"properties":{"NAME":"West Farms Sq - E Tremont Av","LINE":"2-5","URL":"http://www.mta.info/nyct/subway/index.html","id":"258"},"type":"Feature","geometry":{"type":"Point","coordinates":[-73.8799612780955,40.8402079654407]}},{"properties":{"NAME":"St Lawrence Ave","LINE":"6","URL":"http://www.mta.info/nyct/subway/index.html","id":"259"},"type":"Feature","geometry":{"type":"Point","coordinates":[-73.867617998263,40.8315093340697]}},{"properties":{"NAME":"Bronx Park East","LINE":"2-5","URL":"http://www.mta.info/nyct/subway/index.html","id":"260"},"type":"Feature","geometry":{"type":"Point","coordinates":[-73.868356091237,40.8487689998111]}},{"properties":{"NAME":"Gun Hill Rd","LINE":"2-5","URL":"http://www.mta.info/nyct/subway/index.html","id":"261"},"type":"Feature","geometry":{"type":"Point","coordinates":[-73.8661341042237,40.8778397187156]}},{"properties":{"NAME":"219th St","LINE":"2-5","URL":"http://www.mta.info/nyct/subway/index.html","id":"262"},"type":"Feature","geometry":{"type":"Point","coordinates":[-73.8625097074802,40.8838883075344]}},{"properties":{"NAME":"Mosholu Pkwy","LINE":"4","URL":"http://www.mta.info/nyct/subway/index.html","id":"263"},"type":"Feature","geometry":{"type":"Point","coordinates":[-73.8846549998888,40.8797503329691]}},{"properties":{"NAME":"Norwood - 205th St","LINE":"D","URL":"http://www.mta.info/nyct/subway/index.html","id":"264"},"type":"Feature","geometry":{"type":"Point","coordinates":[-73.8788549984991,40.8748113336823]}},{"properties":{"NAME":"Burke Ave","LINE":"2-5","URL":"http://www.mta.info/nyct/subway/index.html","id":"265"},"type":"Feature","geometry":{"type":"Point","coordinates":[-73.8670536167708,40.8712591356144]}},{"properties":{"NAME":"Baychester Ave","LINE":"5","URL":"http://www.mta.info/nyct/subway/index.html","id":"266"},"type":"Feature","geometry":{"type":"Point","coordinates":[-73.8385909977718,40.8786633337452]}},{"properties":{"NAME":"Eastchester - Dyre Ave","LINE":"5","URL":"http://www.mta.info/nyct/subway/index.html","id":"267"},"type":"Feature","geometry":{"type":"Point","coordinates":[-73.8308340008274,40.8883003324903]}},{"properties":{"NAME":"Jamaica - 179th St","LINE":"F","URL":"http://www.mta.info/nyct/subway/index.html","id":"268"},"type":"Feature","geometry":{"type":"Point","coordinates":[-73.7838170004415,40.7126459999409]}},{"properties":{"NAME":"Wakefield - 241st St","LINE":"2","URL":"http://www.mta.info/nyct/subway/index.html","id":"269"},"type":"Feature","geometry":{"type":"Point","coordinates":[-73.8506199983527,40.9031253340835]}},{"properties":{"NAME":"Botanic Garden","LINE":"S","URL":"http://www.mta.info/nyct/subway/index.html","id":"270"},"type":"Feature","geometry":{"type":"Point","coordinates":[-73.9592449997529,40.6703429999761]}},{"properties":{"NAME":"Bushwick - Aberdeen","LINE":"L","URL":"http://www.mta.info/nyct/subway/index.html","id":"271"},"type":"Feature","geometry":{"type":"Point","coordinates":[-73.9052617622733,40.6828609584912]}},{"properties":{"NAME":"Wilson Ave","LINE":"L","URL":"http://www.mta.info/nyct/subway/index.html","id":"272"},"type":"Feature","geometry":{"type":"Point","coordinates":[-73.9039586049314,40.6888668753308]}},{"properties":{"NAME":"Broadway Junction","LINE":"L","URL":"http://www.mta.info/nyct/subway/index.html","id":"273"},"type":"Feature","geometry":{"type":"Point","coordinates":[-73.9031175784343,40.678456582034]}},{"properties":{"NAME":"Gun Hill Rd","LINE":"5","URL":"http://www.mta.info/nyct/subway/index.html","id":"274"},"type":"Feature","geometry":{"type":"Point","coordinates":[-73.8463840010296,40.869526332888]}},{"properties":{"NAME":"E 180th St","LINE":"2-5","URL":"http://www.mta.info/nyct/subway/index.html","id":"275"},"type":"Feature","geometry":{"type":"Point","coordinates":[-73.87334609435,40.841863374499]}},{"properties":{"NAME":"Dyckman St","LINE":"1","URL":"http://www.mta.info/nyct/subway/index.html","id":"276"},"type":"Feature","geometry":{"type":"Point","coordinates":[-73.9255359997749,40.8605313345736]}},{"properties":{"NAME":"125th St","LINE":"1","URL":"http://www.mta.info/nyct/subway/index.html","id":"277"},"type":"Feature","geometry":{"type":"Point","coordinates":[-73.9583720009297,40.8155813329265]}},{"properties":{"NAME":"Park Pl","LINE":"S","URL":"http://www.mta.info/nyct/subway/index.html","id":"278"},"type":"Feature","geometry":{"type":"Point","coordinates":[-73.957624000331,40.6747719998872]}},{"properties":{"NAME":"Franklin Ave - Fulton St","LINE":"S","URL":"http://www.mta.info/nyct/subway/index.html","id":"279"},"type":"Feature","geometry":{"type":"Point","coordinates":[-73.9558270010879,40.680595999428]}},{"properties":{"NAME":"Nereid Ave (238 St)","LINE":"2-5","URL":"http://www.mta.info/nyct/subway/index.html","id":"280"},"type":"Feature","geometry":{"type":"Point","coordinates":[-73.8543153099791,40.8982868491181]}},{"properties":{"NAME":"149th St - Grand Concourse","LINE":"2-5","URL":"http://www.mta.info/nyct/subway/index.html","id":"281"},"type":"Feature","geometry":{"type":"Point","coordinates":[-73.9267224745774,40.8183304771111]}},{"properties":{"NAME":"3rd Ave - 149th St","LINE":"2-5","URL":"http://www.mta.info/nyct/subway/index.html","id":"282"},"type":"Feature","geometry":{"type":"Point","coordinates":[-73.9177915270379,40.8160295857093]}},{"properties":{"NAME":"161st St - Yankee Stadium","LINE":"4","URL":"http://www.mta.info/nyct/subway/index.html","id":"283"},"type":"Feature","geometry":{"type":"Point","coordinates":[-73.9256919949519,40.8282306606358]}},{"properties":{"NAME":"167th St","LINE":"4","URL":"http://www.mta.info/nyct/subway/index.html","id":"284"},"type":"Feature","geometry":{"type":"Point","coordinates":[-73.9213999975664,40.8355373330214]}},{"properties":{"NAME":"Brook Ave","LINE":"6","URL":"http://www.mta.info/nyct/subway/index.html","id":"285"},"type":"Feature","geometry":{"type":"Point","coordinates":[-73.9192399981734,40.8075663332504]}},{"properties":{"NAME":"33rd St","LINE":"7","URL":"http://www.mta.info/nyct/subway/index.html","id":"286"},"type":"Feature","geometry":{"type":"Point","coordinates":[-73.9309969987384,40.7445873335927]}},{"properties":{"NAME":"40th St","LINE":"7","URL":"http://www.mta.info/nyct/subway/index.html","id":"287"},"type":"Feature","geometry":{"type":"Point","coordinates":[-73.9240159980612,40.7437813346974]}},{"properties":{"NAME":"145th St","LINE":"A-B-C-D","URL":"http://www.mta.info/nyct/subway/index.html","id":"288"},"type":"Feature","geometry":{"type":"Point","coordinates":[-73.9440879283577,40.8247666940645]}},{"properties":{"NAME":"155th St","LINE":"B-D","URL":"http://www.mta.info/nyct/subway/index.html","id":"289"},"type":"Feature","geometry":{"type":"Point","coordinates":[-73.9382089980995,40.8301353332157]}},{"properties":{"NAME":"161st St - Yankee Stadium","LINE":"B-D","URL":"http://www.mta.info/nyct/subway/index.html","id":"290"},"type":"Feature","geometry":{"type":"Point","coordinates":[-73.9256509975147,40.8279053324132]}},{"properties":{"NAME":"167th St","LINE":"B-D","URL":"http://www.mta.info/nyct/subway/index.html","id":"291"},"type":"Feature","geometry":{"type":"Point","coordinates":[-73.9184320007707,40.8337693320591]}},{"properties":{"NAME":"Ralph Ave","LINE":"A-C","URL":"http://www.mta.info/nyct/subway/index.html","id":"292"},"type":"Feature","geometry":{"type":"Point","coordinates":[-73.9207859991904,40.6788223345236]}},{"properties":{"NAME":"Utica Ave","LINE":"A-C","URL":"http://www.mta.info/nyct/subway/index.html","id":"293"},"type":"Feature","geometry":{"type":"Point","coordinates":[-73.9307289984531,40.6793643330165]}},{"properties":{"NAME":"36th St","LINE":"E-M-R","URL":"http://www.mta.info/nyct/subway/index.html","id":"294"},"type":"Feature","geometry":{"type":"Point","coordinates":[-73.9290181847038,40.7519603774823]}},{"properties":{"NAME":"Steinway St","LINE":"E-M-R","URL":"http://www.mta.info/nyct/subway/index.html","id":"295"},"type":"Feature","geometry":{"type":"Point","coordinates":[-73.9205264710409,40.7569876927244]}},{"properties":{"NAME":"Kosciuszko St","LINE":"J","URL":"http://www.mta.info/nyct/subway/index.html","id":"296"},"type":"Feature","geometry":{"type":"Point","coordinates":[-73.9285089985691,40.6931723342369]}},{"properties":{"NAME":"Gates Ave","LINE":"J-Z","URL":"http://www.mta.info/nyct/subway/index.html","id":"297"},"type":"Feature","geometry":{"type":"Point","coordinates":[-73.9221560005869,40.6895843325681]}},{"properties":{"NAME":"Central Ave","LINE":"M","URL":"http://www.mta.info/nyct/subway/index.html","id":"298"},"type":"Feature","geometry":{"type":"Point","coordinates":[-73.9272429982953,40.6978733333904]}},{"properties":{"NAME":"Knickerbocker Ave","LINE":"M","URL":"http://www.mta.info/nyct/subway/index.html","id":"299"},"type":"Feature","geometry":{"type":"Point","coordinates":[-73.9197200009711,40.6986603347729]}},{"properties":{"NAME":"Broadway","LINE":"N-Q","URL":"http://www.mta.info/nyct/subway/index.html","id":"300"},"type":"Feature","geometry":{"type":"Point","coordinates":[-73.9258229985642,40.7614323320249]}},{"properties":{"NAME":"30th Ave","LINE":"N-Q","URL":"http://www.mta.info/nyct/subway/index.html","id":"301"},"type":"Feature","geometry":{"type":"Point","coordinates":[-73.9214790000599,40.7667789997327]}},{"properties":{"NAME":"Jefferson St","LINE":"L","URL":"http://www.mta.info/nyct/subway/index.html","id":"302"},"type":"Feature","geometry":{"type":"Point","coordinates":[-73.9229129995305,40.7066069993599]}},{"properties":{"NAME":"Morgan Ave","LINE":"L","URL":"http://www.mta.info/nyct/subway/index.html","id":"303"},"type":"Feature","geometry":{"type":"Point","coordinates":[-73.9331469999883,40.7061520000997]}},{"properties":{"NAME":"Queens Plz","LINE":"E-M-R","URL":"http://www.mta.info/nyct/subway/index.html","id":"304"},"type":"Feature","geometry":{"type":"Point","coordinates":[-73.9371382392609,40.7489180531285]}},{"properties":{"NAME":"18th Ave","LINE":"F","URL":"http://www.mta.info/nyct/subway/index.html","id":"305"},"type":"Feature","geometry":{"type":"Point","coordinates":[-73.9769709998775,40.6297550001166]}},{"properties":{"NAME":"Ditmas Ave","LINE":"F","URL":"http://www.mta.info/nyct/subway/index.html","id":"306"},"type":"Feature","geometry":{"type":"Point","coordinates":[-73.978171999927,40.6361189998003]}},{"properties":{"NAME":"77th St","LINE":"R","URL":"http://www.mta.info/nyct/subway/index.html","id":"307"},"type":"Feature","geometry":{"type":"Point","coordinates":[-74.0255099995847,40.6297420001517]}},{"properties":{"NAME":"Bay Ridge Ave","LINE":"R","URL":"http://www.mta.info/nyct/subway/index.html","id":"308"},"type":"Feature","geometry":{"type":"Point","coordinates":[-74.0233769992408,40.6349670002803]}},{"properties":{"NAME":"55th St","LINE":"D","URL":"http://www.mta.info/nyct/subway/index.html","id":"309"},"type":"Feature","geometry":{"type":"Point","coordinates":[-73.9953488255311,40.6314790943856]}},{"properties":{"NAME":"50th St","LINE":"D","URL":"http://www.mta.info/nyct/subway/index.html","id":"310"},"type":"Feature","geometry":{"type":"Point","coordinates":[-73.9946587800965,40.6362612243839]}},{"properties":{"NAME":"Ft Hamilton Pkwy","LINE":"N","URL":"http://www.mta.info/nyct/subway/index.html","id":"311"},"type":"Feature","geometry":{"type":"Point","coordinates":[-74.0053510007241,40.6313860001441]}},{"properties":{"NAME":"8th Ave","LINE":"N","URL":"http://www.mta.info/nyct/subway/index.html","id":"312"},"type":"Feature","geometry":{"type":"Point","coordinates":[-74.0115159973591,40.6349713328362]}},{"properties":{"NAME":"25th Ave","LINE":"D","URL":"http://www.mta.info/nyct/subway/index.html","id":"313"},"type":"Feature","geometry":{"type":"Point","coordinates":[-73.9868290001643,40.5977040001676]}},{"properties":{"NAME":"Bay Pky","LINE":"D","URL":"http://www.mta.info/nyct/subway/index.html","id":"314"},"type":"Feature","geometry":{"type":"Point","coordinates":[-73.99367619974,40.6019507952127]}},{"properties":{"NAME":"20th Ave","LINE":"N","URL":"http://www.mta.info/nyct/subway/index.html","id":"315"},"type":"Feature","geometry":{"type":"Point","coordinates":[-73.9845219984124,40.6171093330155]}},{"properties":{"NAME":"18th Ave","LINE":"N","URL":"http://www.mta.info/nyct/subway/index.html","id":"316"},"type":"Feature","geometry":{"type":"Point","coordinates":[-73.9904539985985,40.6206873312486]}},{"properties":{"NAME":"Bay Ridge - 95th St","LINE":"R","URL":"http://www.mta.info/nyct/subway/index.html","id":"317"},"type":"Feature","geometry":{"type":"Point","coordinates":[-74.0308760006302,40.6166220006113]}},{"properties":{"NAME":"86th St","LINE":"R","URL":"http://www.mta.info/nyct/subway/index.html","id":"318"},"type":"Feature","geometry":{"type":"Point","coordinates":[-74.0283980002835,40.6226870003229]}},{"properties":{"NAME":"79th St","LINE":"D","URL":"http://www.mta.info/nyct/subway/index.html","id":"319"},"type":"Feature","geometry":{"type":"Point","coordinates":[-74.0005828739469,40.6131592593444]}},{"properties":{"NAME":"71st St","LINE":"D","URL":"http://www.mta.info/nyct/subway/index.html","id":"320"},"type":"Feature","geometry":{"type":"Point","coordinates":[-73.9988409490544,40.6192590430081]}},{"properties":{"NAME":"20th Ave","LINE":"D","URL":"http://www.mta.info/nyct/subway/index.html","id":"321"},"type":"Feature","geometry":{"type":"Point","coordinates":[-73.9981743210267,40.6046773310553]}},{"properties":{"NAME":"18th Ave","LINE":"D","URL":"http://www.mta.info/nyct/subway/index.html","id":"322"},"type":"Feature","geometry":{"type":"Point","coordinates":[-74.0015925925406,40.6077360652094]}},{"properties":{"NAME":"62nd St","LINE":"D","URL":"http://www.mta.info/nyct/subway/index.html","id":"323"},"type":"Feature","geometry":{"type":"Point","coordinates":[-73.9968572505166,40.6262247961047]}},{"properties":{"NAME":"New Utrecht Ave","LINE":"N","URL":"http://www.mta.info/nyct/subway/index.html","id":"324"},"type":"Feature","geometry":{"type":"Point","coordinates":[-73.9963530004669,40.6248420001938]}},{"properties":{"NAME":"Ave U","LINE":"F","URL":"http://www.mta.info/nyct/subway/index.html","id":"325"},"type":"Feature","geometry":{"type":"Point","coordinates":[-73.9733764190409,40.5959251591518]}},{"properties":{"NAME":"Kings Hwy","LINE":"F","URL":"http://www.mta.info/nyct/subway/index.html","id":"326"},"type":"Feature","geometry":{"type":"Point","coordinates":[-73.9723553083372,40.6032587388334]}},{"properties":{"NAME":"Brighton Beach","LINE":"B-Q","URL":"http://www.mta.info/nyct/subway/index.html","id":"327"},"type":"Feature","geometry":{"type":"Point","coordinates":[-73.9613537857206,40.5777105297675]}},{"properties":{"NAME":"Sheepshead Bay","LINE":"B-Q","URL":"http://www.mta.info/nyct/subway/index.html","id":"328"},"type":"Feature","geometry":{"type":"Point","coordinates":[-73.9540579118221,40.5865478800514]}},{"properties":{"NAME":"Ave U","LINE":"B-Q","URL":"http://www.mta.info/nyct/subway/index.html","id":"329"},"type":"Feature","geometry":{"type":"Point","coordinates":[-73.9558112232106,40.5993092845579]}},{"properties":{"NAME":"Kings Hwy","LINE":"B-Q","URL":"http://www.mta.info/nyct/subway/index.html","id":"330"},"type":"Feature","geometry":{"type":"Point","coordinates":[-73.9576087353908,40.6086389784245]}},{"properties":{"NAME":"Ave U","LINE":"N","URL":"http://www.mta.info/nyct/subway/index.html","id":"331"},"type":"Feature","geometry":{"type":"Point","coordinates":[-73.9790840008704,40.597236333644]}},{"properties":{"NAME":"Kings Hwy","LINE":"N","URL":"http://www.mta.info/nyct/subway/index.html","id":"332"},"type":"Feature","geometry":{"type":"Point","coordinates":[-73.9803730021255,40.6040593333675]}},{"properties":{"NAME":"Neptune Ave","LINE":"F","URL":"http://www.mta.info/nyct/subway/index.html","id":"333"},"type":"Feature","geometry":{"type":"Point","coordinates":[-73.9745927280223,40.5807390915216]}},{"properties":{"NAME":"Ave X","LINE":"F","URL":"http://www.mta.info/nyct/subway/index.html","id":"334"},"type":"Feature","geometry":{"type":"Point","coordinates":[-73.9742659993022,40.589449999847]}},{"properties":{"NAME":"Bay 50th St","LINE":"D","URL":"http://www.mta.info/nyct/subway/index.html","id":"335"},"type":"Feature","geometry":{"type":"Point","coordinates":[-73.9837650002573,40.5888409998649]}},{"properties":{"NAME":"Gravesend - 86th St","LINE":"N","URL":"http://www.mta.info/nyct/subway/index.html","id":"336"},"type":"Feature","geometry":{"type":"Point","coordinates":[-73.9781889997666,40.5924653339026]}},{"properties":{"NAME":"Ave P","LINE":"F","URL":"http://www.mta.info/nyct/subway/index.html","id":"337"},"type":"Feature","geometry":{"type":"Point","coordinates":[-73.973002815289,40.6088431425785]}},{"properties":{"NAME":"Ave N","LINE":"F","URL":"http://www.mta.info/nyct/subway/index.html","id":"338"},"type":"Feature","geometry":{"type":"Point","coordinates":[-73.9740485090751,40.6143570452945]}},{"properties":{"NAME":"Bay Pky","LINE":"F","URL":"http://www.mta.info/nyct/subway/index.html","id":"339"},"type":"Feature","geometry":{"type":"Point","coordinates":[-73.9752569775524,40.6207319562063]}},{"properties":{"NAME":"Ave M","LINE":"B-Q","URL":"http://www.mta.info/nyct/subway/index.html","id":"340"},"type":"Feature","geometry":{"type":"Point","coordinates":[-73.9592431047764,40.6173980781834]}},{"properties":{"NAME":"Bay Pky","LINE":"N","URL":"http://www.mta.info/nyct/subway/index.html","id":"341"},"type":"Feature","geometry":{"type":"Point","coordinates":[-73.9817800102403,40.6114561229843]}},{"properties":{"NAME":"Ave I","LINE":"F","URL":"http://www.mta.info/nyct/subway/index.html","id":"342"},"type":"Feature","geometry":{"type":"Point","coordinates":[-73.9760693319356,40.6250177734847]}},{"properties":{"NAME":"Ave J","LINE":"B-Q","URL":"http://www.mta.info/nyct/subway/index.html","id":"343"},"type":"Feature","geometry":{"type":"Point","coordinates":[-73.9606931624677,40.6250231529057]}},{"properties":{"NAME":"Ave H","LINE":"B-Q","URL":"http://www.mta.info/nyct/subway/index.html","id":"344"},"type":"Feature","geometry":{"type":"Point","coordinates":[-73.96151793874,40.6292087105241]}},{"properties":{"NAME":"Neck Rd","LINE":"B-Q","URL":"http://www.mta.info/nyct/subway/index.html","id":"345"},"type":"Feature","geometry":{"type":"Point","coordinates":[-73.9550782744625,40.5953220245763]}},{"properties":{"NAME":"21st St - Queensbridge","LINE":"F","URL":"http://www.mta.info/nyct/subway/index.html","id":"346"},"type":"Feature","geometry":{"type":"Point","coordinates":[-73.9419376138154,40.7537396039846]}},{"properties":{"NAME":"50th St","LINE":"A-C-E","URL":"http://www.mta.info/nyct/subway/index.html","id":"347"},"type":"Feature","geometry":{"type":"Point","coordinates":[-73.9859839999904,40.762456332634]}},{"properties":{"NAME":"7th Ave","LINE":"B-D-E","URL":"http://www.mta.info/nyct/subway/index.html","id":"348"},"type":"Feature","geometry":{"type":"Point","coordinates":[-73.9816978238128,40.7629704854905]}},{"properties":{"NAME":"47th-50th Sts - Rockefeller Ctr","LINE":"B-D-F-M","URL":"http://www.mta.info/nyct/subway/index.html","id":"349"},"type":"Feature","geometry":{"type":"Point","coordinates":[-73.981331002119,40.7586413346655]}},{"properties":{"NAME":"57th St","LINE":"F","URL":"http://www.mta.info/nyct/subway/index.html","id":"350"},"type":"Feature","geometry":{"type":"Point","coordinates":[-73.9773680013077,40.7640853339023]}},{"properties":{"NAME":"Lexington Ave - 63rd St","LINE":"F","URL":"http://www.mta.info/nyct/subway/index.html","id":"351"},"type":"Feature","geometry":{"type":"Point","coordinates":[-73.9660896434021,40.7646184281507]}},{"properties":{"NAME":"Roosevelt Island - Main St","LINE":"F","URL":"http://www.mta.info/nyct/subway/index.html","id":"352"},"type":"Feature","geometry":{"type":"Point","coordinates":[-73.9532350000272,40.7591723333099]}},{"properties":{"NAME":"59th St - Columbus Circle","LINE":"A-B-C-D","URL":"http://www.mta.info/nyct/subway/index.html","id":"353"},"type":"Feature","geometry":{"type":"Point","coordinates":[-73.9816487233667,40.7682498649832]}},{"properties":{"NAME":"49th St","LINE":"N-Q-R","URL":"http://www.mta.info/nyct/subway/index.html","id":"354"},"type":"Feature","geometry":{"type":"Point","coordinates":[-73.9842095658088,40.7598023070336]}},{"properties":{"NAME":"57th St","LINE":"N-Q-R","URL":"http://www.mta.info/nyct/subway/index.html","id":"355"},"type":"Feature","geometry":{"type":"Point","coordinates":[-73.9807297331359,40.7645658585087]}},{"properties":{"NAME":"5th Ave - 59th St","LINE":"N-Q-R","URL":"http://www.mta.info/nyct/subway/index.html","id":"356"},"type":"Feature","geometry":{"type":"Point","coordinates":[-73.9733470001842,40.7648113327518]}},{"properties":{"NAME":"Lexington Ave - 59th St","LINE":"N-Q-R","URL":"http://www.mta.info/nyct/subway/index.html","id":"357"},"type":"Feature","geometry":{"type":"Point","coordinates":[-73.9673750166444,40.7627091887438]}},{"properties":{"NAME":"34th St - Penn Station","LINE":"1-2-3","URL":"http://www.mta.info/nyct/subway/index.html","id":"358"},"type":"Feature","geometry":{"type":"Point","coordinates":[-73.9910569993341,40.750373333577]}},{"properties":{"NAME":"Times Sq - 42nd St","LINE":"1-2-3","URL":"http://www.mta.info/nyct/subway/index.html","id":"359"},"type":"Feature","geometry":{"type":"Point","coordinates":[-73.9874950004336,40.7552903331671]}},{"properties":{"NAME":"Broadway - Nassau St","LINE":"A-C","URL":"http://www.mta.info/nyct/subway/index.html","id":"360"},"type":"Feature","geometry":{"type":"Point","coordinates":[-74.0076230934279,40.7101624987216]}},{"properties":{"NAME":"Chambers St","LINE":"A-C","URL":"http://www.mta.info/nyct/subway/index.html","id":"361"},"type":"Feature","geometry":{"type":"Point","coordinates":[-74.008584736068,40.714111334149]}},{"properties":{"NAME":"42nd St - Port Authority Bus Term","LINE":"A-C-E","URL":"http://www.mta.info/nyct/subway/index.html","id":"362"},"type":"Feature","geometry":{"type":"Point","coordinates":[-73.9897350004381,40.757308331808]}},{"properties":{"NAME":"Myrtle-Willoughby Aves","LINE":"G","URL":"http://www.mta.info/nyct/subway/index.html","id":"363"},"type":"Feature","geometry":{"type":"Point","coordinates":[-73.9490669982815,40.6946193325674]}},{"properties":{"NAME":"Flushing Ave","LINE":"G","URL":"http://www.mta.info/nyct/subway/index.html","id":"364"},"type":"Feature","geometry":{"type":"Point","coordinates":[-73.9502340005061,40.7003769995184]}},{"properties":{"NAME":"23rd St","LINE":"F-M","URL":"http://www.mta.info/nyct/subway/index.html","id":"365"},"type":"Feature","geometry":{"type":"Point","coordinates":[-73.9927650045465,40.7429546508876]}},{"properties":{"NAME":"Herald Sq - 34th St","LINE":"B-D-F-M","URL":"http://www.mta.info/nyct/subway/index.html","id":"366"},"type":"Feature","geometry":{"type":"Point","coordinates":[-73.9877718901554,40.7497897329483]}},{"properties":{"NAME":"Hoyt - Schermerhorn Sts","LINE":"A-C-G","URL":"http://www.mta.info/nyct/subway/index.html","id":"367"},"type":"Feature","geometry":{"type":"Point","coordinates":[-73.9850362399564,40.6884088094758]}},{"properties":{"NAME":"Jay St - Borough Hall","LINE":"A-C-F","URL":"http://www.mta.info/nyct/subway/index.html","id":"368"},"type":"Feature","geometry":{"type":"Point","coordinates":[-73.9872181531118,40.6924709704447]}},{"properties":{"NAME":"East Broadway","LINE":"F","URL":"http://www.mta.info/nyct/subway/index.html","id":"369"},"type":"Feature","geometry":{"type":"Point","coordinates":[-73.9901770011736,40.7138553340863]}},{"properties":{"NAME":"Delancey St","LINE":"F","URL":"http://www.mta.info/nyct/subway/index.html","id":"370"},"type":"Feature","geometry":{"type":"Point","coordinates":[-73.9880780683789,40.7186810756582]}},{"properties":{"NAME":"Lower East Side - 2nd Ave","LINE":"F","URL":"http://www.mta.info/nyct/subway/index.html","id":"371"},"type":"Feature","geometry":{"type":"Point","coordinates":[-73.9899379994914,40.7234019995008]}},{"properties":{"NAME":"Flushing Ave","LINE":"J-M","URL":"http://www.mta.info/nyct/subway/index.html","id":"372"},"type":"Feature","geometry":{"type":"Point","coordinates":[-73.9413773482563,40.7004047367345]}},{"properties":{"NAME":"Myrtle Ave","LINE":"J-M-Z","URL":"http://www.mta.info/nyct/subway/index.html","id":"373"},"type":"Feature","geometry":{"type":"Point","coordinates":[-73.9356230004067,40.6971953336123]}},{"properties":{"NAME":"4th Ave","LINE":"F-G","URL":"http://www.mta.info/nyct/subway/index.html","id":"374"},"type":"Feature","geometry":{"type":"Point","coordinates":[-73.9897789996763,40.6702720005814]}},{"properties":{"NAME":"Smith - 9th Sts","LINE":"F-G","URL":"http://www.mta.info/nyct/subway/index.html","id":"375"},"type":"Feature","geometry":{"type":"Point","coordinates":[-73.9958917275746,40.6736413946091]}},{"properties":{"NAME":"Bergen St","LINE":"F-G","URL":"http://www.mta.info/nyct/subway/index.html","id":"376"},"type":"Feature","geometry":{"type":"Point","coordinates":[-73.9907564955075,40.6861108809827]}},{"properties":{"NAME":"Lawrence St","LINE":"N-R","URL":"http://www.mta.info/nyct/subway/index.html","id":"377"},"type":"Feature","geometry":{"type":"Point","coordinates":[-73.9860566782987,40.6922557293693]}},{"properties":{"NAME":"Court St","LINE":"N-R","URL":"http://www.mta.info/nyct/subway/index.html","id":"378"},"type":"Feature","geometry":{"type":"Point","coordinates":[-73.9918183091348,40.6941968141207]}},{"properties":{"NAME":"Union Sq - 14th St","LINE":"N-Q-R","URL":"http://www.mta.info/nyct/subway/index.html","id":"379"},"type":"Feature","geometry":{"type":"Point","coordinates":[-73.9905388616842,40.735872600601]}},{"properties":{"NAME":"23rd St","LINE":"N-R","URL":"http://www.mta.info/nyct/subway/index.html","id":"380"},"type":"Feature","geometry":{"type":"Point","coordinates":[-73.9893440004543,40.7413030001686]}},{"properties":{"NAME":"Prospect Ave","LINE":"D-N-R","URL":"http://www.mta.info/nyct/subway/index.html","id":"381"},"type":"Feature","geometry":{"type":"Point","coordinates":[-73.9928720005895,40.6654140000933]}},{"properties":{"NAME":"9th St","LINE":"D-N-R","URL":"http://www.mta.info/nyct/subway/index.html","id":"382"},"type":"Feature","geometry":{"type":"Point","coordinates":[-73.9883019997039,40.670847000223]}},{"properties":{"NAME":"3rd Ave","LINE":"L","URL":"http://www.mta.info/nyct/subway/index.html","id":"383"},"type":"Feature","geometry":{"type":"Point","coordinates":[-73.9857500009869,40.7326913326191]}},{"properties":{"NAME":"Union Sq - 14th St","LINE":"L","URL":"http://www.mta.info/nyct/subway/index.html","id":"384"},"type":"Feature","geometry":{"type":"Point","coordinates":[-73.9906697694308,40.7347636455266]}},{"properties":{"NAME":"Liberty Ave","LINE":"A-C","URL":"http://www.mta.info/nyct/subway/index.html","id":"385"},"type":"Feature","geometry":{"type":"Point","coordinates":[-73.8965480007524,40.6745423328689]}},{"properties":{"NAME":"Broadway Junction","LINE":"A-C","URL":"http://www.mta.info/nyct/subway/index.html","id":"386"},"type":"Feature","geometry":{"type":"Point","coordinates":[-73.905316000291,40.6783339998275]}},{"properties":{"NAME":"59th St","LINE":"N-R","URL":"http://www.mta.info/nyct/subway/index.html","id":"387"},"type":"Feature","geometry":{"type":"Point","coordinates":[-74.0178809996846,40.6413619994424]}},{"properties":{"NAME":"45th St","LINE":"N-R","URL":"http://www.mta.info/nyct/subway/index.html","id":"388"},"type":"Feature","geometry":{"type":"Point","coordinates":[-74.0100060003595,40.6489389998788]}},{"properties":{"NAME":"36th St","LINE":"D-N-R","URL":"http://www.mta.info/nyct/subway/index.html","id":"389"},"type":"Feature","geometry":{"type":"Point","coordinates":[-74.0035489995692,40.6551439997516]}},{"properties":{"NAME":"9th Ave","LINE":"D","URL":"http://www.mta.info/nyct/subway/index.html","id":"390"},"type":"Feature","geometry":{"type":"Point","coordinates":[-73.9944487440854,40.6464844108464]}},{"properties":{"NAME":"53rd St","LINE":"N-R","URL":"http://www.mta.info/nyct/subway/index.html","id":"391"},"type":"Feature","geometry":{"type":"Point","coordinates":[-74.0140340004904,40.645069000509]}},{"properties":{"NAME":"Ft Hamilton Pkwy","LINE":"D","URL":"http://www.mta.info/nyct/subway/index.html","id":"392"},"type":"Feature","geometry":{"type":"Point","coordinates":[-73.9942022375282,40.6409130445924]}},{"properties":{"NAME":"25th St","LINE":"D-N-R","URL":"http://www.mta.info/nyct/subway/index.html","id":"393"},"type":"Feature","geometry":{"type":"Point","coordinates":[-73.9980909998328,40.6603970003212]}},{"properties":{"NAME":"Carroll St","LINE":"F-G","URL":"http://www.mta.info/nyct/subway/index.html","id":"394"},"type":"Feature","geometry":{"type":"Point","coordinates":[-73.9949469798202,40.6802736846969]}},{"properties":{"NAME":"Spring St","LINE":"A-C-E","URL":"http://www.mta.info/nyct/subway/index.html","id":"395"},"type":"Feature","geometry":{"type":"Point","coordinates":[-74.0037389987289,40.7262273349522]}},{"properties":{"NAME":"181st St","LINE":"A","URL":"http://www.mta.info/nyct/subway/index.html","id":"396"},"type":"Feature","geometry":{"type":"Point","coordinates":[-73.9379690016355,40.8516953326624]}},{"properties":{"NAME":"190th St","LINE":"A","URL":"http://www.mta.info/nyct/subway/index.html","id":"397"},"type":"Feature","geometry":{"type":"Point","coordinates":[-73.9341799993755,40.8590223322204]}},{"properties":{"NAME":"116th St","LINE":"A-B-C","URL":"http://www.mta.info/nyct/subway/index.html","id":"398"},"type":"Feature","geometry":{"type":"Point","coordinates":[-73.9547977809277,40.8050584671076]}},{"properties":{"NAME":"125th St","LINE":"A-B-C-D","URL":"http://www.mta.info/nyct/subway/index.html","id":"399"},"type":"Feature","geometry":{"type":"Point","coordinates":[-73.9522479975435,40.8110720063282]}},{"properties":{"NAME":"Prince St","LINE":"N-R","URL":"http://www.mta.info/nyct/subway/index.html","id":"400"},"type":"Feature","geometry":{"type":"Point","coordinates":[-73.9977020000719,40.7243289992257]}},{"properties":{"NAME":"8th St - NYU","LINE":"N-R","URL":"http://www.mta.info/nyct/subway/index.html","id":"401"},"type":"Feature","geometry":{"type":"Point","coordinates":[-73.9925079989092,40.7304653319904]}},{"properties":{"NAME":"Fulton St","LINE":"2-3","URL":"http://www.mta.info/nyct/subway/index.html","id":"402"},"type":"Feature","geometry":{"type":"Point","coordinates":[-74.0065710002491,40.7094163322935]}},{"properties":{"NAME":"Park Pl","LINE":"2-3","URL":"http://www.mta.info/nyct/subway/index.html","id":"403"},"type":"Feature","geometry":{"type":"Point","coordinates":[-74.0088109998716,40.7130513322005]}},{"properties":{"NAME":"Chambers St","LINE":"1-2-3","URL":"http://www.mta.info/nyct/subway/index.html","id":"404"},"type":"Feature","geometry":{"type":"Point","coordinates":[-74.0092660017244,40.7154783331736]}},{"properties":{"NAME":"Hoyt St","LINE":"2-3","URL":"http://www.mta.info/nyct/subway/index.html","id":"405"},"type":"Feature","geometry":{"type":"Point","coordinates":[-73.9850637961165,40.6905445184521]}},{"properties":{"NAME":"Borough Hall","LINE":"2-3","URL":"http://www.mta.info/nyct/subway/index.html","id":"406"},"type":"Feature","geometry":{"type":"Point","coordinates":[-73.9899979990653,40.6932193326599]}},{"properties":{"NAME":"183rd St","LINE":"4","URL":"http://www.mta.info/nyct/subway/index.html","id":"407"},"type":"Feature","geometry":{"type":"Point","coordinates":[-73.9038790007053,40.8584073334918]}},{"properties":{"NAME":"Fordham Rd","LINE":"4","URL":"http://www.mta.info/nyct/subway/index.html","id":"408"},"type":"Feature","geometry":{"type":"Point","coordinates":[-73.9010339983319,40.862803333207]}},{"properties":{"NAME":"World Trade Center","LINE":"E","URL":"http://www.mta.info/nyct/subway/index.html","id":"409"},"type":"Feature","geometry":{"type":"Point","coordinates":[-74.0097446147848,40.7125642601071]}},{"properties":{"NAME":"Canal St - Holland Tunnel","LINE":"A-C-E","URL":"http://www.mta.info/nyct/subway/index.html","id":"410"},"type":"Feature","geometry":{"type":"Point","coordinates":[-74.0052290019119,40.7208243330787]}},{"properties":{"NAME":"155th St","LINE":"A-C","URL":"http://www.mta.info/nyct/subway/index.html","id":"411"},"type":"Feature","geometry":{"type":"Point","coordinates":[-73.9415140002858,40.8305183330083]}},{"properties":{"NAME":"163rd St - Amsterdam Av","LINE":"A-C","URL":"http://www.mta.info/nyct/subway/index.html","id":"412"},"type":"Feature","geometry":{"type":"Point","coordinates":[-73.9398920015931,40.8360133326057]}},{"properties":{"NAME":"Fulton St","LINE":"J-Z","URL":"http://www.mta.info/nyct/subway/index.html","id":"413"},"type":"Feature","geometry":{"type":"Point","coordinates":[-74.0079380008773,40.7100229996108]}},{"properties":{"NAME":"Chambers St","LINE":"J-Z","URL":"http://www.mta.info/nyct/subway/index.html","id":"414"},"type":"Feature","geometry":{"type":"Point","coordinates":[-74.00340673089,40.7132341227328]}},{"properties":{"NAME":"Canal St","LINE":"J-Z","URL":"http://www.mta.info/nyct/subway/index.html","id":"415"},"type":"Feature","geometry":{"type":"Point","coordinates":[-73.9998263855514,40.7181742099613]}},{"properties":{"NAME":"City Hall","LINE":"N-R","URL":"http://www.mta.info/nyct/subway/index.html","id":"416"},"type":"Feature","geometry":{"type":"Point","coordinates":[-74.0069858179477,40.7132726645312]}},{"properties":{"NAME":"Canal St","LINE":"N-R","URL":"http://www.mta.info/nyct/subway/index.html","id":"417"},"type":"Feature","geometry":{"type":"Point","coordinates":[-74.0018259997318,40.7194653347772]}},{"properties":{"NAME":"South Ferry","LINE":"1","URL":"http://www.mta.info/nyct/subway/index.html","id":"418"},"type":"Feature","geometry":{"type":"Point","coordinates":[-74.0131689598393,40.7017308409529]}},{"properties":{"NAME":"Bowling Green","LINE":"4-5","URL":"http://www.mta.info/nyct/subway/index.html","id":"419"},"type":"Feature","geometry":{"type":"Point","coordinates":[-74.0140079984819,40.7049143324964]}},{"properties":{"NAME":"Wall St","LINE":"4-5","URL":"http://www.mta.info/nyct/subway/index.html","id":"420"},"type":"Feature","geometry":{"type":"Point","coordinates":[-74.0118619992053,40.7075573343624]}},{"properties":{"NAME":"Whitehall St","LINE":"N-R","URL":"http://www.mta.info/nyct/subway/index.html","id":"421"},"type":"Feature","geometry":{"type":"Point","coordinates":[-74.0130072373643,40.7031427073598]}},{"properties":{"NAME":"Rector St","LINE":"N-R","URL":"http://www.mta.info/nyct/subway/index.html","id":"422"},"type":"Feature","geometry":{"type":"Point","coordinates":[-74.0129745623741,40.7077450899504]}},{"properties":{"NAME":"Fresh Pond Rd","LINE":"M","URL":"http://www.mta.info/nyct/subway/index.html","id":"423"},"type":"Feature","geometry":{"type":"Point","coordinates":[-73.8958980008641,40.7062263319826]}},{"properties":{"NAME":"Middle Village - Metropolitan Ave","LINE":"M","URL":"http://www.mta.info/nyct/subway/index.html","id":"424"},"type":"Feature","geometry":{"type":"Point","coordinates":[-73.8895772297876,40.7114316382792]}},{"properties":{"NAME":"Rector St","LINE":"1","URL":"http://www.mta.info/nyct/subway/index.html","id":"425"},"type":"Feature","geometry":{"type":"Point","coordinates":[-74.0137830008062,40.7075133330419]}},{"properties":{"NAME":"Cortlandt St (Temporarily Closed)","LINE":"1","URL":"http://www.mta.info/nyct/subway/index.html","id":"426"},"type":"Feature","geometry":{"type":"Point","coordinates":[-74.0121880006975,40.7118353345251]}},{"properties":{"NAME":"Fulton St","LINE":"4-5","URL":"http://www.mta.info/nyct/subway/index.html","id":"427"},"type":"Feature","geometry":{"type":"Point","coordinates":[-74.0095089987438,40.7103683319308]}},{"properties":{"NAME":"Broad St","LINE":"J-Z","URL":"http://www.mta.info/nyct/subway/index.html","id":"428"},"type":"Feature","geometry":{"type":"Point","coordinates":[-74.0110560004892,40.7064763341176]}},{"properties":{"NAME":"Cortlandt St (NB only)","LINE":"N-R","URL":"http://www.mta.info/nyct/subway/index.html","id":"429"},"type":"Feature","geometry":{"type":"Point","coordinates":[-74.0111319648396,40.7105133176703]}},{"properties":{"NAME":"Wall St","LINE":"2-3","URL":"http://www.mta.info/nyct/subway/index.html","id":"430"},"type":"Feature","geometry":{"type":"Point","coordinates":[-74.0090999989945,40.7068213327903]}},{"properties":{"NAME":"Dyckman St","LINE":"A","URL":"http://www.mta.info/nyct/subway/index.html","id":"431"},"type":"Feature","geometry":{"type":"Point","coordinates":[-73.9272709991317,40.8654913325429]}},{"properties":{"NAME":"Grand St","LINE":"B-D","URL":"http://www.mta.info/nyct/subway/index.html","id":"432"},"type":"Feature","geometry":{"type":"Point","coordinates":[-73.9937529992589,40.7182673329237]}},{"properties":{"NAME":"Broadway - Lafayette St","LINE":"B-D-F-M","URL":"http://www.mta.info/nyct/subway/index.html","id":"433"},"type":"Feature","geometry":{"type":"Point","coordinates":[-73.9962039984028,40.7252973322992]}},{"properties":{"NAME":"Bowery","LINE":"J-Z","URL":"http://www.mta.info/nyct/subway/index.html","id":"434"},"type":"Feature","geometry":{"type":"Point","coordinates":[-73.993806906728,40.720247216738]}},{"properties":{"NAME":"Canal St","LINE":"N-Q","URL":"http://www.mta.info/nyct/subway/index.html","id":"435"},"type":"Feature","geometry":{"type":"Point","coordinates":[-74.0010547125305,40.7188145968226]}},{"properties":{"NAME":"23rd St","LINE":"A-C-E","URL":"http://www.mta.info/nyct/subway/index.html","id":"436"},"type":"Feature","geometry":{"type":"Point","coordinates":[-73.9980410006117,40.745906332964]}},{"properties":{"NAME":"34th St - Penn Station","LINE":"A-C-E","URL":"http://www.mta.info/nyct/subway/index.html","id":"437"},"type":"Feature","geometry":{"type":"Point","coordinates":[-73.9933909993041,40.7522873341311]}},{"properties":{"NAME":"Jackson Hts - Roosevelt Av","LINE":"E-F-M-R","URL":"http://www.mta.info/nyct/subway/index.html","id":"438"},"type":"Feature","geometry":{"type":"Point","coordinates":[-73.8912986649895,40.7465400244851]}},{"properties":{"NAME":"14th St","LINE":"1-2-3","URL":"http://www.mta.info/nyct/subway/index.html","id":"439"},"type":"Feature","geometry":{"type":"Point","coordinates":[-74.0002010005941,40.7378263333084]}},{"properties":{"NAME":"135th St","LINE":"A-B-C","URL":"http://www.mta.info/nyct/subway/index.html","id":"440"},"type":"Feature","geometry":{"type":"Point","coordinates":[-73.9475348083239,40.8179058921086]}},{"properties":{"NAME":"14th St","LINE":"F-M","URL":"http://www.mta.info/nyct/subway/index.html","id":"441"},"type":"Feature","geometry":{"type":"Point","coordinates":[-73.9962089989117,40.7382283328836]}},{"properties":{"NAME":"6th Ave","LINE":"L","URL":"http://www.mta.info/nyct/subway/index.html","id":"442"},"type":"Feature","geometry":{"type":"Point","coordinates":[-73.9977507887229,40.7377418031121]}},{"properties":{"NAME":"8th Ave","LINE":"L","URL":"http://www.mta.info/nyct/subway/index.html","id":"443"},"type":"Feature","geometry":{"type":"Point","coordinates":[-74.0025780004776,40.7397770001213]}},{"properties":{"NAME":"14th St","LINE":"A-C-E","URL":"http://www.mta.info/nyct/subway/index.html","id":"444"},"type":"Feature","geometry":{"type":"Point","coordinates":[-74.0016899994375,40.7408933336385]}},{"properties":{"NAME":"Nostrand Ave","LINE":"3-4","URL":"http://www.mta.info/nyct/subway/index.html","id":"445"},"type":"Feature","geometry":{"type":"Point","coordinates":[-73.9504262489382,40.6699384839876]}},{"properties":{"NAME":"Clark St","LINE":"2-3","URL":"http://www.mta.info/nyct/subway/index.html","id":"446"},"type":"Feature","geometry":{"type":"Point","coordinates":[-73.9930859983265,40.6974663329848]}},{"properties":{"NAME":"Franklin Ave","LINE":"A-C","URL":"http://www.mta.info/nyct/subway/index.html","id":"447"},"type":"Feature","geometry":{"type":"Point","coordinates":[-73.9568479998051,40.6813799997593]}},{"properties":{"NAME":"Clinton - Washington Aves","LINE":"A-C","URL":"http://www.mta.info/nyct/subway/index.html","id":"448"},"type":"Feature","geometry":{"type":"Point","coordinates":[-73.9658379986855,40.6832633328756]}},{"properties":{"NAME":"Forest Ave","LINE":"M","URL":"http://www.mta.info/nyct/subway/index.html","id":"449"},"type":"Feature","geometry":{"type":"Point","coordinates":[-73.9030749999464,40.7044123340283]}},{"properties":{"NAME":"110th St","LINE":"4-6-6 Express","URL":"http://www.mta.info/nyct/subway/index.html","id":"450"},"type":"Feature","geometry":{"type":"Point","coordinates":[-73.9442499969671,40.795020333524]}},{"properties":{"NAME":"86th St","LINE":"4-5-6-6 Express","URL":"http://www.mta.info/nyct/subway/index.html","id":"451"},"type":"Feature","geometry":{"type":"Point","coordinates":[-73.9555889997845,40.7794923317708]}},{"properties":{"NAME":"York St","LINE":"F","URL":"http://www.mta.info/nyct/subway/index.html","id":"452"},"type":"Feature","geometry":{"type":"Point","coordinates":[-73.9868849998245,40.6997430009218]}},{"properties":{"NAME":"High St","LINE":"A-C","URL":"http://www.mta.info/nyct/subway/index.html","id":"453"},"type":"Feature","geometry":{"type":"Point","coordinates":[-73.9905310009556,40.6993373327378]}},{"properties":{"NAME":"Lafayette Ave","LINE":"A-C","URL":"http://www.mta.info/nyct/subway/index.html","id":"454"},"type":"Feature","geometry":{"type":"Point","coordinates":[-73.9739459982415,40.6861133333011]}},{"properties":{"NAME":"President St","LINE":"2-5","URL":"http://www.mta.info/nyct/subway/index.html","id":"455"},"type":"Feature","geometry":{"type":"Point","coordinates":[-73.9505892005588,40.6678839365722]}},{"properties":{"NAME":"Woodlawn","LINE":"4","URL":"http://www.mta.info/nyct/subway/index.html","id":"456"},"type":"Feature","geometry":{"type":"Point","coordinates":[-73.8787509989087,40.8860373331449]}},{"properties":{"NAME":"Bleecker St (Uptown)","LINE":"4-6-6 Express","URL":"http://www.mta.info/nyct/subway/index.html","id":"457"},"type":"Feature","geometry":{"type":"Point","coordinates":[-73.9946590001332,40.7259149997298]}},{"properties":{"NAME":"103rd St","LINE":"4-6-6 Express","URL":"http://www.mta.info/nyct/subway/index.html","id":"458"},"type":"Feature","geometry":{"type":"Point","coordinates":[-73.9474780015153,40.7906003329756]}},{"properties":{"NAME":"Euclid Ave","LINE":"A-C-S","URL":"http://www.mta.info/nyct/subway/index.html","id":"459"},"type":"Feature","geometry":{"type":"Point","coordinates":[-73.872105999942,40.6753773319332]}},{"properties":{"NAME":"88th St","LINE":"A-S","URL":"http://www.mta.info/nyct/subway/index.html","id":"460"},"type":"Feature","geometry":{"type":"Point","coordinates":[-73.8514699989355,40.6798433343913]}},{"properties":{"NAME":"Cortelyou Rd","LINE":"B-Q","URL":"http://www.mta.info/nyct/subway/index.html","id":"461"},"type":"Feature","geometry":{"type":"Point","coordinates":[-73.9637900549486,40.6409404987199]}},{"properties":{"NAME":"116th St","LINE":"4-6-6 Express","URL":"http://www.mta.info/nyct/subway/index.html","id":"462"},"type":"Feature","geometry":{"type":"Point","coordinates":[-73.9416169982847,40.7986293338458]}},{"properties":{"NAME":"Parkchester","LINE":"6-6 Express","URL":"http://www.mta.info/nyct/subway/index.html","id":"463"},"type":"Feature","geometry":{"type":"Point","coordinates":[-73.860815999958,40.8332263321803]}},{"properties":{"NAME":"Franklin St","LINE":"1-2","URL":"http://www.mta.info/nyct/subway/index.html","id":"464"},"type":"Feature","geometry":{"type":"Point","coordinates":[-74.0068860022655,40.7193183342065]}},{"properties":{"NAME":"80th St","LINE":"A-S","URL":"http://www.mta.info/nyct/subway/index.html","id":"465"},"type":"Feature","geometry":{"type":"Point","coordinates":[-73.8589920012128,40.6793713345706]}},{"properties":{"NAME":"5th Ave - Bryant Pk","LINE":"7-7 Express","URL":"http://www.mta.info/nyct/subway/index.html","id":"466"},"type":"Feature","geometry":{"type":"Point","coordinates":[-73.9819629987137,40.7538213335937]}},{"properties":{"NAME":"Spring St","LINE":"4-6-6 Express","URL":"http://www.mta.info/nyct/subway/index.html","id":"467"},"type":"Feature","geometry":{"type":"Point","coordinates":[-73.9971409995061,40.7223013333172]}},{"properties":{"NAME":"125th St","LINE":"4-5-6-6 Express","URL":"http://www.mta.info/nyct/subway/index.html","id":"468"},"type":"Feature","geometry":{"type":"Point","coordinates":[-73.9375940001906,40.8041383340293]}},{"properties":{"NAME":"Coney Island - Stillwell Av","LINE":"D-F-N-Q","URL":"http://www.mta.info/nyct/subway/index.html","id":"469"},