{"type":"FeatureCollection","data_type":"Dataset","url_type":null,"permissions":[{"permissions":{"download":true,"view":true},"group_id":"everyone"}],"classification":null,"title":"Tesi_Decameron","count":161,"stream_id":158987,"contributor":{"url":"http://geocommons.com/users/18300","name":"sgreco65"},"data_attributes":null,"calculation_params":null,"icon_link":null,"link":"http://geocommons.com/overlays/158987.json","extent":[-6.8333,28.6353,116.391,55.95],"geometry_types":["point"],"unique_name":null,"name":"Tesi_Decameron","feature_count":161,"description":"Source: DecameronPerKml.xlsx&lt;br/&gt;DateTime: 2011-09-23 18:45:31 UTC&lt;br/&gt;&lt;br/&gt;&amp;copy;2011 Earth Point&lt;br/&gt;&lt;a target='_blank' href='http://www.earthpoint.us'&gt;www.earthpoint.us&lt;/a&gt;&lt;br/&gt;&lt;br/&gt;For illustration only. User to verify all information. ","next_feature":null,"is_raster":false,"short_classification":"Y","stats":{},"features":[{"properties":{"name":"Firenze Toscana","geo_score":0.0,"id":"a6ckwp8pkrru","geo_precision":"unmatched"},"type":"Feature","geometry":{"type":"Point","coordinates":[11.2542,43.7714]}},{"properties":{"name":"Palermo Sicilia","geo_score":0.0,"id":"a6ckwpib3pty","geo_precision":"unmatched"},"type":"Feature","geometry":{"type":"Point","coordinates":[13.3613,38.1156]}},{"properties":{"name":"Marsiglia Francia","geo_score":0.0,"id":"a6ckwp85s3wg","geo_precision":"unmatched"},"type":"Feature","geometry":{"type":"Point","coordinates":[5.3772,43.2975]}},{"properties":{"name":"Stra Lombardia","geo_score":0.0,"id":"a6ckwp64nwz3","geo_precision":"unmatched"},"type":"Feature","geometry":{"type":"Point","coordinates":[9.15,45.1833]}},{"properties":{"name":"Bologna Emilia Romagna","geo_score":0.0,"id":"a6ckwpcouhab","geo_precision":"unmatched"},"type":"Feature","geometry":{"type":"Point","coordinates":[10.9569,44.5106]}},{"properties":{"name":"Anversa Belgio settentrionale","geo_score":0.0,"id":"a6ckwp9g0rhk","geo_precision":"unmatched"},"type":"Feature","geometry":{"type":"Point","coordinates":[4.8333,51.2167]}},{"properties":{"name":"Saludeco Rimini Emilia Romagna","geo_score":0.0,"id":"a6ckwpedytut","geo_precision":"unmatched"},"type":"Feature","geometry":{"type":"Point","coordinates":[12.6667,43.8667]}},{"properties":{"name":"Procida Napoli Campania","geo_score":0.0,"id":"a6ckwp6mtldl","geo_precision":"unmatched"},"type":"Feature","geometry":{"type":"Point","coordinates":[14.0333,40.7667]}},{"properties":{"name":"Val di Magra Toscana/Liguria","geo_score":0.0,"id":"a6ckwpg51mrr","geo_precision":"unmatched"},"type":"Feature","geometry":{"type":"Point","coordinates":[9.981,44.0707]}},{"properties":{"name":"Roma Lazio","geo_score":0.0,"id":"a6ckwpfugshn","geo_precision":"unmatched"},"type":"Feature","geometry":{"type":"Point","coordinates":[12.4828,41.8931]}},{"properties":{"name":"Pavia Lombardia","geo_score":0.0,"id":"a6ckwpbshq8i","geo_precision":"unmatched"},"type":"Feature","geometry":{"type":"Point","coordinates":[9.15,45.1833]}},{"properties":{"name":"Iran Teheran","geo_score":0.0,"id":"a6ckwpgeou3q","geo_precision":"unmatched"},"type":"Feature","geometry":{"type":"Point","coordinates":[51.4167,35.6833]}},{"properties":{"name":"Prato Toscana","geo_score":0.0,"id":"a6ckwpebf4fb","geo_precision":"unmatched"},"type":"Feature","geometry":{"type":"Point","coordinates":[10.0966,43.8808]}},{"properties":{"name":"Parigi","geo_score":0.0,"id":"a6ckwp92csoa","geo_precision":"unmatched"},"type":"Feature","geometry":{"type":"Point","coordinates":[2.3518,48.8566]}},{"properties":{"name":"Napoli Campania","geo_score":0.0,"id":"a6ckwpfdtllc","geo_precision":"unmatched"},"type":"Feature","geometry":{"type":"Point","coordinates":[14.25,40.8333]}},{"properties":{"name":"Milano Lombardia","geo_score":0.0,"id":"a6ckwpcb4wsc","geo_precision":"unmatched"},"type":"Feature","geometry":{"type":"Point","coordinates":[9.1903,45.4642]}},{"properties":{"name":"Parigi riunire","geo_score":0.0,"id":"a6ckwpdtquyl","geo_precision":"unmatched"},"type":"Feature","geometry":{"type":"Point","coordinates":[2.3152,48.8566]}},{"properties":{"name":"Chiarenza Ravenna Emilia Romagna","geo_score":0.0,"id":"a6ckwpam65q4","geo_precision":"unmatched"},"type":"Feature","geometry":{"type":"Point","coordinates":[12.1994,44.4178]}},{"properties":{"name":"Saluzzo Cuneo Piemonte","geo_score":0.0,"id":"a6ckwp4q9jog","geo_precision":"unmatched"},"type":"Feature","geometry":{"type":"Point","coordinates":[7.4833,44.65]}},{"properties":{"name":"Imola Bologna Emilia Romagna","geo_score":0.0,"id":"a6ckwp9vzd81","geo_precision":"unmatched"},"type":"Feature","geometry":{"type":"Point","coordinates":[11.7,44.3333]}},{"properties":{"name":"Genova Liguria","geo_score":0.0,"id":"a6ckwp7zpwaw","geo_precision":"unmatched"},"type":"Feature","geometry":{"type":"Point","coordinates":[8.9327,44.4112]}},{"properties":{"name":"Piacenza Emilia Romagna","geo_score":0.0,"id":"a6ckwp5vgwbl","geo_precision":"unmatched"},"type":"Feature","geometry":{"type":"Point","coordinates":[9.7,45.05]}},{"properties":{"name":"Cipro Grecia","geo_score":0.0,"id":"a6ckwpi9zdas","geo_precision":"unmatched"},"type":"Feature","geometry":{"type":"Point","coordinates":[33.4298,35.1264]}},{"properties":{"name":"Tunisi Tunisia","geo_score":0.0,"id":"a6ckwpih7hum","geo_precision":"unmatched"},"type":"Feature","geometry":{"type":"Point","coordinates":[10.15,36.8333]}},{"properties":{"name":"Londra Inghilterra","geo_score":0.0,"id":"a6ckwp5o3c6t","geo_precision":"unmatched"},"type":"Feature","geometry":{"type":"Point","coordinates":[-0.1281,51.5078]}},{"properties":{"name":"Agerola Napoli Campania","geo_score":0.0,"id":"a6ckwphrcyd7","geo_precision":"unmatched"},"type":"Feature","geometry":{"type":"Point","coordinates":[14.55,40.6333]}},{"properties":{"name":"Salerno Campania","geo_score":0.0,"id":"a6ckwpjhnnoo","geo_precision":"unmatched"},"type":"Feature","geometry":{"type":"Point","coordinates":[14.7667,40.6833]}},{"properties":{"name":"Pisa Toscana","geo_score":0.0,"id":"a6ckwp6w099r","geo_precision":"unmatched"},"type":"Feature","geometry":{"type":"Point","coordinates":[10.4,43.7167]}},{"properties":{"name":"Asti Piemonte","geo_score":0.0,"id":"a6ckwp9l7un5","geo_precision":"unmatched"},"type":"Feature","geometry":{"type":"Point","coordinates":[8.2078,44.8989]}},{"properties":{"name":"Famagosta Cipro Grecia","geo_score":0.0,"id":"a6ckwp61oc7k","geo_precision":"unmatched"},"type":"Feature","geometry":{"type":"Point","coordinates":[33.95,35.1167]}},{"properties":{"name":"Principato di Monaco","geo_score":0.0,"id":"a6ckwpa92vi7","geo_precision":"unmatched"},"type":"Feature","geometry":{"type":"Point","coordinates":[7.4244,43.7333]}},{"properties":{"name":"Lamporecchio Pistoia Toscana","geo_score":0.0,"id":"a6ckwpagu505","geo_precision":"unmatched"},"type":"Feature","geometry":{"type":"Point","coordinates":[10.9,43.8167]}},{"properties":{"name":"Isola di Maiorca Palma di M.  Spagna","geo_score":0.0,"id":"a6ckwpawhi7v","geo_precision":"unmatched"},"type":"Feature","geometry":{"type":"Point","coordinates":[3.0,39.5]}},{"properties":{"name":"Narbona – Francia","geo_score":0.0,"id":"a6ckwp8tchtv","geo_precision":"unmatched"},"type":"Feature","geometry":{"type":"Point","coordinates":[3.0,43.1833]}},{"properties":{"name":"Siena Toscana","geo_score":0.0,"id":"a6ckwp7gh879","geo_precision":"unmatched"},"type":"Feature","geometry":{"type":"Point","coordinates":[11.3333,43.3333]}},{"properties":{"name":"Brescia Lombardia","geo_score":0.0,"id":"a6ckwpea0go1","geo_precision":"unmatched"},"type":"Feature","geometry":{"type":"Point","coordinates":[10.2194,45.5398]}},{"properties":{"name":"Messina Sicilia","geo_score":0.0,"id":"a6ckwpig2is5","geo_precision":"unmatched"},"type":"Feature","geometry":{"type":"Point","coordinates":[15.5555,38.1833]}},{"properties":{"name":"Aragona Spagna","geo_score":0.0,"id":"a6ckwp48v7ah","geo_precision":"unmatched"},"type":"Feature","geometry":{"type":"Point","coordinates":[-1.0,41.0]}},{"properties":{"name":"Marocco sett. Rabat Africa Secche di Barberia","geo_score":0.0,"id":"a6ckwp52tqqu","geo_precision":"unmatched"},"type":"Feature","geometry":{"type":"Point","coordinates":[-6.8333,34.0333]}},{"properties":{"name":"Alessandria d'Egitto Egitto Africa","geo_score":0.0,"id":"a6ckwpgxxflb","geo_precision":"unmatched"},"type":"Feature","geometry":{"type":"Point","coordinates":[29.9167,31.2135]}},{"properties":{"name":"Grecia","geo_score":0.0,"id":"a6ckwpbw4pog","geo_precision":"unmatched"},"type":"Feature","geometry":{"type":"Point","coordinates":[28.2167,36.4]}},{"properties":{"name":"Castello di L. Arezzo Toscana","geo_score":0.0,"id":"a6ckwpdv9158","geo_precision":"unmatched"},"type":"Feature","geometry":{"type":"Point","coordinates":[11.87,43.4733]}},{"properties":{"name":"Calc.Fiesole Cascine Firenze Toscana","geo_score":0.0,"id":"a6ckwp8860zf","geo_precision":"unmatched"},"type":"Feature","geometry":{"type":"Point","coordinates":[11.2591,43.791]}},{"properties":{"name":"Cerignola Fogglia Puglia","geo_score":0.0,"id":"a6ckwp6l63bx","geo_precision":"unmatched"},"type":"Feature","geometry":{"type":"Point","coordinates":[15.8167,41.9583]}},{"properties":{"name":"Venezia Veneto","geo_score":0.0,"id":"a6ckwp4ybdjg","geo_precision":"unmatched"},"type":"Feature","geometry":{"type":"Point","coordinates":[12.3319,45.4397]}},{"properties":{"name":"Chauvigny Chevigny o Chovigny Francia","geo_score":0.0,"id":"a6ckwp3g72bs","geo_precision":"unmatched"},"type":"Feature","geometry":{"type":"Point","coordinates":[5.4833,47.1833]}},{"properties":{"name":"Bari Puglia","geo_score":0.0,"id":"a6ckwpiwnts3","geo_precision":"unmatched"},"type":"Feature","geometry":{"type":"Point","coordinates":[16.8667,41.1253]}},{"properties":{"name":"Arno Fiume","geo_score":0.0,"id":"a6ckwperitjy","geo_precision":"unmatched"},"type":"Feature","geometry":{"type":"Point","coordinates":[10.3708,43.6825]}},{"properties":{"name":"Gerusalemme Israele","geo_score":0.0,"id":"a6ckwpg564tv","geo_precision":"unmatched"},"type":"Feature","geometry":{"type":"Point","coordinates":[35.2167,31.7833]}},{"properties":{"name":"Atene Grecia","geo_score":0.0,"id":"a6ckwp9tmae9","geo_precision":"unmatched"},"type":"Feature","geometry":{"type":"Point","coordinates":[23.7167,37.9667]}},{"properties":{"name":"Perugia Umbria","geo_score":0.0,"id":"a6ckwpcocldc","geo_precision":"unmatched"},"type":"Feature","geometry":{"type":"Point","coordinates":[12.3888,43.1121]}},{"properties":{"name":"Pistoia Toscana","geo_score":0.0,"id":"a6ckwpfudb0h","geo_precision":"unmatched"},"type":"Feature","geometry":{"type":"Point","coordinates":[10.9167,43.9333]}},{"properties":{"name":"Trapani Sicilia","geo_score":0.0,"id":"a6ckwp505mbk","geo_precision":"unmatched"},"type":"Feature","geometry":{"type":"Point","coordinates":[12.5453,38.0171]}},{"properties":{"name":"Scalea Cosenza Calabria","geo_score":0.0,"id":"a6ckwpcg5u61","geo_precision":"unmatched"},"type":"Feature","geometry":{"type":"Point","coordinates":[15.8,39.8167]}},{"properties":{"name":"Borgo San Lorenzo San Cresci in V. Firenze Toscana","geo_score":0.0,"id":"a6ckwp6tr9q3","geo_precision":"unmatched"},"type":"Feature","geometry":{"type":"Point","coordinates":[11.3833,43.95]}},{"properties":{"name":"Cremona Lombardia","geo_score":0.0,"id":"a6ckwp6ylej7","geo_precision":"unmatched"},"type":"Feature","geometry":{"type":"Point","coordinates":[10.0333,45.1334]}},{"properties":{"name":"Bergamo Lombardia","geo_score":0.0,"id":"a6ckwpg20sdw","geo_precision":"unmatched"},"type":"Feature","geometry":{"type":"Point","coordinates":[9.67,45.695]}},{"properties":{"name":"Cluny Saona e Loira Borgogna Digione Francia","geo_score":0.0,"id":"a6ckwpadhb96","geo_precision":"unmatched"},"type":"Feature","geometry":{"type":"Point","coordinates":[5.0333,47.3167]}},{"properties":{"name":"Creta Grecia","geo_score":0.0,"id":"a6ckwpbehp2l","geo_precision":"unmatched"},"type":"Feature","geometry":{"type":"Point","coordinates":[25.13,35.33]}},{"properties":{"name":"Sicilia","geo_score":0.0,"id":"a6ckwp8lakwd","geo_precision":"unmatched"},"type":"Feature","geometry":{"type":"Point","coordinates":[14.9342,38.4864]}},{"properties":{"name":"Madrid Spagna","geo_score":0.0,"id":"a6ckwp421al7","geo_precision":"unmatched"},"type":"Feature","geometry":{"type":"Point","coordinates":[-3.6833,40.4333]}},{"properties":{"name":"Salerno Campania","geo_score":0.0,"id":"a6ckwp43sz8e","geo_precision":"unmatched"},"type":"Feature","geometry":{"type":"Point","coordinates":[14.6167,40.65]}},{"properties":{"name":"Isola di I. Napoli Campania","geo_score":0.0,"id":"a6ckwphidsqz","geo_precision":"unmatched"},"type":"Feature","geometry":{"type":"Point","coordinates":[13.9,40.7167]}},{"properties":{"name":"Antakya Turchia","geo_score":0.0,"id":"a6ckwpezyyn2","geo_precision":"unmatched"},"type":"Feature","geometry":{"type":"Point","coordinates":[36.15,36.2]}},{"properties":{"name":"Instanbul Turchia","geo_score":0.0,"id":"a6ckwp45bibl","geo_precision":"unmatched"},"type":"Feature","geometry":{"type":"Point","coordinates":[28.9667,41.0167]}},{"properties":{"name":"Fiesole Firenze Toscana","geo_score":0.0,"id":"a6ckwpdj0n2t","geo_precision":"unmatched"},"type":"Feature","geometry":{"type":"Point","coordinates":[11.3,43.8]}},{"properties":{"name":"Emilia Romagna","geo_score":0.0,"id":"a6ckwpibbpxb","geo_precision":"unmatched"},"type":"Feature","geometry":{"type":"Point","coordinates":[10.9569,44.3106]}},{"properties":{"name":"Al Hillah Iraq","geo_score":0.0,"id":"a6ckwpd4eiwi","geo_precision":"unmatched"},"type":"Feature","geometry":{"type":"Point","coordinates":[44.4208,32.5364]}},{"properties":{"name":"Certaldo Firenze Toscana","geo_score":0.0,"id":"a6ckwpdnvsda","geo_precision":"unmatched"},"type":"Feature","geometry":{"type":"Point","coordinates":[11.0411,43.5478]}},{"properties":{"name":"Susa Torino Piemonte","geo_score":0.0,"id":"a6ckwp67iud2","geo_precision":"unmatched"},"type":"Feature","geometry":{"type":"Point","coordinates":[7.05,45.1333]}},{"properties":{"name":"Edimburgo Scozia","geo_score":0.0,"id":"a6ckwpcxxshm","geo_precision":"unmatched"},"type":"Feature","geometry":{"type":"Point","coordinates":[-3.2,55.95]}},{"properties":{"name":"Granada Spagna","geo_score":0.0,"id":"a6ckwpg8jwwp","geo_precision":"unmatched"},"type":"Feature","geometry":{"type":"Point","coordinates":[-3.6,37.1833]}},{"properties":{"name":"Adana Turchia","geo_score":0.0,"id":"a6ckwpc3glsw","geo_precision":"unmatched"},"type":"Feature","geometry":{"type":"Point","coordinates":[35.7061,37.3683]}},{"properties":{"name":"Cagliari Sardegna","geo_score":0.0,"id":"a6ckwp4xhsbq","geo_precision":"unmatched"},"type":"Feature","geometry":{"type":"Point","coordinates":[9.1167,39.2167]}},{"properties":{"name":"Jerevan Armenia ex URSS","geo_score":0.0,"id":"a6ckwp81pxuf","geo_precision":"unmatched"},"type":"Feature","geometry":{"type":"Point","coordinates":[44.5125,40.1778]}},{"properties":{"name":"Barletta Andria Trani Puglia","geo_score":0.0,"id":"a6ckwp4wou9r","geo_precision":"unmatched"},"type":"Feature","geometry":{"type":"Point","coordinates":[16.2833,41.3167]}},{"properties":{"name":"Maremma Toscana","geo_score":0.0,"id":"a6ckwpb0kepx","geo_precision":"unmatched"},"type":"Feature","geometry":{"type":"Point","coordinates":[11.1127,42.7628]}},{"properties":{"name":"nome immag.della contrada Berlinzoni Terre dei Baschi Vitoria Gasteiz","geo_score":0.0,"id":"a6ckwp6f8j1m","geo_precision":"unmatched"},"type":"Feature","geometry":{"type":"Point","coordinates":[-2.6833,42.85]}},{"properties":{"name":"Ancona Marche","geo_score":0.0,"id":"a6ckwp6iejl5","geo_precision":"unmatched"},"type":"Feature","geometry":{"type":"Point","coordinates":[13.5167,43.6167]}},{"properties":{"name":"Modena Emilia Romagna","geo_score":0.0,"id":"a6ckwpctph4w","geo_precision":"unmatched"},"type":"Feature","geometry":{"type":"Point","coordinates":[10.9256,44.6447]}},{"properties":{"name":"Ferrara Emilia Romagna","geo_score":0.0,"id":"a6ckwpi0d5hq","geo_precision":"unmatched"},"type":"Feature","geometry":{"type":"Point","coordinates":[11.6328,44.845]}},{"properties":{"name":"Treviso Veneto","geo_score":0.0,"id":"a6ckwpb1w6j1","geo_precision":"unmatched"},"type":"Feature","geometry":{"type":"Point","coordinates":[12.2422,45.6722]}},{"properties":{"name":"Udine Friuli Venezia Giulia","geo_score":0.0,"id":"a6ckwp4a5cbl","geo_precision":"unmatched"},"type":"Feature","geometry":{"type":"Point","coordinates":[13.2333,46.0667]}},{"properties":{"name":"Dublino – Irlanda","geo_score":0.0,"id":"a6ckwpg68j81","geo_precision":"unmatched"},"type":"Feature","geometry":{"type":"Point","coordinates":[-6.2658,53.3425]}},{"properties":{"name":"Cairo Egitto","geo_score":0.0,"id":"a6ckwpfbcadl","geo_precision":"unmatched"},"type":"Feature","geometry":{"type":"Point","coordinates":[31.2289,30.0581]}},{"properties":{"name":"Cappadocia Turchia","geo_score":0.0,"id":"a6ckwpb8o09v","geo_precision":"unmatched"},"type":"Feature","geometry":{"type":"Point","coordinates":[34.85,38.6667]}},{"properties":{"name":"Cosenza Reggio Calabria","geo_score":0.0,"id":"a6ckwpjibn0b","geo_precision":"unmatched"},"type":"Feature","geometry":{"type":"Point","coordinates":[16.3833,39.5]}},{"properties":{"name":"Corfù Grecia","geo_score":0.0,"id":"a6ckwp6gh6uc","geo_precision":"unmatched"},"type":"Feature","geometry":{"type":"Point","coordinates":[19.75,39.6667]}},{"properties":{"name":"Nola Messina Sicilia","geo_score":0.0,"id":"a6ckwpg1mp8z","geo_precision":"unmatched"},"type":"Feature","geometry":{"type":"Point","coordinates":[15.5333,40.9333]}},{"properties":{"name":"Buonconvento Siena Toscana","geo_score":0.0,"id":"a6ckwpbnr4tm","geo_precision":"unmatched"},"type":"Feature","geometry":{"type":"Point","coordinates":[11.4833,43.1333]}},{"properties":{"name":"Faenza Ferrara Emilia Romagna","geo_score":0.0,"id":"a6ckwp73tgdu","geo_precision":"unmatched"},"type":"Feature","geometry":{"type":"Point","coordinates":[11.8833,44.2833]}},{"properties":{"name":"Pontremoli Massa Toscana","geo_score":0.0,"id":"a6ckwp3iqu2x","geo_precision":"unmatched"},"type":"Feature","geometry":{"type":"Point","coordinates":[9.8799,44.3761]}},{"properties":{"name":"Pavia Lombardia","geo_score":0.0,"id":"a6ckwphx4seu","geo_precision":"unmatched"},"type":"Feature","geometry":{"type":"Point","coordinates":[8.8833,45.1667]}},{"properties":{"name":"Nuova Delhi India","geo_score":0.0,"id":"a6ckwphyk9ys","geo_precision":"unmatched"},"type":"Feature","geometry":{"type":"Point","coordinates":[77.2249,28.6353]}},{"properties":{"name":"Chio Grecia","geo_score":0.0,"id":"a6ckwpibt35x","geo_precision":"unmatched"},"type":"Feature","geometry":{"type":"Point","coordinates":[26.0177,34.4096]}},{"properties":{"name":"Peloponneso Grecia meridionale","geo_score":0.0,"id":"a6ckwp4iwh23","geo_precision":"unmatched"},"type":"Feature","geometry":{"type":"Point","coordinates":[22.3522,37.3497]}},{"properties":{"name":"Smirne Turchia","geo_score":0.0,"id":"a6ckwpgaptcv","geo_precision":"unmatched"},"type":"Feature","geometry":{"type":"Point","coordinates":[27.15,38.4333]}},{"properties":{"name":"Reggio Calabria Calabria","geo_score":0.0,"id":"a6ckwp3ol697","geo_precision":"unmatched"},"type":"Feature","geometry":{"type":"Point","coordinates":[16.5,39.0]}},{"properties":{"name":"Castellammare di Stabia Napoli Campania","geo_score":0.0,"id":"a6ckwpgkg7v8","geo_precision":"unmatched"},"type":"Feature","geometry":{"type":"Point","coordinates":[14.4833,40.7]}},{"properties":{"name":"Isola di Ponza Latina Lazio","geo_score":0.0,"id":"a6ckwp78wdei","geo_precision":"unmatched"},"type":"Feature","geometry":{"type":"Point","coordinates":[12.9667,40.9]}},{"properties":{"name":"Trani Andria Terni Puglia","geo_score":0.0,"id":"a6ckwp5et8it","geo_precision":"unmatched"},"type":"Feature","geometry":{"type":"Point","coordinates":[16.4167,41.2667]}},{"properties":{"name":"Abruzzo","geo_score":0.0,"id":"a6ckwphxho9m","geo_precision":"unmatched"},"type":"Feature","geometry":{"type":"Point","coordinates":[13.3944,42.3661]}},{"properties":{"name":"Pienza Siena Toscana","geo_score":0.0,"id":"a6ckwpjf6t7m","geo_precision":"unmatched"},"type":"Feature","geometry":{"type":"Point","coordinates":[11.6789,43.0786]}},{"properties":{"name":"Torrenieri Siena Toscana","geo_score":0.0,"id":"a6ckwpcj7acs","geo_precision":"unmatched"},"type":"Feature","geometry":{"type":"Point","coordinates":[11.5481,43.0875]}},{"properties":{"name":"Sant'Elpidio a mare Fermo Marche","geo_score":0.0,"id":"a6ckwpe4tqre","geo_precision":"unmatched"},"type":"Feature","geometry":{"type":"Point","coordinates":[13.6861,43.2295]}},{"properties":{"name":"Bagno a Ripoli Firenze Toscana","geo_score":0.0,"id":"a6ckwpfm1rzq","geo_precision":"unmatched"},"type":"Feature","geometry":{"type":"Point","coordinates":[11.3167,43.75]}},{"properties":{"name":"Sud-Ovest Francia Bayonne","geo_score":0.0,"id":"a6ckwp5b0k5c","geo_precision":"unmatched"},"type":"Feature","geometry":{"type":"Point","coordinates":[14.6167,43.8333]}},{"properties":{"name":"Fano Pesaro Urbino Marche","geo_score":0.0,"id":"a6ckwpa1saqq","geo_precision":"unmatched"},"type":"Feature","geometry":{"type":"Point","coordinates":[13.0198,43.8435]}},{"properties":{"name":"Sesto Fiorentino Firenze Toscana","geo_score":0.0,"id":"a6ckwpdqy8f7","geo_precision":"unmatched"},"type":"Feature","geometry":{"type":"Point","coordinates":[11.247,43.862]}},{"properties":{"name":"Monte Senario Vaglia Firenze Toscana","geo_score":0.0,"id":"a6ckwp4z2yay","geo_precision":"unmatched"},"type":"Feature","geometry":{"type":"Point","coordinates":[11.3331,43.8963]}},{"properties":{"name":"Monte Nero Livorno Toscana","geo_score":0.0,"id":"a6ckwp59fkiw","geo_precision":"unmatched"},"type":"Feature","geometry":{"type":"Point","coordinates":[10.3499,43.9255]}},{"properties":{"name":"Avignone Provenza Francia","geo_score":0.0,"id":"a6ckwp5a30sw","geo_precision":"unmatched"},"type":"Feature","geometry":{"type":"Point","coordinates":[4.8167,43.95]}},{"properties":{"name":"Barberino del M. Firenze Toscana","geo_score":0.0,"id":"a6ckwpj2ezl3","geo_precision":"unmatched"},"type":"Feature","geometry":{"type":"Point","coordinates":[11.2333,44.0]}},{"properties":{"name":"Rimini Emilia Romagna","geo_score":0.0,"id":"a6ckwpbo9dcd","geo_precision":"unmatched"},"type":"Feature","geometry":{"type":"Point","coordinates":[12.5667,44.05]}},{"properties":{"name":"Verona Veneto","geo_score":0.0,"id":"a6ckwphssl0i","geo_precision":"unmatched"},"type":"Feature","geometry":{"type":"Point","coordinates":[10.9937,45.4382]}},{"properties":{"name":"Calais Francia","geo_score":0.0,"id":"a6ckwp5fyorx","geo_precision":"unmatched"},"type":"Feature","geometry":{"type":"Point","coordinates":[1.8333,50.95]}},{"properties":{"name":"Galles Cardiff Wales","geo_score":0.0,"id":"a6ckwp8orbyu","geo_precision":"unmatched"},"type":"Feature","geometry":{"type":"Point","coordinates":[-3.7,52.3]}},{"properties":{"name":"Iraklion o Herakleion Creta Grecia","geo_score":0.0,"id":"a6ckwp4czawd","geo_precision":"unmatched"},"type":"Feature","geometry":{"type":"Point","coordinates":[25.1333,35.3333]}},{"properties":{"name":"Cicladi Turchia","geo_score":0.0,"id":"a6ckwph5qijr","geo_precision":"unmatched"},"type":"Feature","geometry":{"type":"Point","coordinates":[25.5207,37.0755]}},{"properties":{"name":"Agrigento Sicilia","geo_score":0.0,"id":"a6ckwp3qckvx","geo_precision":"unmatched"},"type":"Feature","geometry":{"type":"Point","coordinates":[13.5894,37.3217]}},{"properties":{"name":"Caltabellotta Agrigento Sicilia","geo_score":0.0,"id":"a6ckwp3l3mu4","geo_precision":"unmatched"},"type":"Feature","geometry":{"type":"Point","coordinates":[13.2175,37.5783]}},{"properties":{"name":"Argolide Peloponneso Grecia","geo_score":0.0,"id":"a6ckwphgkkr1","geo_precision":"unmatched"},"type":"Feature","geometry":{"type":"Point","coordinates":[22.7167,37.6167]}},{"properties":{"name":"Egina Golfo Saronico Isola della Grecia","geo_score":0.0,"id":"a6ckwpiy4a56","geo_precision":"unmatched"},"type":"Feature","geometry":{"type":"Point","coordinates":[23.6,37.6825]}},{"properties":{"name":"Cefalù Palermo Sicilia","geo_score":0.0,"id":"a6ckwpj8tot1","geo_precision":"unmatched"},"type":"Feature","geometry":{"type":"Point","coordinates":[14.0221,38.0395]}},{"properties":{"name":"Reggio Calabria Calabria","geo_score":0.0,"id":"a6ckwpd9dufd","geo_precision":"unmatched"},"type":"Feature","geometry":{"type":"Point","coordinates":[15.6619,38.1114]}},{"properties":{"name":"Isole Ionie Grecia","geo_score":0.0,"id":"a6ckwp7hrr8v","geo_precision":"unmatched"},"type":"Feature","geometry":{"type":"Point","coordinates":[20.5,38.25]}},{"properties":{"name":"Ustica Sicilia","geo_score":0.0,"id":"a6ckwpjgup3r","geo_precision":"unmatched"},"type":"Feature","geometry":{"type":"Point","coordinates":[13.1833,38.7167]}},{"properties":{"name":"Tunisi Tunisia","geo_score":0.0,"id":"a6ckwpf8okt3","geo_precision":"unmatched"},"type":"Feature","geometry":{"type":"Point","coordinates":[10.3147,38.8867]}},{"properties":{"name":"Beijing Pechino Cina","geo_score":0.0,"id":"a6ckwpg258e2","geo_precision":"unmatched"},"type":"Feature","geometry":{"type":"Point","coordinates":[116.3914,39.9056]}},{"properties":{"name":"Massa Lubrense Napoli Campania","geo_score":0.0,"id":"a6ckwp4byq7v","geo_precision":"unmatched"},"type":"Feature","geometry":{"type":"Point","coordinates":[14.35,40.6167]}},{"properties":{"name":"Brindisi Puglia","geo_score":0.0,"id":"a6ckwpduptkr","geo_precision":"unmatched"},"type":"Feature","geometry":{"type":"Point","coordinates":[17.9458,40.6383]}},{"properties":{"name":"Bitonto Bari Puglia","geo_score":0.0,"id":"a6ckwpfotwre","geo_precision":"unmatched"},"type":"Feature","geometry":{"type":"Point","coordinates":[16.6917,41.1083]}},{"properties":{"name":"Benevento Campania","geo_score":0.0,"id":"a6ckwpduy2ao","geo_precision":"unmatched"},"type":"Feature","geometry":{"type":"Point","coordinates":[14.7833,41.1333]}},{"properties":{"name":"Capua Caserta Campania","geo_score":0.0,"id":"a6ckwp73rrkc","geo_precision":"unmatched"},"type":"Feature","geometry":{"type":"Point","coordinates":[14.2833,41.1667]}},{"properties":{"name":"Gaeta Latina Lazio","geo_score":0.0,"id":"a6ckwphei1g3","geo_precision":"unmatched"},"type":"Feature","geometry":{"type":"Point","coordinates":[13.5667,41.2167]}},{"properties":{"name":"Lago di Narni Treni Umbria","geo_score":0.0,"id":"a6ckwp4m4b8z","geo_precision":"unmatched"},"type":"Feature","geometry":{"type":"Point","coordinates":[12.5167,42.5167]}},{"properties":{"name":"Siena Toscana","geo_score":0.0,"id":"a6ckwpdiduyz","geo_precision":"unmatched"},"type":"Feature","geometry":{"type":"Point","coordinates":[11.5481,42.9]}},{"properties":{"name":"Ginestreto Piegaro Perugia Umbria","geo_score":0.0,"id":"a6ckwpi90g84","geo_precision":"unmatched"},"type":"Feature","geometry":{"type":"Point","coordinates":[12.0833,42.9667]}},{"properties":{"name":"Assisi Perugia Umbria","geo_score":0.0,"id":"a6ckwpgzn22b","geo_precision":"unmatched"},"type":"Feature","geometry":{"type":"Point","coordinates":[12.6175,43.07]}},{"properties":{"name":"S.Gimignano Siena Toscana","geo_score":0.0,"id":"a6ckwp7x7mh7","geo_precision":"unmatched"},"type":"Feature","geometry":{"type":"Point","coordinates":[11.05,43.4667]}},{"properties":{"name":"Passignano Tavernelle Val di pesa Firenze Toscana","geo_score":0.0,"id":"a6ckwpcrsh1m","geo_precision":"unmatched"},"type":"Feature","geometry":{"type":"Point","coordinates":[11.1729,43.5614]}},{"properties":{"name":"Aigues Mortes Francia","geo_score":0.0,"id":"a6ckwp5i672o","geo_precision":"unmatched"},"type":"Feature","geometry":{"type":"Point","coordinates":[4.1933,43.5677]}},{"properties":{"name":"Montpellier Francia","geo_score":0.0,"id":"a6ckwpfzanfy","geo_precision":"unmatched"},"type":"Feature","geometry":{"type":"Point","coordinates":[3.8833,43.6]}},{"properties":{"name":"Castelfranco di Sopra Arezzo Toscana","geo_score":0.0,"id":"a6ckwp7m2b4p","geo_precision":"unmatched"},"type":"Feature","geometry":{"type":"Point","coordinates":[11.5583,43.6236]}},{"properties":{"name":"Senigallia Ancona Marche","geo_score":0.0,"id":"a6ckwp68rqug","geo_precision":"unmatched"},"type":"Feature","geometry":{"type":"Point","coordinates":[12.2183,43.7131]}},{"properties":{"name":"Settignano Firenze Toscana","geo_score":0.0,"id":"a6ckwpcczvf2","geo_precision":"unmatched"},"type":"Feature","geometry":{"type":"Point","coordinates":[11.3206,43.7825]}},{"properties":{"name":"Monte degli Ughi Firenze Toscana","geo_score":0.0,"id":"a6ckwp4twttf","geo_precision":"unmatched"},"type":"Feature","geometry":{"type":"Point","coordinates":[11.2546,43.7928]}},{"properties":{"name":"Altopascio Lucca Toscana","geo_score":0.0,"id":"a6ckwpdb5pru","geo_precision":"unmatched"},"type":"Feature","geometry":{"type":"Point","coordinates":[10.6747,43.8167]}},{"properties":{"name":"Campi Bisenzio(FI) Toscana","geo_score":0.0,"id":"a6ckwp4johxv","geo_precision":"unmatched"},"type":"Feature","geometry":{"type":"Point","coordinates":[11.1333,43.8256]}},{"properties":{"name":"La Spezia Liguria","geo_score":0.0,"id":"a6ckwpgmll3v","geo_precision":"unmatched"},"type":"Feature","geometry":{"type":"Point","coordinates":[9.9111,44.0763]}},{"properties":{"name":"Corniglia Cinque Terre La Spezia Liguria","geo_score":0.0,"id":"a6ckwp9djwa8","geo_precision":"unmatched"},"type":"Feature","geometry":{"type":"Point","coordinates":[9.7107,44.1207]}},{"properties":{"name":"Bertinoro Folì Cesena Emilia Romagna","geo_score":0.0,"id":"a6ckwpha2l93","geo_precision":"unmatched"},"type":"Feature","geometry":{"type":"Point","coordinates":[12.1333,44.15]}},{"properties":{"name":"Forlimpopoli Forlì Cesena Emilia Romagna","geo_score":0.0,"id":"a6ckwp8bbszi","geo_precision":"unmatched"},"type":"Feature","geometry":{"type":"Point","coordinates":[12.1333,44.1833]}},{"properties":{"name":"Albissola Savona Liguria","geo_score":0.0,"id":"a6ckwp4xwcsw","geo_precision":"unmatched"},"type":"Feature","geometry":{"type":"Point","coordinates":[8.5028,44.327]}},{"properties":{"name":"Saliceto Rio Saliceto Reggio Emilia","geo_score":0.0,"id":"a6ckwp7ixjrm","geo_precision":"unmatched"},"type":"Feature","geometry":{"type":"Point","coordinates":[10.6333,44.7]}},{"properties":{"name":"Ticino Fiume calcolo media dalla sorgente al termine","geo_score":0.0,"id":"a6ckwpfb9imn","geo_precision":"unmatched"},"type":"Feature","geometry":{"type":"Point","coordinates":[8.8271,45.8219]}},{"properties":{"name":"Rouen Francia","geo_score":0.0,"id":"a6ckwp3uvhh7","geo_precision":"unmatched"},"type":"Feature","geometry":{"type":"Point","coordinates":[10.8333,49.4333]}},{"properties":{"name":"Amiens Francia","geo_score":0.0,"id":"a6ckwpg6h949","geo_precision":"unmatched"},"type":"Feature","geometry":{"type":"Point","coordinates":[2.3,49.9]}},{"properties":{"name":"Truro Inghilterra","geo_score":0.0,"id":"a6ckwpbxwwby","geo_precision":"unmatched"},"type":"Feature","geometry":{"type":"Point","coordinates":[-5.05,50.25]}},{"properties":{"name":"Bruxelles Belgio","geo_score":0.0,"id":"a6ckwp6mmxky","geo_precision":"unmatched"},"type":"Feature","geometry":{"type":"Point","coordinates":[4.3525,50.8467]}},{"properties":{"name":"Bruges Fiandre Belgio","geo_score":0.0,"id":"a6ckwp77idlv","geo_precision":"unmatched"},"type":"Feature","geometry":{"type":"Point","coordinates":[3.2333,51.2094]}}],"is_temporal":false,"author":{"url":"","metadata":"","contact_name":"","contact_address":"","source":"","contact_phone":""},"source":"","pagination":{"sort":null,"start":0,"total":161,"limit":1000000},"state":"complete","tags":"","published":"2014-08-13T10:11:11-04:00","id":158987}