{"type":"FeatureCollection","data_type":"Dataset","url_type":null,"permissions":[{"permissions":{"download":true,"view":true},"group_id":"everyone"}],"classification":null,"title":"7schools","count":7,"stream_id":159223,"contributor":{"url":"http://geocommons.com/users/29369","name":"weihu"},"data_attributes":null,"calculation_params":null,"icon_link":null,"link":"http://geocommons.com/overlays/159223.json","extent":[-0.11364,51.4423,0.016946,51.5622],"geometry_types":["point"],"unique_name":null,"name":"7schools","feature_count":7,"description":"","next_feature":null,"is_raster":false,"short_classification":"Y","stats":{"latitude":{"max":51.562207,"mean":51.5035354285714,"variance":0.00207402112228566,"stdev":0.0455414220494448,"min":51.442255,"median":51.524801},"longitude":{"max":0.016946,"mean":-0.0648854285714286,"variance":0.00198959677628571,"stdev":0.0446048963263644,"min":-0.11364,"median":-0.079775}},"features":[{"properties":{"name":"Thomas Fairchild Community School","latitude":51.535022,"postcode":"N1 5JN","town":"Hackney","longitude":-0.085857,"id":"a66t7qar4ab4"},"type":"Feature","geometry":{"type":"Point","coordinates":[-0.085857,51.535022]}},{"properties":{"name":"Ambler Primary School","latitude":51.562207,"postcode":"N4 2DR","town":"Islington","longitude":-0.10086,"id":"a66t7q3jf5jo"},"type":"Feature","geometry":{"type":"Point","coordinates":[-0.10086,51.562207]}},{"properties":{"name":"Fenstanton Primary School","latitude":51.442255,"postcode":"SW2 3PW","town":"Lambeth","longitude":-0.11364,"id":"a66t7q1tx3r0"},"type":"Feature","geometry":{"type":"Point","coordinates":[-0.11364,51.442255]}},{"properties":{"name":"Brockley Primary School","latitude":51.456143,"postcode":"SE4 2BT","town":"Lewisham","longitude":-0.036635,"id":"a66t7pyrvnpt"},"type":"Feature","geometry":{"type":"Point","coordinates":[-0.036635,51.456143]}},{"properties":{"name":"Grange Primary School","latitude":51.524801,"postcode":"E13 0HE","town":"Newham","longitude":0.016946,"id":"a66t7q7sjcln"},"type":"Feature","geometry":{"type":"Point","coordinates":[0.016946,51.524801]}},{"properties":{"name":"Oliver Goldsmith Primary School","latitude":51.474294,"postcode":"SE5 8UH","town":"Southwark","longitude":-0.079775,"id":"a66t7q3mv24u"},"type":"Feature","geometry":{"type":"Point","coordinates":[-0.079775,51.474294]}},{"properties":{"name":"St John's Church of England Primary School","latitude":51.530026,"postcode":"E2 9LR","town":"Tower Hamlets","longitude":-0.054377,"id":"a66t7py5msxn"},"type":"Feature","geometry":{"type":"Point","coordinates":[-0.054377,51.530026]}}],"is_temporal":false,"author":{"url":"","metadata":"","contact_name":"","contact_address":"","source":"","contact_phone":""},"source":"","pagination":{"sort":null,"start":0,"total":7,"limit":1000000},"state":"complete","tags":"","published":"2014-08-13T10:31:32-04:00","id":159223}