{"type":"FeatureCollection","data_type":"Dataset","url_type":null,"permissions":[{"permissions":{"download":true,"view":true},"group_id":"everyone"}],"classification":null,"title":"Colorado Snow Report","count":380,"stream_id":170160,"contributor":{"url":"http://geocommons.com/users/7800","name":"chelm"},"data_attributes":null,"calculation_params":null,"icon_link":null,"link":"http://geocommons.com/overlays/170160.json","extent":[-108.418,37.212,-102.183,40.9484],"geometry_types":["point"],"unique_name":null,"name":"Colorado Snow Report","feature_count":380,"description":"Updated snow totals from storm on 10/26/2011","next_feature":null,"is_raster":false,"short_classification":"Y","stats":{"lon":{"max":-102.1826,"mean":-105.143905511842,"variance":0.589145401271405,"stdev":0.767558076806833,"min":-108.4177,"median":-105.086279},"snow":{"max":18.2,"mean":5.88526315789473,"variance":10.6628429384808,"stdev":3.26540088480431,"min":0.1,"median":5.9},"precip":{"max":1.43,"mean":0.642209944751382,"variance":0.103813939180606,"stdev":0.322201705738201,"min":0.0,"median":0.69},"lat":{"max":40.9484,"mean":39.7783311285,"variance":0.441980843446817,"stdev":0.664816398298671,"min":37.212,"median":39.794809}},"features":[{"properties":{"elevation":"N/A","lon":-105.44,"zone":"CO001","time":"NA","snow":18.2,"date":"NA","precip":null,"id":"a6245t2e9vsp","lat":40.11,"station":"3 W JAMESTOWN"},"type":"Feature","geometry":{"type":"Point","coordinates":[-105.44,40.11]}},{"properties":{"elevation":"N/A","lon":-105.4391,"zone":"CO001","time":"NA","snow":16.8,"date":"NA","precip":1.42,"id":"a6245t2cvswq","lat":40.1103,"station":"Ward 4.6 NE"},"type":"Feature","geometry":{"type":"Point","coordinates":[-105.4391,40.1103]}},{"properties":{"elevation":"N/A","lon":-105.884,"zone":"CO001","time":"NA","snow":15.0,"date":"NA","precip":1.29,"id":"a6245t0fatg8","lat":39.904722,"station":"Fraser 5.2 WSW"},"type":"Feature","geometry":{"type":"Point","coordinates":[-105.884,39.904722]}},{"properties":{"elevation":"N/A","lon":-105.521653,"zone":"CO001","time":"NA","snow":14.2,"date":"NA","precip":1.04,"id":"a6245t3vs193","lat":40.346414,"station":"Estes Park 1.8 S"},"type":"Feature","geometry":{"type":"Point","coordinates":[-105.521653,40.346414]}},{"properties":{"elevation":"N/A","lon":-105.4759,"zone":"CO001","time":"NA","snow":14.0,"date":"NA","precip":1.08,"id":"a6245szd85es","lat":39.8249,"station":"Black Hawk 2.1 NNE"},"type":"Feature","geometry":{"type":"Point","coordinates":[-105.4759,39.8249]}},{"properties":{"elevation":"N/A","lon":-105.5158217,"zone":"CO001","time":"NA","snow":13.5,"date":"NA","precip":1.04,"id":"a6245t8l0a13","lat":39.9683139,"station":"Nederland 0.7 NW"},"type":"Feature","geometry":{"type":"Point","coordinates":[-105.5158217,39.9683139]}},{"properties":{"elevation":"N/A","lon":-106.137,"zone":"CO001","time":"NA","snow":13.5,"date":"NA","precip":0.74,"id":"a6245swu9ksc","lat":39.722,"station":"Silverthorne 7.4 NW"},"type":"Feature","geometry":{"type":"Point","coordinates":[-106.137,39.722]}},{"properties":{"elevation":"N/A","lon":-105.4878,"zone":"CO001","time":"NA","snow":13.4,"date":"NA","precip":1.35,"id":"a6245t2atc1e","lat":40.4018,"station":"Estes Park 2.2 NE"},"type":"Feature","geometry":{"type":"Point","coordinates":[-105.4878,40.4018]}},{"properties":{"elevation":"N/A","lon":-105.414993,"zone":"CO001","time":"NA","snow":12.5,"date":"NA","precip":1.05,"id":"a6245t0p1uk6","lat":40.720613,"station":"Livermore 9.9 WSW"},"type":"Feature","geometry":{"type":"Point","coordinates":[-105.414993,40.720613]}},{"properties":{"elevation":"N/A","lon":-104.74,"zone":"CO001","time":"NA","snow":12.5,"date":"NA","precip":null,"id":"a6245sy51tdg","lat":40.44,"station":"1 N GREELEY"},"type":"Feature","geometry":{"type":"Point","coordinates":[-104.74,40.44]}},{"properties":{"elevation":"N/A","lon":-105.3912,"zone":"CO001","time":"NA","snow":12.2,"date":"NA","precip":0.94,"id":"a6245t7ltwsr","lat":40.6263,"station":"Stove Prairie 2 WNW"},"type":"Feature","geometry":{"type":"Point","coordinates":[-105.3912,40.6263]}},{"properties":{"elevation":"N/A","lon":-105.8609,"zone":"CO001","time":"NA","snow":12.0,"date":"NA","precip":1.2,"id":"a6245t6ud7f6","lat":40.0046,"station":"Tabernash 1.9 W"},"type":"Feature","geometry":{"type":"Point","coordinates":[-105.8609,40.0046]}},{"properties":{"elevation":"N/A","lon":-105.4937,"zone":"CO001","time":"NA","snow":12.0,"date":"NA","precip":0.83,"id":"a6245t0r7vmf","lat":40.3551,"station":"Estes Park 1.8 SE"},"type":"Feature","geometry":{"type":"Point","coordinates":[-105.4937,40.3551]}},{"properties":{"elevation":"N/A","lon":-104.7695,"zone":"CO001","time":"NA","snow":12.0,"date":"NA","precip":1.05,"id":"a6245t0rnnt4","lat":40.3942,"station":"Greeley 3.8 W"},"type":"Feature","geometry":{"type":"Point","coordinates":[-104.7695,40.3942]}},{"properties":{"elevation":"N/A","lon":-105.45,"zone":"CO001","time":"NA","snow":12.0,"date":"NA","precip":null,"id":"a6245t95shgj","lat":39.99,"station":"4 ENE NEDERLAND"},"type":"Feature","geometry":{"type":"Point","coordinates":[-105.45,39.99]}},{"properties":{"elevation":"N/A","lon":-105.4735,"zone":"CO001","time":"NA","snow":11.8,"date":"NA","precip":1.07,"id":"a6245svyjyx8","lat":39.6782,"station":"Idaho Springs 4.7 SSE"},"type":"Feature","geometry":{"type":"Point","coordinates":[-105.4735,39.6782]}},{"properties":{"elevation":"N/A","lon":-105.424354,"zone":"CO001","time":"NA","snow":11.8,"date":"NA","precip":1.15,"id":"a6245swdpwad","lat":40.457446,"station":"Drake 5.3 WNW"},"type":"Feature","geometry":{"type":"Point","coordinates":[-105.424354,40.457446]}},{"properties":{"elevation":"N/A","lon":-104.7475,"zone":"CO001","time":"NA","snow":11.8,"date":"NA","precip":1.21,"id":"a6245t9mr0m4","lat":40.4005,"station":"Greeley 2.6 W"},"type":"Feature","geometry":{"type":"Point","coordinates":[-104.7475,40.4005]}},{"properties":{"elevation":"N/A","lon":-105.0905,"zone":"CO001","time":"NA","snow":11.5,"date":"NA","precip":0.9,"id":"a6245t8jqmko","lat":40.1945,"station":"Longmont 1.7 NNE"},"type":"Feature","geometry":{"type":"Point","coordinates":[-105.0905,40.1945]}},{"properties":{"elevation":"N/A","lon":-105.076626,"zone":"CO001","time":"NA","snow":11.5,"date":"NA","precip":0.54,"id":"a6245sz16tye","lat":40.19942,"station":"Longmont 2.6 NE"},"type":"Feature","geometry":{"type":"Point","coordinates":[-105.076626,40.19942]}},{"properties":{"elevation":"N/A","lon":-105.399793,"zone":"CO001","time":"NA","snow":11.5,"date":"NA","precip":0.98,"id":"a6245t9yhk3h","lat":40.852106,"station":"Virginia Dale 7.2 SSW"},"type":"Feature","geometry":{"type":"Point","coordinates":[-105.399793,40.852106]}},{"properties":{"elevation":"N/A","lon":-104.679875,"zone":"CO001","time":"NA","snow":11.5,"date":"NA","precip":0.68,"id":"a6245t8sqvkc","lat":40.450468,"station":"Greeley 3.9 ENE"},"type":"Feature","geometry":{"type":"Point","coordinates":[-104.679875,40.450468]}},{"properties":{"elevation":"N/A","lon":-105.1323,"zone":"CO001","time":"NA","snow":11.2,"date":"NA","precip":0.92,"id":"a6245t48yxgz","lat":40.1951,"station":"Longmont 2.6 NW"},"type":"Feature","geometry":{"type":"Point","coordinates":[-105.1323,40.1951]}},{"properties":{"elevation":"N/A","lon":-105.5181,"zone":"CO001","time":"NA","snow":11.1,"date":"NA","precip":0.89,"id":"a6245t02wncd","lat":40.3409,"station":"Estes Park 2.2 S"},"type":"Feature","geometry":{"type":"Point","coordinates":[-105.5181,40.3409]}},{"properties":{"elevation":"N/A","lon":-105.4253,"zone":"CO001","time":"NA","snow":10.8,"date":"NA","precip":1.06,"id":"a6245t1yw1mn","lat":39.9771,"station":"Nederland 4.8 ENE"},"type":"Feature","geometry":{"type":"Point","coordinates":[-105.4253,39.9771]}},{"properties":{"elevation":"N/A","lon":-105.445,"zone":"CO001","time":"NA","snow":10.8,"date":"NA","precip":0.8,"id":"a6245t4ds80t","lat":39.9892,"station":"Nederland 3.7 ENE"},"type":"Feature","geometry":{"type":"Point","coordinates":[-105.445,39.9892]}},{"properties":{"elevation":"N/A","lon":-105.169101,"zone":"CO001","time":"NA","snow":10.8,"date":"NA","precip":0.42,"id":"a6245t5me2h0","lat":40.269574,"station":"Berthoud 5.3 WSW"},"type":"Feature","geometry":{"type":"Point","coordinates":[-105.169101,40.269574]}},{"properties":{"elevation":"N/A","lon":-104.6371,"zone":"CO001","time":"NA","snow":10.8,"date":"NA","precip":0.68,"id":"a6245t4kgnld","lat":40.4463,"station":"GLY 4.3 NE"},"type":"Feature","geometry":{"type":"Point","coordinates":[-104.6371,40.4463]}},{"properties":{"elevation":"N/A","lon":-104.7752,"zone":"CO001","time":"NA","snow":10.6,"date":"NA","precip":1.09,"id":"a6245suxl1yx","lat":40.3575,"station":"Greeley 5.2 SW"},"type":"Feature","geometry":{"type":"Point","coordinates":[-104.7752,40.3575]}},{"properties":{"elevation":"N/A","lon":-104.7914,"zone":"CO001","time":"NA","snow":10.5,"date":"NA","precip":0.62,"id":"a6245t977h18","lat":40.4108,"station":"Greeley 4.4 W"},"type":"Feature","geometry":{"type":"Point","coordinates":[-104.7914,40.4108]}},{"properties":{"elevation":"N/A","lon":-104.313849,"zone":"CO001","time":"NA","snow":10.5,"date":"NA","precip":0.59,"id":"a6245t28u8uu","lat":40.480156,"station":"Briggsdale 11 S"},"type":"Feature","geometry":{"type":"Point","coordinates":[-104.313849,40.480156]}},{"properties":{"elevation":"N/A","lon":-104.564652,"zone":"CO001","time":"NA","snow":10.5,"date":"NA","precip":0.57,"id":"a6245t4x2zx9","lat":40.503823,"station":"Galeton 1.4 SE"},"type":"Feature","geometry":{"type":"Point","coordinates":[-104.564652,40.503823]}},{"properties":{"elevation":"N/A","lon":-105.4,"zone":"CO001","time":"NA","snow":10.5,"date":"NA","precip":null,"id":"a6245t8x6f68","lat":39.57,"station":"4 SSE BROOKVALE"},"type":"Feature","geometry":{"type":"Point","coordinates":[-105.4,39.57]}},{"properties":{"elevation":"N/A","lon":-105.27,"zone":"CO001","time":"NA","snow":10.3,"date":"NA","precip":null,"id":"a6245t1rqnyq","lat":39.69,"station":"GENESEE"},"type":"Feature","geometry":{"type":"Point","coordinates":[-105.27,39.69]}},{"properties":{"elevation":"N/A","lon":-105.1519936,"zone":"CO001","time":"NA","snow":10.2,"date":"NA","precip":1.42,"id":"a6245t1nrves","lat":40.1498792,"station":"Longmont 2.7 SW"},"type":"Feature","geometry":{"type":"Point","coordinates":[-105.1519936,40.1498792]}},{"properties":{"elevation":"N/A","lon":-105.25884,"zone":"CO001","time":"NA","snow":10.1,"date":"NA","precip":1.02,"id":"a6245t3soaqg","lat":40.623251,"station":"Bellvue 4.7 W"},"type":"Feature","geometry":{"type":"Point","coordinates":[-105.25884,40.623251]}},{"properties":{"elevation":"N/A","lon":-105.1087,"zone":"CO001","time":"NA","snow":10.0,"date":"NA","precip":0.88,"id":"a6245t98kyqy","lat":40.2001,"station":"Longmont 2.1 N"},"type":"Feature","geometry":{"type":"Point","coordinates":[-105.1087,40.2001]}},{"properties":{"elevation":"N/A","lon":-105.198728,"zone":"CO001","time":"NA","snow":10.0,"date":"NA","precip":0.93,"id":"a6245sx003sd","lat":40.102041,"station":"Niwot 2.3 W"},"type":"Feature","geometry":{"type":"Point","coordinates":[-105.198728,40.102041]}},{"properties":{"elevation":"N/A","lon":-105.38644,"zone":"CO001","time":"NA","snow":10.0,"date":"NA","precip":0.82,"id":"a6245t4azcqs","lat":39.77385,"station":"Golden 9.4 WNW"},"type":"Feature","geometry":{"type":"Point","coordinates":[-105.38644,39.77385]}},{"properties":{"elevation":"N/A","lon":-105.390301,"zone":"CO001","time":"NA","snow":10.0,"date":"NA","precip":0.79,"id":"a6245t5op1je","lat":39.88175,"station":"Golden 12.5 NW"},"type":"Feature","geometry":{"type":"Point","coordinates":[-105.390301,39.88175]}},{"properties":{"elevation":"N/A","lon":-104.948,"zone":"CO001","time":"NA","snow":10.0,"date":"NA","precip":1.01,"id":"a6245swh73w7","lat":40.443,"station":"Windsor 3.4 SW"},"type":"Feature","geometry":{"type":"Point","coordinates":[-104.948,40.443]}},{"properties":{"elevation":"N/A","lon":-105.4261,"zone":"CO001","time":"NA","snow":10.0,"date":"NA","precip":1.04,"id":"a6245t2vac4f","lat":40.725,"station":"Livermore 12 SW"},"type":"Feature","geometry":{"type":"Point","coordinates":[-105.4261,40.725]}},{"properties":{"elevation":"N/A","lon":-104.8746,"zone":"CO001","time":"NA","snow":10.0,"date":"NA","precip":1.05,"id":"a6245t3gnw5z","lat":40.3606,"station":"Milliken 3.2 NNW"},"type":"Feature","geometry":{"type":"Point","coordinates":[-104.8746,40.3606]}},{"properties":{"elevation":"N/A","lon":-104.9218629,"zone":"CO001","time":"NA","snow":10.0,"date":"NA","precip":0.0,"id":"a6245t2h9qiy","lat":40.5087376,"station":"Windsor 1.8 NNW"},"type":"Feature","geometry":{"type":"Point","coordinates":[-104.9218629,40.5087376]}},{"properties":{"elevation":"N/A","lon":-105.46,"zone":"CO001","time":"NA","snow":10.0,"date":"NA","precip":null,"id":"a6245t9n45x1","lat":39.86,"station":"2 NNE ASPEN SPRINGS"},"type":"Feature","geometry":{"type":"Point","coordinates":[-105.46,39.86]}},{"properties":{"elevation":"N/A","lon":-106.0,"zone":"CO001","time":"NA","snow":10.0,"date":"NA","precip":null,"id":"a6245sxhiruo","lat":39.23,"station":"N FAIRPLAY"},"type":"Feature","geometry":{"type":"Point","coordinates":[-106.0,39.23]}},{"properties":{"elevation":"N/A","lon":-105.427878,"zone":"CO001","time":"NA","snow":9.9,"date":"NA","precip":0.95,"id":"a6245t6aofe9","lat":39.973281,"station":"Nederland 4.2 E"},"type":"Feature","geometry":{"type":"Point","coordinates":[-105.427878,39.973281]}},{"properties":{"elevation":"N/A","lon":-105.1475,"zone":"CO001","time":"NA","snow":9.8,"date":"NA","precip":0.82,"id":"a6245t8p65q2","lat":40.138,"station":"Longmont 3.2 SW"},"type":"Feature","geometry":{"type":"Point","coordinates":[-105.1475,40.138]}},{"properties":{"elevation":"N/A","lon":-105.54061,"zone":"CO001","time":"NA","snow":9.8,"date":"NA","precip":0.81,"id":"a6245t4mwxww","lat":39.7297,"station":"Idaho Springs 1.7 WSW"},"type":"Feature","geometry":{"type":"Point","coordinates":[-105.54061,39.7297]}},{"properties":{"elevation":"N/A","lon":-105.3918163,"zone":"CO001","time":"NA","snow":9.5,"date":"NA","precip":1.05,"id":"a6245t9z2556","lat":40.0304746,"station":"Boulder 7.4 W"},"type":"Feature","geometry":{"type":"Point","coordinates":[-105.3918163,40.0304746]}},{"properties":{"elevation":"N/A","lon":-105.081,"zone":"CO001","time":"NA","snow":9.5,"date":"NA","precip":1.01,"id":"a6245t8hr7qw","lat":40.738,"station":"WEL 4.8 NW"},"type":"Feature","geometry":{"type":"Point","coordinates":[-105.081,40.738]}},{"properties":{"elevation":"N/A","lon":-105.431732,"zone":"CO001","time":"NA","snow":9.5,"date":"NA","precip":1.35,"id":"a6245swjo0hs","lat":40.748771,"station":"Livermore 10.6 W"},"type":"Feature","geometry":{"type":"Point","coordinates":[-105.431732,40.748771]}},{"properties":{"elevation":"N/A","lon":-104.7744,"zone":"CO001","time":"NA","snow":9.5,"date":"NA","precip":0.96,"id":"a6245t99eh4b","lat":40.5052,"station":"Eaton 3.6 WSW"},"type":"Feature","geometry":{"type":"Point","coordinates":[-104.7744,40.5052]}},{"properties":{"elevation":"N/A","lon":-104.807,"zone":"CO001","time":"NA","snow":9.5,"date":"NA","precip":0.96,"id":"a6245sy30inv","lat":40.438,"station":"Greeley 4.6 WNW"},"type":"Feature","geometry":{"type":"Point","coordinates":[-104.807,40.438]}},{"properties":{"elevation":"N/A","lon":-105.34,"zone":"CO001","time":"NA","snow":9.5,"date":"NA","precip":null,"id":"a6245t6ue6zy","lat":39.68,"station":"3 N EVERGREEN"},"type":"Feature","geometry":{"type":"Point","coordinates":[-105.34,39.68]}},{"properties":{"elevation":"N/A","lon":-105.1516,"zone":"CO001","time":"NA","snow":9.3,"date":"NA","precip":0.0,"id":"a6245sxbt4ab","lat":40.1832,"station":"Longmont 2.9 WNW"},"type":"Feature","geometry":{"type":"Point","coordinates":[-105.1516,40.1832]}},{"properties":{"elevation":"N/A","lon":-105.266667,"zone":"CO001","time":"NA","snow":9.1,"date":"NA","precip":0.84,"id":"a6245t2v60ti","lat":40.226333,"station":"Lyons 0.3 NNE"},"type":"Feature","geometry":{"type":"Point","coordinates":[-105.266667,40.226333]}},{"properties":{"elevation":"N/A","lon":-105.44,"zone":"CO001","time":"NA","snow":9.0,"date":"NA","precip":0.99,"id":"a6245t2tl3iw","lat":39.61,"station":"Evergreen 6.5 WSW"},"type":"Feature","geometry":{"type":"Point","coordinates":[-105.44,39.61]}},{"properties":{"elevation":"N/A","lon":-105.4096,"zone":"CO001","time":"NA","snow":9.0,"date":"NA","precip":0.94,"id":"a6245sybln5p","lat":40.751,"station":"Livermore 10.5 WSW"},"type":"Feature","geometry":{"type":"Point","coordinates":[-105.4096,40.751]}},{"properties":{"elevation":"N/A","lon":-104.9811,"zone":"CO001","time":"NA","snow":9.0,"date":"NA","precip":0.98,"id":"a6245szviyud","lat":40.5653,"station":"FCL 5.6 E"},"type":"Feature","geometry":{"type":"Point","coordinates":[-104.9811,40.5653]}},{"properties":{"elevation":"N/A","lon":-105.22,"zone":"CO001","time":"NA","snow":9.0,"date":"NA","precip":1.25,"id":"a6245t709dvh","lat":40.58,"station":"Horsetooth Mountain 3.2 NNW"},"type":"Feature","geometry":{"type":"Point","coordinates":[-105.22,40.58]}},{"properties":{"elevation":"N/A","lon":-105.152245,"zone":"CO001","time":"NA","snow":9.0,"date":"NA","precip":1.08,"id":"a6245t0usm6c","lat":40.390749,"station":"Loveland 4.7 WSW"},"type":"Feature","geometry":{"type":"Point","coordinates":[-105.152245,40.390749]}},{"properties":{"elevation":"N/A","lon":-105.164965,"zone":"CO001","time":"NA","snow":9.0,"date":"NA","precip":0.0,"id":"a6245sx9m2bc","lat":40.272604,"station":"Berthoud 5.0 WSW"},"type":"Feature","geometry":{"type":"Point","coordinates":[-105.164965,40.272604]}},{"properties":{"elevation":"N/A","lon":-104.929,"zone":"CO001","time":"NA","snow":9.0,"date":"NA","precip":0.65,"id":"a6245t9j6xu9","lat":40.103,"station":"Frederick 0.5 ENE"},"type":"Feature","geometry":{"type":"Point","coordinates":[-104.929,40.103]}},{"properties":{"elevation":"N/A","lon":-105.28,"zone":"CO001","time":"NA","snow":9.0,"date":"NA","precip":null,"id":"a6245t3zefj9","lat":40.01,"station":"2 SW BOULDER"},"type":"Feature","geometry":{"type":"Point","coordinates":[-105.28,40.01]}},{"properties":{"elevation":"N/A","lon":-105.5239,"zone":"CO001","time":"NA","snow":8.9,"date":"NA","precip":0.74,"id":"a6245t56hgzz","lat":39.4905,"station":"Bailey 6.4 NNW"},"type":"Feature","geometry":{"type":"Point","coordinates":[-105.5239,39.4905]}},{"properties":{"elevation":"N/A","lon":-105.3753,"zone":"CO001","time":"NA","snow":8.8,"date":"NA","precip":0.77,"id":"a6245t6ohp5e","lat":39.6012,"station":"Evergreen 3.8 SW"},"type":"Feature","geometry":{"type":"Point","coordinates":[-105.3753,39.6012]}},{"properties":{"elevation":"N/A","lon":-105.35,"zone":"CO001","time":"NA","snow":8.8,"date":"NA","precip":null,"id":"a6245svdali2","lat":39.65,"station":"1 NNW EVERGREEN"},"type":"Feature","geometry":{"type":"Point","coordinates":[-105.35,39.65]}},{"properties":{"elevation":"N/A","lon":-105.07,"zone":"CO001","time":"NA","snow":8.8,"date":"NA","precip":null,"id":"a6245t40futm","lat":40.45,"station":"2 N LOVELAND"},"type":"Feature","geometry":{"type":"Point","coordinates":[-105.07,40.45]}},{"properties":{"elevation":"N/A","lon":-105.3741,"zone":"CO001","time":"NA","snow":8.7,"date":"NA","precip":1.36,"id":"a6245t6sb69t","lat":40.05074,"station":"Boulder 6.7 WNW"},"type":"Feature","geometry":{"type":"Point","coordinates":[-105.3741,40.05074]}},{"properties":{"elevation":"N/A","lon":-105.1229,"zone":"CO001","time":"NA","snow":8.7,"date":"NA","precip":0.97,"id":"a6245t1eyoaz","lat":40.5642,"station":"FCL 2.1 SW"},"type":"Feature","geometry":{"type":"Point","coordinates":[-105.1229,40.5642]}},{"properties":{"elevation":"N/A","lon":-105.1717,"zone":"CO001","time":"NA","snow":8.6,"date":"NA","precip":0.91,"id":"a6245subsd1o","lat":40.0591,"station":"Boulder 4.7 ENE"},"type":"Feature","geometry":{"type":"Point","coordinates":[-105.1717,40.0591]}},{"properties":{"elevation":"N/A","lon":-105.573,"zone":"CO001","time":"NA","snow":8.6,"date":"NA","precip":0.59,"id":"a6245t7erg9d","lat":39.794809,"station":"Idaho Springs 4.9 NW"},"type":"Feature","geometry":{"type":"Point","coordinates":[-105.573,39.794809]}},{"properties":{"elevation":"N/A","lon":-105.2403,"zone":"CO001","time":"NA","snow":8.5,"date":"NA","precip":1.0,"id":"a6245t1i1iw3","lat":39.9915,"station":"Boulder 1.9 SE"},"type":"Feature","geometry":{"type":"Point","coordinates":[-105.2403,39.9915]}},{"properties":{"elevation":"N/A","lon":-105.079923,"zone":"CO001","time":"NA","snow":8.5,"date":"NA","precip":0.82,"id":"a6245svi4ka7","lat":40.03737,"station":"Erie 1.9 WNW"},"type":"Feature","geometry":{"type":"Point","coordinates":[-105.079923,40.03737]}},{"properties":{"elevation":"N/A","lon":-105.0729374,"zone":"CO001","time":"NA","snow":8.5,"date":"NA","precip":0.75,"id":"a6245t9fz0o7","lat":40.0414439,"station":"Erie 1.7 WNW"},"type":"Feature","geometry":{"type":"Point","coordinates":[-105.0729374,40.0414439]}},{"properties":{"elevation":"N/A","lon":-105.3359,"zone":"CO001","time":"NA","snow":8.5,"date":"NA","precip":0.8,"id":"a6245t6xha6p","lat":39.5061,"station":"Conifer 2.1 WSW"},"type":"Feature","geometry":{"type":"Point","coordinates":[-105.3359,39.5061]}},{"properties":{"elevation":"N/A","lon":-105.1187,"zone":"CO001","time":"NA","snow":8.5,"date":"NA","precip":0.0,"id":"a6245sv7pw8z","lat":40.4174,"station":"Loveland 1.7 W"},"type":"Feature","geometry":{"type":"Point","coordinates":[-105.1187,40.4174]}},{"properties":{"elevation":"N/A","lon":-104.9843,"zone":"CO001","time":"NA","snow":8.5,"date":"NA","precip":0.98,"id":"a6245ta8xe1h","lat":40.4693,"station":"Fort Collins 10 SSE"},"type":"Feature","geometry":{"type":"Point","coordinates":[-104.9843,40.4693]}},{"properties":{"elevation":"N/A","lon":-105.088713,"zone":"CO001","time":"NA","snow":8.5,"date":"NA","precip":1.23,"id":"a6245t95db9i","lat":40.492728,"station":"Fort Collins 4.5 SSW"},"type":"Feature","geometry":{"type":"Point","coordinates":[-105.088713,40.492728]}},{"properties":{"elevation":"N/A","lon":-105.163285,"zone":"CO001","time":"NA","snow":8.5,"date":"NA","precip":0.68,"id":"a6245t0hwlqt","lat":40.386276,"station":"Loveland 5.3 WSW"},"type":"Feature","geometry":{"type":"Point","coordinates":[-105.163285,40.386276]}},{"properties":{"elevation":"N/A","lon":-105.100609,"zone":"CO001","time":"NA","snow":8.3,"date":"NA","precip":0.92,"id":"a6245sv5ag4b","lat":40.57192,"station":"Fort Collins 2.0 NW"},"type":"Feature","geometry":{"type":"Point","coordinates":[-105.100609,40.57192]}},{"properties":{"elevation":"N/A","lon":-105.015225,"zone":"CO001","time":"NA","snow":8.3,"date":"NA","precip":0.69,"id":"a6245suf2k2v","lat":40.172889,"station":"Longmont 5.1 E"},"type":"Feature","geometry":{"type":"Point","coordinates":[-105.015225,40.172889]}},{"properties":{"elevation":"N/A","lon":-104.926856,"zone":"CO001","time":"NA","snow":8.3,"date":"NA","precip":0.85,"id":"a6245szds8ug","lat":40.469931,"station":"Windsor 1.5 SW"},"type":"Feature","geometry":{"type":"Point","coordinates":[-104.926856,40.469931]}},{"properties":{"elevation":"N/A","lon":-105.49,"zone":"CO001","time":"NA","snow":8.3,"date":"NA","precip":null,"id":"a6245sym2vfl","lat":39.74,"station":"1 E IDAHO SPRINGS"},"type":"Feature","geometry":{"type":"Point","coordinates":[-105.49,39.74]}},{"properties":{"elevation":"N/A","lon":-105.1289,"zone":"CO001","time":"NA","snow":8.2,"date":"NA","precip":0.94,"id":"a6245t7rout5","lat":40.5538,"station":"Fort Collins 2.8 WSW"},"type":"Feature","geometry":{"type":"Point","coordinates":[-105.1289,40.5538]}},{"properties":{"elevation":"N/A","lon":-105.104276,"zone":"CO001","time":"NA","snow":8.1,"date":"NA","precip":0.79,"id":"a6245t9azjlq","lat":40.520824,"station":"Fort Collins 3.0 SW"},"type":"Feature","geometry":{"type":"Point","coordinates":[-105.104276,40.520824]}},{"properties":{"elevation":"N/A","lon":-105.07,"zone":"CO001","time":"NA","snow":8.1,"date":"NA","precip":null,"id":"a6245sxm6ga2","lat":40.5,"station":"4 S FORT COLLINS"},"type":"Feature","geometry":{"type":"Point","coordinates":[-105.07,40.5]}},{"properties":{"elevation":"N/A","lon":-105.2147,"zone":"CO001","time":"NA","snow":8.0,"date":"NA","precip":0.87,"id":"a6245svab2zj","lat":39.9638,"station":"Boulder 5 SE"},"type":"Feature","geometry":{"type":"Point","coordinates":[-105.2147,39.9638]}},{"properties":{"elevation":"N/A","lon":-105.1152,"zone":"CO001","time":"NA","snow":8.0,"date":"NA","precip":0.99,"id":"a6245sua2vgg","lat":40.5993,"station":"FCL 2.2 NW"},"type":"Feature","geometry":{"type":"Point","coordinates":[-105.1152,40.5993]}},{"properties":{"elevation":"N/A","lon":-105.1175,"zone":"CO001","time":"NA","snow":8.0,"date":"NA","precip":0.85,"id":"a6245suz4o03","lat":40.5999,"station":"FCL 2.3 NW"},"type":"Feature","geometry":{"type":"Point","coordinates":[-105.1175,40.5999]}},{"properties":{"elevation":"N/A","lon":-105.077312,"zone":"CO001","time":"NA","snow":8.0,"date":"NA","precip":0.57,"id":"a6245t8izui1","lat":40.321726,"station":"Berthoud 1.1 N"},"type":"Feature","geometry":{"type":"Point","coordinates":[-105.077312,40.321726]}},{"properties":{"elevation":"N/A","lon":-105.09352,"zone":"CO001","time":"NA","snow":8.0,"date":"NA","precip":0.95,"id":"a6245t040wdf","lat":40.53728,"station":"Fort Collins 1.8 SW"},"type":"Feature","geometry":{"type":"Point","coordinates":[-105.09352,40.53728]}},{"properties":{"elevation":"N/A","lon":-105.143731,"zone":"CO001","time":"NA","snow":8.0,"date":"NA","precip":0.0,"id":"a6245t0ximqg","lat":40.627302,"station":"Laporte 0.3 WNW"},"type":"Feature","geometry":{"type":"Point","coordinates":[-105.143731,40.627302]}},{"properties":{"elevation":"N/A","lon":-105.086279,"zone":"CO001","time":"NA","snow":8.0,"date":"NA","precip":0.85,"id":"a6245t22sng6","lat":40.587174,"station":"Fort Collins 2.4 NNW"},"type":"Feature","geometry":{"type":"Point","coordinates":[-105.086279,40.587174]}},{"properties":{"elevation":"N/A","lon":-105.448226,"zone":"CO001","time":"NA","snow":8.0,"date":"NA","precip":0.6,"id":"a6245sxvv0mj","lat":40.736741,"station":"Livermore 12.1 WSW"},"type":"Feature","geometry":{"type":"Point","coordinates":[-105.448226,40.736741]}},{"properties":{"elevation":"N/A","lon":-102.990556,"zone":"CO001","time":"NA","snow":8.0,"date":"NA","precip":0.9,"id":"a6245t89t14a","lat":40.514722,"station":"Sterling 15 SE"},"type":"Feature","geometry":{"type":"Point","coordinates":[-102.990556,40.514722]}},{"properties":{"elevation":"N/A","lon":-104.5823,"zone":"CO001","time":"NA","snow":8.0,"date":"NA","precip":0.73,"id":"a6245t3h5pkp","lat":40.4282,"station":"Greeley 6.6 E"},"type":"Feature","geometry":{"type":"Point","coordinates":[-104.5823,40.4282]}},{"properties":{"elevation":"N/A","lon":-104.8592,"zone":"CO001","time":"NA","snow":8.0,"date":"NA","precip":0.95,"id":"a6245sw3k3vz","lat":40.424,"station":"GLY 9.0 NW"},"type":"Feature","geometry":{"type":"Point","coordinates":[-104.8592,40.424]}},{"properties":{"elevation":"N/A","lon":-104.8564289,"zone":"CO001","time":"NA","snow":8.0,"date":"NA","precip":0.7,"id":"a6245t1j5qoz","lat":40.51518976,"station":"Severance 0.6 SW"},"type":"Feature","geometry":{"type":"Point","coordinates":[-104.8564289,40.51518976]}},{"properties":{"elevation":"N/A","lon":-105.074949,"zone":"CO001","time":"NA","snow":7.9,"date":"NA","precip":0.67,"id":"a6245szfdj9l","lat":40.859154,"station":"Buckeye 4.7 NNE"},"type":"Feature","geometry":{"type":"Point","coordinates":[-105.074949,40.859154]}},{"properties":{"elevation":"N/A","lon":-105.9453,"zone":"CO001","time":"NA","snow":7.8,"date":"NA","precip":1.43,"id":"a6245t1utg0u","lat":40.0879,"station":"Granby .33 WNW"},"type":"Feature","geometry":{"type":"Point","coordinates":[-105.9453,40.0879]}},{"properties":{"elevation":"N/A","lon":-105.3609,"zone":"CO001","time":"NA","snow":7.8,"date":"NA","precip":0.64,"id":"a6245syd40wh","lat":39.509,"station":"Conifer 3 WSW"},"type":"Feature","geometry":{"type":"Point","coordinates":[-105.3609,39.509]}},{"properties":{"elevation":"N/A","lon":-105.0649,"zone":"CO001","time":"NA","snow":7.8,"date":"NA","precip":0.88,"id":"a6245t1wmota","lat":40.624,"station":"FCL 3.1 NE"},"type":"Feature","geometry":{"type":"Point","coordinates":[-105.0649,40.624]}},{"properties":{"elevation":"N/A","lon":-105.048,"zone":"CO001","time":"NA","snow":7.8,"date":"NA","precip":0.79,"id":"a6245t9woyu4","lat":40.3885,"station":"Loveland 2.4 SSE"},"type":"Feature","geometry":{"type":"Point","coordinates":[-105.048,40.3885]}},{"properties":{"elevation":"N/A","lon":-105.1194,"zone":"CO001","time":"NA","snow":7.7,"date":"NA","precip":0.84,"id":"a6245su76ljk","lat":40.5287,"station":"Fort Collins 3.7 SW"},"type":"Feature","geometry":{"type":"Point","coordinates":[-105.1194,40.5287]}},{"properties":{"elevation":"N/A","lon":-105.1489,"zone":"CO001","time":"NA","snow":7.7,"date":"NA","precip":0.0,"id":"a6245t2j5bj9","lat":40.5874,"station":"FCL 3.0 W"},"type":"Feature","geometry":{"type":"Point","coordinates":[-105.1489,40.5874]}},{"properties":{"elevation":"N/A","lon":-105.073769,"zone":"CO001","time":"NA","snow":7.7,"date":"NA","precip":0.89,"id":"a6245t3fwmhk","lat":40.563599,"station":"Fort Collins 0.6 NNW"},"type":"Feature","geometry":{"type":"Point","coordinates":[-105.073769,40.563599]}},{"properties":{"elevation":"N/A","lon":-105.2647,"zone":"CO001","time":"NA","snow":7.6,"date":"NA","precip":0.0,"id":"a6245syowmk6","lat":39.9922,"station":"Boulder 1.6 S"},"type":"Feature","geometry":{"type":"Point","coordinates":[-105.2647,39.9922]}},{"properties":{"elevation":"N/A","lon":-104.963004,"zone":"CO001","time":"NA","snow":7.6,"date":"NA","precip":0.9,"id":"a6245sx7hgii","lat":40.587251,"station":"Timnath 4.1 NNE"},"type":"Feature","geometry":{"type":"Point","coordinates":[-104.963004,40.587251]}},{"properties":{"elevation":"N/A","lon":-105.1086,"zone":"CO001","time":"NA","snow":7.6,"date":"NA","precip":0.93,"id":"a6245t8k9x0l","lat":40.557,"station":"FCL 1.7 SW"},"type":"Feature","geometry":{"type":"Point","coordinates":[-105.1086,40.557]}},{"properties":{"elevation":"N/A","lon":-106.049159,"zone":"CO001","time":"NA","snow":7.6,"date":"NA","precip":0.91,"id":"a6245t8ccgwo","lat":39.627707,"station":"Dillon 0.6 WNW"},"type":"Feature","geometry":{"type":"Point","coordinates":[-106.049159,39.627707]}},{"properties":{"elevation":"N/A","lon":-105.2505,"zone":"CO001","time":"NA","snow":7.5,"date":"NA","precip":1.09,"id":"a6245t7kol25","lat":39.9707,"station":"Boulder 3.5 S"},"type":"Feature","geometry":{"type":"Point","coordinates":[-105.2505,39.9707]}},{"properties":{"elevation":"N/A","lon":-105.39681,"zone":"CO001","time":"NA","snow":7.5,"date":"NA","precip":0.75,"id":"a6245t2vjkij","lat":39.97141,"station":"Nederland 5.8 E"},"type":"Feature","geometry":{"type":"Point","coordinates":[-105.39681,39.97141]}},{"properties":{"elevation":"N/A","lon":-105.2463,"zone":"CO001","time":"NA","snow":7.5,"date":"NA","precip":0.94,"id":"a6245syf85y1","lat":40.032633,"station":"Boulder 0.5 NNE"},"type":"Feature","geometry":{"type":"Point","coordinates":[-105.2463,40.032633]}},{"properties":{"elevation":"N/A","lon":-105.36718,"zone":"CO001","time":"NA","snow":7.5,"date":"NA","precip":0.9,"id":"a6245syzp1gf","lat":39.585371,"station":"Evergreen 3.6 SSW"},"type":"Feature","geometry":{"type":"Point","coordinates":[-105.36718,39.585371]}},{"properties":{"elevation":"N/A","lon":-105.0682,"zone":"CO001","time":"NA","snow":7.5,"date":"NA","precip":0.86,"id":"a6245t77i5ti","lat":40.5691,"station":"Fort Collins 0.9 SE"},"type":"Feature","geometry":{"type":"Point","coordinates":[-105.0682,40.5691]}},{"properties":{"elevation":"N/A","lon":-105.16368,"zone":"CO001","time":"NA","snow":7.5,"date":"NA","precip":0.0,"id":"a6245t68x8yk","lat":40.26324,"station":"Berthoud 5.2 SW"},"type":"Feature","geometry":{"type":"Point","coordinates":[-105.16368,40.26324]}},{"properties":{"elevation":"N/A","lon":-105.081731,"zone":"CO001","time":"NA","snow":7.5,"date":"NA","precip":0.8,"id":"a6245t1epv1q","lat":40.63743,"station":"Fort Collins 5.4 N"},"type":"Feature","geometry":{"type":"Point","coordinates":[-105.081731,40.63743]}},{"properties":{"elevation":"N/A","lon":-105.125591,"zone":"CO001","time":"NA","snow":7.5,"date":"NA","precip":0.88,"id":"a6245t87xdbv","lat":40.565781,"station":"Fort Collins 3.1 WNW"},"type":"Feature","geometry":{"type":"Point","coordinates":[-105.125591,40.565781]}},{"properties":{"elevation":"N/A","lon":-104.759537,"zone":"CO001","time":"NA","snow":7.5,"date":"NA","precip":1.1,"id":"a6245t00anv9","lat":40.710576,"station":"Nunn 1.2 ENE"},"type":"Feature","geometry":{"type":"Point","coordinates":[-104.759537,40.710576]}},{"properties":{"elevation":"N/A","lon":-104.96,"zone":"CO001","time":"NA","snow":7.5,"date":"NA","precip":null,"id":"a6245svp407o","lat":40.12,"station":"2 NW FREDERICK"},"type":"Feature","geometry":{"type":"Point","coordinates":[-104.96,40.12]}},{"properties":{"elevation":"N/A","lon":-105.07,"zone":"CO001","time":"NA","snow":7.4,"date":"NA","precip":0.88,"id":"a6245szkvggq","lat":40.569,"station":"Fort Collins 0.9 N"},"type":"Feature","geometry":{"type":"Point","coordinates":[-105.07,40.569]}},{"properties":{"elevation":"N/A","lon":-105.2576,"zone":"CO001","time":"NA","snow":7.3,"date":"NA","precip":0.87,"id":"a6245t29zwia","lat":39.977,"station":"Boulder 3.5 S"},"type":"Feature","geometry":{"type":"Point","coordinates":[-105.2576,39.977]}},{"properties":{"elevation":"N/A","lon":-105.1006,"zone":"CO001","time":"NA","snow":7.3,"date":"NA","precip":0.48,"id":"a6245sutvprk","lat":40.365,"station":"LOV 3.4 S"},"type":"Feature","geometry":{"type":"Point","coordinates":[-105.1006,40.365]}},{"properties":{"elevation":"N/A","lon":-105.1587,"zone":"CO001","time":"NA","snow":7.3,"date":"NA","precip":1.01,"id":"a6245suuev9m","lat":40.3926,"station":"LOV 4.0 W"},"type":"Feature","geometry":{"type":"Point","coordinates":[-105.1587,40.3926]}},{"properties":{"elevation":"N/A","lon":-105.068025,"zone":"CO001","time":"NA","snow":7.3,"date":"NA","precip":0.76,"id":"a6245t9frhuo","lat":40.502249,"station":"Fort Collins 3.7 S"},"type":"Feature","geometry":{"type":"Point","coordinates":[-105.068025,40.502249]}},{"properties":{"elevation":"N/A","lon":-105.238,"zone":"CO001","time":"NA","snow":7.2,"date":"NA","precip":1.02,"id":"a6245t07zdyo","lat":39.9735,"station":"Boulder 3.3 SE"},"type":"Feature","geometry":{"type":"Point","coordinates":[-105.238,39.9735]}},{"properties":{"elevation":"N/A","lon":-105.0849,"zone":"CO001","time":"NA","snow":7.2,"date":"NA","precip":0.72,"id":"a6245szfrgnk","lat":40.4351,"station":"Loveland 1.5 N"},"type":"Feature","geometry":{"type":"Point","coordinates":[-105.0849,40.4351]}},{"properties":{"elevation":"N/A","lon":-105.0634,"zone":"CO001","time":"NA","snow":7.2,"date":"NA","precip":0.92,"id":"a6245t973nj5","lat":40.6068,"station":"FCL 2.55 NE"},"type":"Feature","geometry":{"type":"Point","coordinates":[-105.0634,40.6068]}},{"properties":{"elevation":"N/A","lon":-105.4128,"zone":"CO001","time":"NA","snow":7.1,"date":"NA","precip":0.76,"id":"a6245suw10yn","lat":39.6391,"station":"Evergreen 5 W"},"type":"Feature","geometry":{"type":"Point","coordinates":[-105.4128,39.6391]}},{"properties":{"elevation":"N/A","lon":-106.5441,"zone":"CO001","time":"NA","snow":7.1,"date":"NA","precip":0.63,"id":"a6245sv6gszs","lat":40.1625,"station":"Kremmling 10.9 NW"},"type":"Feature","geometry":{"type":"Point","coordinates":[-106.5441,40.1625]}},{"properties":{"elevation":"N/A","lon":-105.062448,"zone":"CO001","time":"NA","snow":7.1,"date":"NA","precip":1.26,"id":"a6245t1h9z8z","lat":40.509671,"station":"Fort Collins 3.2 S"},"type":"Feature","geometry":{"type":"Point","coordinates":[-105.062448,40.509671]}},{"properties":{"elevation":"N/A","lon":-105.2573,"zone":"CO001","time":"NA","snow":7.0,"date":"NA","precip":1.02,"id":"a6245t6ys49z","lat":39.9941,"station":"Boulder 2.9 S"},"type":"Feature","geometry":{"type":"Point","coordinates":[-105.2573,39.9941]}},{"properties":{"elevation":"N/A","lon":-105.2689,"zone":"CO001","time":"NA","snow":7.0,"date":"NA","precip":0.88,"id":"a6245sze3gr5","lat":40.0242,"station":"Boulder 1.3 NW"},"type":"Feature","geometry":{"type":"Point","coordinates":[-105.2689,40.0242]}},{"properties":{"elevation":"N/A","lon":-105.091588,"zone":"CO001","time":"NA","snow":7.0,"date":"NA","precip":1.07,"id":"a6245t15udmd","lat":39.93382,"station":"Broomfield 1.7 WSW"},"type":"Feature","geometry":{"type":"Point","coordinates":[-105.091588,39.93382]}},{"properties":{"elevation":"N/A","lon":-105.2793,"zone":"CO001","time":"NA","snow":7.0,"date":"NA","precip":0.91,"id":"a6245sx9jsoh","lat":39.6183,"station":"Kittredge 2.5 SSE"},"type":"Feature","geometry":{"type":"Point","coordinates":[-105.2793,39.6183]}},{"properties":{"elevation":"N/A","lon":-105.0643,"zone":"CO001","time":"NA","snow":7.0,"date":"NA","precip":1.2,"id":"a6245syditfj","lat":40.5562,"station":"FCL 1.7 SE"},"type":"Feature","geometry":{"type":"Point","coordinates":[-105.0643,40.5562]}},{"properties":{"elevation":"N/A","lon":-105.1162,"zone":"CO001","time":"NA","snow":7.0,"date":"NA","precip":0.55,"id":"a6245t5dfsnp","lat":40.4262,"station":"LOV 1.8 NW"},"type":"Feature","geometry":{"type":"Point","coordinates":[-105.1162,40.4262]}},{"properties":{"elevation":"N/A","lon":-105.0433,"zone":"CO001","time":"NA","snow":7.0,"date":"NA","precip":0.82,"id":"a6245tafrzxl","lat":40.4113,"station":"Loveland 1.9 ENE"},"type":"Feature","geometry":{"type":"Point","coordinates":[-105.0433,40.4113]}},{"properties":{"elevation":"N/A","lon":-105.0253,"zone":"CO001","time":"NA","snow":7.0,"date":"NA","precip":0.8,"id":"a6245t347fsi","lat":40.5321,"station":"Fort Collins 4.8 SE"},"type":"Feature","geometry":{"type":"Point","coordinates":[-105.0253,40.5321]}},{"properties":{"elevation":"N/A","lon":-105.106742,"zone":"CO001","time":"NA","snow":7.0,"date":"NA","precip":0.55,"id":"a6245svwwlvm","lat":40.441995,"station":"Loveland 2.4 NW"},"type":"Feature","geometry":{"type":"Point","coordinates":[-105.106742,40.441995]}},{"properties":{"elevation":"N/A","lon":-105.104804,"zone":"CO001","time":"NA","snow":7.0,"date":"NA","precip":0.8,"id":"a6245t2gzi1k","lat":40.415171,"station":"Loveland 1.8 W"},"type":"Feature","geometry":{"type":"Point","coordinates":[-105.104804,40.415171]}},{"properties":{"elevation":"N/A","lon":-105.123194,"zone":"CO001","time":"NA","snow":7.0,"date":"NA","precip":0.88,"id":"a6245t3ff4j0","lat":40.524306,"station":"Fort Collins 3.6 SW"},"type":"Feature","geometry":{"type":"Point","coordinates":[-105.123194,40.524306]}},{"properties":{"elevation":"N/A","lon":-105.06372,"zone":"CO001","time":"NA","snow":7.0,"date":"NA","precip":0.86,"id":"a6245t0e13e3","lat":40.62147,"station":"Fort Collins 4.6 N"},"type":"Feature","geometry":{"type":"Point","coordinates":[-105.06372,40.62147]}},{"properties":{"elevation":"N/A","lon":-105.0731,"zone":"CO001","time":"NA","snow":7.0,"date":"NA","precip":0.79,"id":"a6245t2sfu6w","lat":40.54603,"station":"Fort Collins 0.7 SSW"},"type":"Feature","geometry":{"type":"Point","coordinates":[-105.0731,40.54603]}},{"properties":{"elevation":"N/A","lon":-105.05144,"zone":"CO001","time":"NA","snow":7.0,"date":"NA","precip":0.72,"id":"a6245swz635h","lat":40.504527,"station":"Fort Collins 4.5 SSE"},"type":"Feature","geometry":{"type":"Point","coordinates":[-105.05144,40.504527]}},{"properties":{"elevation":"N/A","lon":-105.054233,"zone":"CO001","time":"NA","snow":7.0,"date":"NA","precip":0.77,"id":"a6245szmxd0f","lat":40.543009,"station":"Fort Collins 1.1 SE"},"type":"Feature","geometry":{"type":"Point","coordinates":[-105.054233,40.543009]}},{"properties":{"elevation":"N/A","lon":-106.0959,"zone":"CO001","time":"NA","snow":7.0,"date":"NA","precip":0.76,"id":"a6245sveqlss","lat":39.5823,"station":"Frisco 0.5 N"},"type":"Feature","geometry":{"type":"Point","coordinates":[-106.0959,39.5823]}},{"properties":{"elevation":"N/A","lon":-103.07,"zone":"CO001","time":"NA","snow":7.0,"date":"NA","precip":null,"id":"a6245svosi9l","lat":40.76,"station":"NNW ILIFF"},"type":"Feature","geometry":{"type":"Point","coordinates":[-103.07,40.76]}},{"properties":{"elevation":"N/A","lon":-105.1715,"zone":"CO001","time":"NA","snow":6.9,"date":"NA","precip":0.0,"id":"a6245t23938z","lat":40.0046,"station":"Boulder 4.6 E"},"type":"Feature","geometry":{"type":"Point","coordinates":[-105.1715,40.0046]}},{"properties":{"elevation":"N/A","lon":-105.40679,"zone":"CO001","time":"NA","snow":6.9,"date":"NA","precip":0.64,"id":"a6245swbihp7","lat":39.639679,"station":"Evergreen 3.5 W"},"type":"Feature","geometry":{"type":"Point","coordinates":[-105.40679,39.639679]}},{"properties":{"elevation":"N/A","lon":-105.1266,"zone":"CO001","time":"NA","snow":6.9,"date":"NA","precip":0.62,"id":"a6245suk77xo","lat":40.43467,"station":"Loveland 3.1 WNW"},"type":"Feature","geometry":{"type":"Point","coordinates":[-105.1266,40.43467]}},{"properties":{"elevation":"N/A","lon":-105.07,"zone":"CO001","time":"NA","snow":6.9,"date":"NA","precip":null,"id":"a6245t3ydyvc","lat":39.87,"station":"1 SW WESTMINSTER"},"type":"Feature","geometry":{"type":"Point","coordinates":[-105.07,39.87]}},{"properties":{"elevation":"N/A","lon":-105.1703,"zone":"CO001","time":"NA","snow":6.8,"date":"NA","precip":1.06,"id":"a6245t6wmggy","lat":39.9873,"station":"Boulder 5.4 ESE"},"type":"Feature","geometry":{"type":"Point","coordinates":[-105.1703,39.9873]}},{"properties":{"elevation":"N/A","lon":-106.6071,"zone":"CO001","time":"NA","snow":6.8,"date":"NA","precip":0.58,"id":"a6245t9ikzyx","lat":40.9484,"station":"Cowdrey 16.5 WNW"},"type":"Feature","geometry":{"type":"Point","coordinates":[-106.6071,40.9484]}},{"properties":{"elevation":"N/A","lon":-105.104,"zone":"CO001","time":"NA","snow":6.8,"date":"NA","precip":0.8,"id":"a6245sw5igd6","lat":40.442,"station":"Loveland 2.3 NW"},"type":"Feature","geometry":{"type":"Point","coordinates":[-105.104,40.442]}},{"properties":{"elevation":"N/A","lon":-106.89294,"zone":"CO001","time":"NA","snow":6.8,"date":"NA","precip":0.67,"id":"a6245sy6lzm2","lat":40.080642,"station":"Yampa 5.1 S"},"type":"Feature","geometry":{"type":"Point","coordinates":[-106.89294,40.080642]}},{"properties":{"elevation":"N/A","lon":-105.0845,"zone":"CO001","time":"NA","snow":6.7,"date":"NA","precip":1.08,"id":"a6245t1uiidx","lat":39.935,"station":"Broomfield 1.2 NE"},"type":"Feature","geometry":{"type":"Point","coordinates":[-105.0845,39.935]}},{"properties":{"elevation":"N/A","lon":-105.2382,"zone":"CO001","time":"NA","snow":6.7,"date":"NA","precip":1.0,"id":"a6245t56te59","lat":39.7664,"station":"Golden 1.2 NW"},"type":"Feature","geometry":{"type":"Point","coordinates":[-105.2382,39.7664]}},{"properties":{"elevation":"N/A","lon":-105.2297,"zone":"CO001","time":"NA","snow":6.7,"date":"NA","precip":0.93,"id":"a6245t69q28q","lat":39.7611,"station":"Golden 0.7 NW"},"type":"Feature","geometry":{"type":"Point","coordinates":[-105.2297,39.7611]}},{"properties":{"elevation":"N/A","lon":-105.2758,"zone":"CO001","time":"NA","snow":6.7,"date":"NA","precip":0.55,"id":"a6245t6p8c51","lat":39.8641,"station":"Ralston Buttes 1.1 NNW"},"type":"Feature","geometry":{"type":"Point","coordinates":[-105.2758,39.8641]}},{"properties":{"elevation":"N/A","lon":-105.152,"zone":"CO001","time":"NA","snow":6.6,"date":"NA","precip":0.87,"id":"a6245t542l4n","lat":39.9742,"station":"Boulder 6.8 SE"},"type":"Feature","geometry":{"type":"Point","coordinates":[-105.152,39.9742]}},{"properties":{"elevation":"N/A","lon":-105.8964,"zone":"CO001","time":"NA","snow":6.6,"date":"NA","precip":0.69,"id":"a6245t4lm5wc","lat":40.1715,"station":"Granby 6.3 NNE"},"type":"Feature","geometry":{"type":"Point","coordinates":[-105.8964,40.1715]}},{"properties":{"elevation":"N/A","lon":-105.134971,"zone":"CO001","time":"NA","snow":6.5,"date":"NA","precip":0.76,"id":"a6245swnvbqh","lat":40.0168,"station":"Lafayette 2.5 NW"},"type":"Feature","geometry":{"type":"Point","coordinates":[-105.134971,40.0168]}},{"properties":{"elevation":"N/A","lon":-105.148541,"zone":"CO001","time":"NA","snow":6.5,"date":"NA","precip":1.02,"id":"a6245sy03a3b","lat":39.924285,"station":"Superior 0.5 SE"},"type":"Feature","geometry":{"type":"Point","coordinates":[-105.148541,39.924285]}},{"properties":{"elevation":"N/A","lon":-105.108266,"zone":"CO001","time":"NA","snow":6.5,"date":"NA","precip":1.04,"id":"a6245t7a9yd7","lat":39.930679,"station":"Superior 2.5 E"},"type":"Feature","geometry":{"type":"Point","coordinates":[-105.108266,39.930679]}},{"properties":{"elevation":"N/A","lon":-104.951195,"zone":"CO001","time":"NA","snow":6.5,"date":"NA","precip":0.66,"id":"a6245szyhkmq","lat":39.699867,"station":"Denver 2.0 SSE"},"type":"Feature","geometry":{"type":"Point","coordinates":[-104.951195,39.699867]}},{"properties":{"elevation":"N/A","lon":-105.2273,"zone":"CO001","time":"NA","snow":6.5,"date":"NA","precip":0.73,"id":"a6245t70rb1i","lat":39.5346,"station":"Conifer 4.2 ENE"},"type":"Feature","geometry":{"type":"Point","coordinates":[-105.2273,39.5346]}},{"properties":{"elevation":"N/A","lon":-105.3565,"zone":"CO001","time":"NA","snow":6.5,"date":"NA","precip":0.77,"id":"a6245su5hh2a","lat":39.70819,"station":"Bergen Park 1.1 N"},"type":"Feature","geometry":{"type":"Point","coordinates":[-105.3565,39.70819]}},{"properties":{"elevation":"N/A","lon":-105.4052,"zone":"CO001","time":"NA","snow":6.5,"date":"NA","precip":0.76,"id":"a6245sw41hx5","lat":40.7335,"station":"Livermore 8.5 WSW"},"type":"Feature","geometry":{"type":"Point","coordinates":[-105.4052,40.7335]}},{"properties":{"elevation":"N/A","lon":-104.8781,"zone":"CO001","time":"NA","snow":6.5,"date":"NA","precip":0.19,"id":"a6245swd6mhe","lat":40.8877,"station":"Carr 0.6 S"},"type":"Feature","geometry":{"type":"Point","coordinates":[-104.8781,40.8877]}},{"properties":{"elevation":"N/A","lon":-105.0293,"zone":"CO001","time":"NA","snow":6.5,"date":"NA","precip":0.95,"id":"a6245swfnw0r","lat":40.0679,"station":"Erie 1.6 NE"},"type":"Feature","geometry":{"type":"Point","coordinates":[-105.0293,40.0679]}},{"properties":{"elevation":"N/A","lon":-105.07,"zone":"CO001","time":"NA","snow":6.5,"date":"NA","precip":null,"id":"a6245t93a279","lat":40.42,"station":"LOVELAND"},"type":"Feature","geometry":{"type":"Point","coordinates":[-105.07,40.42]}},{"properties":{"elevation":"N/A","lon":-103.624,"zone":"CO001","time":"NA","snow":6.4,"date":"NA","precip":0.76,"id":"a6245t7ezqe9","lat":40.2469,"station":"Brush 0.8 S"},"type":"Feature","geometry":{"type":"Point","coordinates":[-103.624,40.2469]}},{"properties":{"elevation":"N/A","lon":-105.1287757,"zone":"CO001","time":"NA","snow":6.2,"date":"NA","precip":0.77,"id":"a6245t2tvdc6","lat":40.0176745,"station":"Lafayette 2.3 NW"},"type":"Feature","geometry":{"type":"Point","coordinates":[-105.1287757,40.0176745]}},{"properties":{"elevation":"N/A","lon":-105.1114,"zone":"CO001","time":"NA","snow":6.2,"date":"NA","precip":0.91,"id":"a6245t9a5bng","lat":40.4154,"station":"LOV 1.2 W"},"type":"Feature","geometry":{"type":"Point","coordinates":[-105.1114,40.4154]}},{"properties":{"elevation":"N/A","lon":-105.136721,"zone":"CO001","time":"NA","snow":6.1,"date":"NA","precip":0.65,"id":"a6245swlx52l","lat":39.67736,"station":"Lakewood 1.7 SW"},"type":"Feature","geometry":{"type":"Point","coordinates":[-105.136721,39.67736]}},{"properties":{"elevation":"N/A","lon":-105.24333,"zone":"CO001","time":"NA","snow":6.0,"date":"NA","precip":0.0,"id":"a6245t4u21f0","lat":39.983755,"station":"Boulder 3.0 S"},"type":"Feature","geometry":{"type":"Point","coordinates":[-105.24333,39.983755]}},{"properties":{"elevation":"N/A","lon":-105.032886,"zone":"CO001","time":"NA","snow":6.0,"date":"NA","precip":0.83,"id":"a6245svxic4g","lat":39.951348,"station":"Broomfield 1.6 ENE"},"type":"Feature","geometry":{"type":"Point","coordinates":[-105.032886,39.951348]}},{"properties":{"elevation":"N/A","lon":-106.5171,"zone":"CO001","time":"NA","snow":6.0,"date":"NA","precip":0.46,"id":"a6245sw9ley5","lat":40.1165,"station":"Kremmling 7.8 WNW"},"type":"Feature","geometry":{"type":"Point","coordinates":[-106.5171,40.1165]}},{"properties":{"elevation":"N/A","lon":-107.190612,"zone":"CO001","time":"NA","snow":6.0,"date":"NA","precip":1.43,"id":"a6245t1ricpu","lat":39.07911,"station":"Marble 0.5 NNW"},"type":"Feature","geometry":{"type":"Point","coordinates":[-107.190612,39.07911]}},{"properties":{"elevation":"N/A","lon":-105.0985,"zone":"CO001","time":"NA","snow":6.0,"date":"NA","precip":0.68,"id":"a6245t7nj8ok","lat":39.7005,"station":"Denver 6.1 WSW"},"type":"Feature","geometry":{"type":"Point","coordinates":[-105.0985,39.7005]}},{"properties":{"elevation":"N/A","lon":-105.364565,"zone":"CO001","time":"NA","snow":6.0,"date":"NA","precip":0.64,"id":"a6245szrnq5g","lat":39.461902,"station":"Pine 3.4 NNW"},"type":"Feature","geometry":{"type":"Point","coordinates":[-105.364565,39.461902]}},{"properties":{"elevation":"N/A","lon":-105.083214,"zone":"CO001","time":"NA","snow":6.0,"date":"NA","precip":0.77,"id":"a6245t7nyhvw","lat":39.752518,"station":"Lakewood 4.3 NNE"},"type":"Feature","geometry":{"type":"Point","coordinates":[-105.083214,39.752518]}},{"properties":{"elevation":"N/A","lon":-103.6516,"zone":"CO001","time":"NA","snow":6.0,"date":"NA","precip":0.84,"id":"a6245t8d7q80","lat":40.2581,"station":"Brush 1.5 W"},"type":"Feature","geometry":{"type":"Point","coordinates":[-103.6516,40.2581]}},{"properties":{"elevation":"N/A","lon":-103.54646,"zone":"CO001","time":"NA","snow":6.0,"date":"NA","precip":0.8,"id":"a6245t5oon3k","lat":40.29305,"station":"Hillrose 2.5 SSW"},"type":"Feature","geometry":{"type":"Point","coordinates":[-103.54646,40.29305]}},{"properties":{"elevation":"N/A","lon":-105.07429,"zone":"CO001","time":"NA","snow":5.9,"date":"NA","precip":1.09,"id":"a6245t44sqib","lat":39.927074,"station":"Broomfield 1.3 SSW"},"type":"Feature","geometry":{"type":"Point","coordinates":[-105.07429,39.927074]}},{"properties":{"elevation":"N/A","lon":-105.1049,"zone":"CO001","time":"NA","snow":5.6,"date":"NA","precip":0.71,"id":"a6245t2l8inl","lat":39.9917,"station":"Lafayette 0.4 WSW"},"type":"Feature","geometry":{"type":"Point","coordinates":[-105.1049,39.9917]}},{"properties":{"elevation":"N/A","lon":-105.098,"zone":"CO001","time":"NA","snow":5.6,"date":"NA","precip":0.71,"id":"a6245t4ug6ju","lat":39.9914,"station":"Lafayette 0.2 S"},"type":"Feature","geometry":{"type":"Point","coordinates":[-105.098,39.9914]}},{"properties":{"elevation":"N/A","lon":-105.308,"zone":"CO001","time":"NA","snow":5.6,"date":"NA","precip":0.55,"id":"a6245t2gcssk","lat":39.5677,"station":"Evergreen 4.6 S"},"type":"Feature","geometry":{"type":"Point","coordinates":[-105.308,39.5677]}},{"properties":{"elevation":"N/A","lon":-104.8690079,"zone":"CO001","time":"NA","snow":5.5,"date":"NA","precip":0.0,"id":"a6245t4lcizl","lat":39.616672,"station":"Greenwood Village 2.4 E"},"type":"Feature","geometry":{"type":"Point","coordinates":[-104.8690079,39.616672]}},{"properties":{"elevation":"N/A","lon":-105.11106,"zone":"CO001","time":"NA","snow":5.5,"date":"NA","precip":0.85,"id":"a6245t63lipg","lat":39.989316,"station":"Lafayette 0.8 WSW"},"type":"Feature","geometry":{"type":"Point","coordinates":[-105.11106,39.989316]}},{"properties":{"elevation":"N/A","lon":-105.316625,"zone":"CO001","time":"NA","snow":5.5,"date":"NA","precip":0.4,"id":"a6245t0njni5","lat":38.108569,"station":"Westcliffe 8.2 ESE"},"type":"Feature","geometry":{"type":"Point","coordinates":[-105.316625,38.108569]}},{"properties":{"elevation":"N/A","lon":-104.9194,"zone":"CO001","time":"NA","snow":5.5,"date":"NA","precip":0.69,"id":"a6245t80oxbh","lat":39.2123,"station":"Larkspur 2.0 SW"},"type":"Feature","geometry":{"type":"Point","coordinates":[-104.9194,39.2123]}},{"properties":{"elevation":"N/A","lon":-105.363,"zone":"CO001","time":"NA","snow":5.5,"date":"NA","precip":0.81,"id":"a6245t6iabf4","lat":39.5439,"station":"Conifer 3.4 WNW"},"type":"Feature","geometry":{"type":"Point","coordinates":[-105.363,39.5439]}},{"properties":{"elevation":"N/A","lon":-105.1448,"zone":"CO001","time":"NA","snow":5.5,"date":"NA","precip":0.5,"id":"a6245sxk5125","lat":39.6321,"station":"Morrison 2.9 ESE"},"type":"Feature","geometry":{"type":"Point","coordinates":[-105.1448,39.6321]}},{"properties":{"elevation":"N/A","lon":-105.3495,"zone":"CO001","time":"NA","snow":5.4,"date":"NA","precip":0.51,"id":"a6245t8f8rq3","lat":39.493,"station":"Conifer 3 SW"},"type":"Feature","geometry":{"type":"Point","coordinates":[-105.3495,39.493]}},{"properties":{"elevation":"N/A","lon":-105.1056,"zone":"CO001","time":"NA","snow":5.4,"date":"NA","precip":0.71,"id":"a6245szgz0ka","lat":39.8826,"station":"Broomfield 2.3 SSW"},"type":"Feature","geometry":{"type":"Point","coordinates":[-105.1056,39.8826]}},{"properties":{"elevation":"N/A","lon":-105.1315904,"zone":"CO001","time":"NA","snow":5.1,"date":"NA","precip":0.63,"id":"a6245t3p0pz1","lat":39.7562909,"station":"Lakewood 4.3 NNW"},"type":"Feature","geometry":{"type":"Point","coordinates":[-105.1315904,39.7562909]}},{"properties":{"elevation":"N/A","lon":-103.1851,"zone":"CO001","time":"NA","snow":5.1,"date":"NA","precip":0.63,"id":"a6245su6d7jg","lat":40.1766,"station":"Akron 1.9NE"},"type":"Feature","geometry":{"type":"Point","coordinates":[-103.1851,40.1766]}},{"properties":{"elevation":"N/A","lon":-104.8424,"zone":"CO001","time":"NA","snow":5.0,"date":"NA","precip":0.0,"id":"a6245t7r5de0","lat":39.9137,"station":"Thornton 7.5 ENE"},"type":"Feature","geometry":{"type":"Point","coordinates":[-104.8424,39.9137]}},{"properties":{"elevation":"N/A","lon":-104.991153,"zone":"CO001","time":"NA","snow":5.0,"date":"NA","precip":0.73,"id":"a6245t5sgn20","lat":39.898467,"station":"Northglenn 0.9 SW"},"type":"Feature","geometry":{"type":"Point","coordinates":[-104.991153,39.898467]}},{"properties":{"elevation":"N/A","lon":-104.868338,"zone":"CO001","time":"NA","snow":5.0,"date":"NA","precip":0.77,"id":"a6245su6ifa7","lat":39.971369,"station":"Brighton 4.0 WNW"},"type":"Feature","geometry":{"type":"Point","coordinates":[-104.868338,39.971369]}},{"properties":{"elevation":"N/A","lon":-104.9612,"zone":"CO001","time":"NA","snow":5.0,"date":"NA","precip":0.78,"id":"a6245swoix8b","lat":39.7364,"station":"Denver 1.3 E"},"type":"Feature","geometry":{"type":"Point","coordinates":[-104.9612,39.7364]}},{"properties":{"elevation":"N/A","lon":-105.926077,"zone":"CO001","time":"NA","snow":5.0,"date":"NA","precip":0.9,"id":"a6245t8cughw","lat":40.084827,"station":"Granby 0.6 ESE"},"type":"Feature","geometry":{"type":"Point","coordinates":[-105.926077,40.084827]}},{"properties":{"elevation":"N/A","lon":-105.1057,"zone":"CO001","time":"NA","snow":5.0,"date":"NA","precip":0.74,"id":"a6245sup3wuh","lat":39.8748,"station":"Denver 11.0 NW"},"type":"Feature","geometry":{"type":"Point","coordinates":[-105.1057,39.8748]}},{"properties":{"elevation":"N/A","lon":-105.0646,"zone":"CO001","time":"NA","snow":5.0,"date":"NA","precip":0.81,"id":"a6245t9xq4tg","lat":39.8947,"station":"Denver 11.4 NNW"},"type":"Feature","geometry":{"type":"Point","coordinates":[-105.0646,39.8947]}},{"properties":{"elevation":"N/A","lon":-105.0762,"zone":"CO001","time":"NA","snow":5.0,"date":"NA","precip":0.9,"id":"a6245t3b3cx4","lat":39.581,"station":"Chatfield Dam 2 NW"},"type":"Feature","geometry":{"type":"Point","coordinates":[-105.0762,39.581]}},{"properties":{"elevation":"N/A","lon":-105.1371,"zone":"CO001","time":"NA","snow":5.0,"date":"NA","precip":0.84,"id":"a6245t0uoqg7","lat":39.6082,"station":"Littleton 6.4 W"},"type":"Feature","geometry":{"type":"Point","coordinates":[-105.1371,39.6082]}},{"properties":{"elevation":"N/A","lon":-105.0589,"zone":"CO001","time":"NA","snow":5.0,"date":"NA","precip":0.76,"id":"a6245syquvjt","lat":39.7736,"station":"Denver 6.6 W"},"type":"Feature","geometry":{"type":"Point","coordinates":[-105.0589,39.7736]}},{"properties":{"elevation":"N/A","lon":-105.2749,"zone":"CO001","time":"NA","snow":5.0,"date":"NA","precip":0.53,"id":"a6245ta8yw7q","lat":39.6726,"station":"Golden 6.4 SSW"},"type":"Feature","geometry":{"type":"Point","coordinates":[-105.2749,39.6726]}},{"properties":{"elevation":"N/A","lon":-105.1009,"zone":"CO001","time":"NA","snow":5.0,"date":"NA","precip":0.52,"id":"a6245t5gb9cm","lat":39.8502,"station":"Arvada 3.3 NNW"},"type":"Feature","geometry":{"type":"Point","coordinates":[-105.1009,39.8502]}},{"properties":{"elevation":"N/A","lon":-105.107333,"zone":"CO001","time":"NA","snow":5.0,"date":"NA","precip":0.99,"id":"a6245szxwlpp","lat":39.878354,"station":"Westminster 3.0 W"},"type":"Feature","geometry":{"type":"Point","coordinates":[-105.107333,39.878354]}},{"properties":{"elevation":"N/A","lon":-105.122118,"zone":"CO001","time":"NA","snow":5.0,"date":"NA","precip":0.69,"id":"a6245sucnqr3","lat":39.572217,"station":"Ken Caryl 0.6 WSW"},"type":"Feature","geometry":{"type":"Point","coordinates":[-105.122118,39.572217]}},{"properties":{"elevation":"N/A","lon":-105.092217,"zone":"CO001","time":"NA","snow":5.0,"date":"NA","precip":0.56,"id":"a6245t4p3f34","lat":40.528061,"station":"Fort Collins 4.0 S"},"type":"Feature","geometry":{"type":"Point","coordinates":[-105.092217,40.528061]}},{"properties":{"elevation":"N/A","lon":-103.2376,"zone":"CO001","time":"NA","snow":5.0,"date":"NA","precip":0.86,"id":"a6245svepqjf","lat":40.6421,"station":"Sterling 1.8 NW"},"type":"Feature","geometry":{"type":"Point","coordinates":[-103.2376,40.6421]}},{"properties":{"elevation":"N/A","lon":-102.5478,"zone":"CO001","time":"NA","snow":5.0,"date":"NA","precip":0.42,"id":"a6245szbadk2","lat":40.5957,"station":"Paoli 4 WSW"},"type":"Feature","geometry":{"type":"Point","coordinates":[-102.5478,40.5957]}},{"properties":{"elevation":"N/A","lon":-102.5327,"zone":"CO001","time":"NA","snow":5.0,"date":"NA","precip":0.4,"id":"a6245t2pxv0e","lat":40.6025,"station":"Haxtun 5.6 ESE"},"type":"Feature","geometry":{"type":"Point","coordinates":[-102.5327,40.6025]}},{"properties":{"elevation":"N/A","lon":-102.5127,"zone":"CO001","time":"NA","snow":5.0,"date":"NA","precip":0.38,"id":"a6245t0gr72k","lat":40.6033,"station":"Haxtun 6.5 ESE"},"type":"Feature","geometry":{"type":"Point","coordinates":[-102.5127,40.6033]}},{"properties":{"elevation":"N/A","lon":-104.79,"zone":"CO001","time":"NA","snow":5.0,"date":"NA","precip":null,"id":"a6245t0x32cf","lat":39.67,"station":"3 SSE AURORA"},"type":"Feature","geometry":{"type":"Point","coordinates":[-104.79,39.67]}},{"properties":{"elevation":"N/A","lon":-106.200002,"zone":"CO001","time":"NA","snow":4.8,"date":"NA","precip":0.71,"id":"a6245t3sh7my","lat":40.091093,"station":"Parshall 3.0 NNW"},"type":"Feature","geometry":{"type":"Point","coordinates":[-106.200002,40.091093]}},{"properties":{"elevation":"N/A","lon":-105.1635,"zone":"CO001","time":"NA","snow":4.8,"date":"NA","precip":0.0,"id":"a6245t8jthk6","lat":39.5769,"station":"Littleton 8.2 WSW"},"type":"Feature","geometry":{"type":"Point","coordinates":[-105.1635,39.5769]}},{"properties":{"elevation":"N/A","lon":-104.9553999,"zone":"CO001","time":"NA","snow":4.7,"date":"NA","precip":0.76,"id":"a6245t7bpxy0","lat":39.92227505,"station":"Thornton 2.1 N"},"type":"Feature","geometry":{"type":"Point","coordinates":[-104.9553999,39.92227505]}},{"properties":{"elevation":"N/A","lon":-105.0679,"zone":"CO001","time":"NA","snow":4.7,"date":"NA","precip":0.62,"id":"a6245t00bejp","lat":39.839,"station":"Arvada 2.7 NNE"},"type":"Feature","geometry":{"type":"Point","coordinates":[-105.0679,39.839]}},{"properties":{"elevation":"N/A","lon":-105.0903,"zone":"CO001","time":"NA","snow":4.7,"date":"NA","precip":0.42,"id":"a6245sz6iz7i","lat":39.6918,"station":"Lakewood 1.0 SSW"},"type":"Feature","geometry":{"type":"Point","coordinates":[-105.0903,39.6918]}},{"properties":{"elevation":"N/A","lon":-104.8806,"zone":"CO001","time":"NA","snow":4.6,"date":"NA","precip":0.62,"id":"a6245szdbl21","lat":39.6816,"station":"Denver 6.3 SSE"},"type":"Feature","geometry":{"type":"Point","coordinates":[-104.8806,39.6816]}},{"properties":{"elevation":"N/A","lon":-104.876,"zone":"CO001","time":"NA","snow":4.6,"date":"NA","precip":0.71,"id":"a6245sv1r4gx","lat":39.6596,"station":"Cherry Creek Reservoir 1.9 N"},"type":"Feature","geometry":{"type":"Point","coordinates":[-104.876,39.6596]}},{"properties":{"elevation":"N/A","lon":-105.146817,"zone":"CO001","time":"NA","snow":4.6,"date":"NA","precip":0.71,"id":"a6245t5rnm99","lat":39.756366,"station":"Wheat Ridge 2.8 WSW"},"type":"Feature","geometry":{"type":"Point","coordinates":[-105.146817,39.756366]}},{"properties":{"elevation":"N/A","lon":-104.9489,"zone":"CO001","time":"NA","snow":4.5,"date":"NA","precip":0.7,"id":"a6245sywfcf4","lat":39.7264,"station":"Denver 2.1 ESE"},"type":"Feature","geometry":{"type":"Point","coordinates":[-104.9489,39.7264]}},{"properties":{"elevation":"N/A","lon":-104.9431,"zone":"CO001","time":"NA","snow":4.5,"date":"NA","precip":0.77,"id":"a6245t1gnoak","lat":39.7284,"station":"Denver 2.4 S"},"type":"Feature","geometry":{"type":"Point","coordinates":[-104.9431,39.7284]}},{"properties":{"elevation":"N/A","lon":-104.904,"zone":"CO001","time":"NA","snow":4.5,"date":"NA","precip":0.52,"id":"a6245sw432vo","lat":39.4711,"station":"Castle Rock 7.3 NNW"},"type":"Feature","geometry":{"type":"Point","coordinates":[-104.904,39.4711]}},{"properties":{"elevation":"N/A","lon":-105.088879,"zone":"CO001","time":"NA","snow":4.5,"date":"NA","precip":0.92,"id":"a6245t6qp9qz","lat":39.46342,"station":"Roxborough Park 1.7 NNW"},"type":"Feature","geometry":{"type":"Point","coordinates":[-105.088879,39.46342]}},{"properties":{"elevation":"N/A","lon":-104.72597,"zone":"CO001","time":"NA","snow":4.5,"date":"NA","precip":0.0,"id":"a6245t1dm2o9","lat":38.935628,"station":"Colorado Springs 8.7 NE"},"type":"Feature","geometry":{"type":"Point","coordinates":[-104.72597,38.935628]}},{"properties":{"elevation":"N/A","lon":-105.122096,"zone":"CO001","time":"NA","snow":4.5,"date":"NA","precip":0.74,"id":"a6245sylwhvx","lat":39.822734,"station":"Arvada 0.8 W"},"type":"Feature","geometry":{"type":"Point","coordinates":[-105.122096,39.822734]}},{"properties":{"elevation":"N/A","lon":-105.1142,"zone":"CO001","time":"NA","snow":4.5,"date":"NA","precip":0.77,"id":"a6245swfq700","lat":39.7667,"station":"Wheat Ridge 0.9 WSW"},"type":"Feature","geometry":{"type":"Point","coordinates":[-105.1142,39.7667]}},{"properties":{"elevation":"N/A","lon":-105.100501,"zone":"CO001","time":"NA","snow":4.5,"date":"NA","precip":0.67,"id":"a6245t7f595e","lat":39.76545,"station":"Wheat Ridge 0.6 S"},"type":"Feature","geometry":{"type":"Point","coordinates":[-105.100501,39.76545]}},{"properties":{"elevation":"N/A","lon":-106.300618,"zone":"CO001","time":"NA","snow":4.5,"date":"NA","precip":0.36,"id":"a6245sucytr1","lat":39.252216,"station":"Leadville 0.5 NW"},"type":"Feature","geometry":{"type":"Point","coordinates":[-106.300618,39.252216]}},{"properties":{"elevation":"N/A","lon":-105.7436,"zone":"CO001","time":"NA","snow":4.5,"date":"NA","precip":0.41,"id":"a6245t2msy40","lat":39.2254,"station":"Como 10.1 SE"},"type":"Feature","geometry":{"type":"Point","coordinates":[-105.7436,39.2254]}},{"properties":{"elevation":"N/A","lon":-104.875,"zone":"CO001","time":"NA","snow":4.2,"date":"NA","precip":0.56,"id":"a6245t1nc0yz","lat":39.672,"station":"Cherry Creek Reservoir 2.8 N"},"type":"Feature","geometry":{"type":"Point","coordinates":[-104.875,39.672]}},{"properties":{"elevation":"N/A","lon":-105.075,"zone":"CO001","time":"NA","snow":4.2,"date":"NA","precip":0.76,"id":"a6245t33z756","lat":39.5884,"station":"Denver 11.0 SSW"},"type":"Feature","geometry":{"type":"Point","coordinates":[-105.075,39.5884]}},{"properties":{"elevation":"N/A","lon":-105.12218,"zone":"CO001","time":"NA","snow":4.2,"date":"NA","precip":0.88,"id":"a6245t3hok7w","lat":39.683711,"station":"Lakewood 0.9 SSW"},"type":"Feature","geometry":{"type":"Point","coordinates":[-105.12218,39.683711]}},{"properties":{"elevation":"N/A","lon":-104.8649,"zone":"CO001","time":"NA","snow":4.1,"date":"NA","precip":0.54,"id":"a6245t6p8zw4","lat":39.3475,"station":"Castle Rock 1.7 SSW"},"type":"Feature","geometry":{"type":"Point","coordinates":[-104.8649,39.3475]}},{"properties":{"elevation":"N/A","lon":-104.7785,"zone":"CO001","time":"NA","snow":4.0,"date":"NA","precip":0.67,"id":"a6245syf2mnp","lat":39.6155,"station":"Cherry Creek Dam 4.7 ESE"},"type":"Feature","geometry":{"type":"Point","coordinates":[-104.7785,39.6155]}},{"properties":{"elevation":"N/A","lon":-104.974644,"zone":"CO001","time":"NA","snow":4.0,"date":"NA","precip":0.74,"id":"a6245t2g9xvv","lat":39.575341,"station":"Centennial 2.0 SW"},"type":"Feature","geometry":{"type":"Point","coordinates":[-104.974644,39.575341]}},{"properties":{"elevation":"N/A","lon":-104.9657,"zone":"CO001","time":"NA","snow":4.0,"date":"NA","precip":0.7,"id":"a6245t244wyv","lat":39.6656,"station":"Denver 5.2 S"},"type":"Feature","geometry":{"type":"Point","coordinates":[-104.9657,39.6656]}},{"properties":{"elevation":"N/A","lon":-104.963538,"zone":"CO001","time":"NA","snow":4.0,"date":"NA","precip":0.73,"id":"a6245sxpdeo5","lat":39.730995,"station":"Denver 0.2 NNW"},"type":"Feature","geometry":{"type":"Point","coordinates":[-104.963538,39.730995]}},{"properties":{"elevation":"N/A","lon":-104.7851,"zone":"CO001","time":"NA","snow":4.0,"date":"NA","precip":0.58,"id":"a6245t6cnqzz","lat":39.5201,"station":"Parker 1.3 WNW"},"type":"Feature","geometry":{"type":"Point","coordinates":[-104.7851,39.5201]}},{"properties":{"elevation":"N/A","lon":-104.9089,"zone":"CO001","time":"NA","snow":4.0,"date":"NA","precip":0.68,"id":"a6245t4sp6di","lat":39.485,"station":"Castle Rock 8.2 NNW"},"type":"Feature","geometry":{"type":"Point","coordinates":[-104.9089,39.485]}},{"properties":{"elevation":"N/A","lon":-104.5051,"zone":"CO001","time":"NA","snow":4.0,"date":"NA","precip":0.39,"id":"a6245t6obzgr","lat":39.3538,"station":"Kiowa 2.2 WNW"},"type":"Feature","geometry":{"type":"Point","coordinates":[-104.5051,39.3538]}},{"properties":{"elevation":"N/A","lon":-105.100359,"zone":"CO001","time":"NA","snow":4.0,"date":"NA","precip":0.75,"id":"a6245t7g3lk0","lat":39.588649,"station":"Littleton 4.6 W"},"type":"Feature","geometry":{"type":"Point","coordinates":[-105.100359,39.588649]}},{"properties":{"elevation":"N/A","lon":-106.0109,"zone":"CO001","time":"NA","snow":3.9,"date":"NA","precip":0.33,"id":"a6245su2pdbs","lat":39.4688,"station":"Breckenridge 3.3 SE"},"type":"Feature","geometry":{"type":"Point","coordinates":[-106.0109,39.4688]}},{"properties":{"elevation":"N/A","lon":-104.938156,"zone":"CO001","time":"NA","snow":3.8,"date":"NA","precip":0.88,"id":"a6245t8qlarf","lat":39.8612,"station":"Thornton 2.3 SSE"},"type":"Feature","geometry":{"type":"Point","coordinates":[-104.938156,39.8612]}},{"properties":{"elevation":"N/A","lon":-104.723717,"zone":"CO001","time":"NA","snow":3.8,"date":"NA","precip":0.58,"id":"a6245t53z2nd","lat":39.619195,"station":"Aurora 7.3 SE"},"type":"Feature","geometry":{"type":"Point","coordinates":[-104.723717,39.619195]}},{"properties":{"elevation":"N/A","lon":-104.973922,"zone":"CO001","time":"NA","snow":3.8,"date":"NA","precip":0.71,"id":"a6245szpa3el","lat":39.546944,"station":"Highlands Ranch 0.6 SSW"},"type":"Feature","geometry":{"type":"Point","coordinates":[-104.973922,39.546944]}},{"properties":{"elevation":"N/A","lon":-104.670796,"zone":"CO001","time":"NA","snow":3.7,"date":"NA","precip":0.46,"id":"a6245t0vwi4j","lat":39.33106,"station":"Franktown 5.4 SE"},"type":"Feature","geometry":{"type":"Point","coordinates":[-104.670796,39.33106]}},{"properties":{"elevation":"N/A","lon":-105.071,"zone":"CO001","time":"NA","snow":3.7,"date":"NA","precip":0.87,"id":"a6245sxtvymx","lat":39.470942,"station":"Roxborough Park 2.0 N"},"type":"Feature","geometry":{"type":"Point","coordinates":[-105.071,39.470942]}},{"properties":{"elevation":"N/A","lon":-104.739773,"zone":"CO001","time":"NA","snow":3.7,"date":"NA","precip":0.42,"id":"a6245ta5xm54","lat":39.562984,"station":"Parker 3.9 NNE"},"type":"Feature","geometry":{"type":"Point","coordinates":[-104.739773,39.562984]}},{"properties":{"elevation":"N/A","lon":-104.2391,"zone":"CO001","time":"NA","snow":3.7,"date":"NA","precip":0.39,"id":"a6245t98gmyh","lat":39.4109,"station":"Kiowa 12.7 ENE"},"type":"Feature","geometry":{"type":"Point","coordinates":[-104.2391,39.4109]}},{"properties":{"elevation":"N/A","lon":-104.470261,"zone":"CO001","time":"NA","snow":3.7,"date":"NA","precip":0.29,"id":"a6245taatum0","lat":39.201582,"station":"Elbert 3.4 ESE"},"type":"Feature","geometry":{"type":"Point","coordinates":[-104.470261,39.201582]}},{"properties":{"elevation":"N/A","lon":-104.583444,"zone":"CO001","time":"NA","snow":3.6,"date":"NA","precip":0.73,"id":"a6245szvsr6o","lat":39.360909,"station":"Denver 9.4 S"},"type":"Feature","geometry":{"type":"Point","coordinates":[-104.583444,39.360909]}},{"properties":{"elevation":"N/A","lon":-105.0463,"zone":"CO001","time":"NA","snow":3.6,"date":"NA","precip":0.69,"id":"a6245t0yev4e","lat":39.6318,"station":"Denver 8 SSW"},"type":"Feature","geometry":{"type":"Point","coordinates":[-105.0463,39.6318]}},{"properties":{"elevation":"N/A","lon":-104.943975,"zone":"CO001","time":"NA","snow":3.6,"date":"NA","precip":0.75,"id":"a6245sv5wg0k","lat":39.667897,"station":"Cherry Hills Village 2.1 N"},"type":"Feature","geometry":{"type":"Point","coordinates":[-104.943975,39.667897]}},{"properties":{"elevation":"N/A","lon":-104.94959,"zone":"CO001","time":"NA","snow":3.6,"date":"NA","precip":0.69,"id":"a6245t6uuh7h","lat":39.32389,"station":"Castle Rock 6.5 SW"},"type":"Feature","geometry":{"type":"Point","coordinates":[-104.94959,39.32389]}},{"properties":{"elevation":"N/A","lon":-104.6991,"zone":"CO001","time":"NA","snow":3.5,"date":"NA","precip":0.55,"id":"a6245szq1oat","lat":39.6863,"station":"Aurora 7.6 ESE"},"type":"Feature","geometry":{"type":"Point","coordinates":[-104.6991,39.6863]}},{"properties":{"elevation":"N/A","lon":-104.822,"zone":"CO001","time":"NA","snow":3.5,"date":"NA","precip":0.45,"id":"a6245suwrsqc","lat":39.6693,"station":"Aurora 4.1 S"},"type":"Feature","geometry":{"type":"Point","coordinates":[-104.822,39.6693]}},{"properties":{"elevation":"N/A","lon":-104.89112,"zone":"CO001","time":"NA","snow":3.5,"date":"NA","precip":0.56,"id":"a6245szyg16b","lat":39.46166,"station":"Castle Pines 2.2 NNE"},"type":"Feature","geometry":{"type":"Point","coordinates":[-104.89112,39.46166]}},{"properties":{"elevation":"N/A","lon":-104.8954,"zone":"CO001","time":"NA","snow":3.5,"date":"NA","precip":0.65,"id":"a6245syc1iqw","lat":39.5531,"station":"Littleton 7.7 ESE"},"type":"Feature","geometry":{"type":"Point","coordinates":[-104.8954,39.5531]}},{"properties":{"elevation":"N/A","lon":-104.8145,"zone":"CO001","time":"NA","snow":3.5,"date":"NA","precip":0.61,"id":"a6245t3tvqv1","lat":39.37445,"station":"Castle Rock 2.2 E"},"type":"Feature","geometry":{"type":"Point","coordinates":[-104.8145,39.37445]}},{"properties":{"elevation":"N/A","lon":-104.564557,"zone":"CO001","time":"NA","snow":3.5,"date":"NA","precip":0.56,"id":"a6245suzntn4","lat":39.48366,"station":"Elizabeth 8.7 NNE"},"type":"Feature","geometry":{"type":"Point","coordinates":[-104.564557,39.48366]}},{"properties":{"elevation":"N/A","lon":-105.10204,"zone":"CO001","time":"NA","snow":3.5,"date":"NA","precip":0.0,"id":"a6245t54w9qk","lat":40.487473,"station":"Fort Collins 5.0 SSW"},"type":"Feature","geometry":{"type":"Point","coordinates":[-105.10204,40.487473]}},{"properties":{"elevation":"N/A","lon":-105.62,"zone":"CO001","time":"NA","snow":3.5,"date":"NA","precip":0.3,"id":"a6245szds6us","lat":39.27,"station":"Jefferson 12.1 SE"},"type":"Feature","geometry":{"type":"Point","coordinates":[-105.62,39.27]}},{"properties":{"elevation":"N/A","lon":-104.288633,"zone":"CO001","time":"NA","snow":3.4,"date":"NA","precip":0.27,"id":"a6245sxxds8q","lat":39.624708,"station":"Strasburg 7.6 S"},"type":"Feature","geometry":{"type":"Point","coordinates":[-104.288633,39.624708]}},{"properties":{"elevation":"N/A","lon":-104.801271,"zone":"CO001","time":"NA","snow":3.4,"date":"NA","precip":0.56,"id":"a6245t6hqdkk","lat":39.519358,"station":"Parker 2.1 WNW"},"type":"Feature","geometry":{"type":"Point","coordinates":[-104.801271,39.519358]}},{"properties":{"elevation":"N/A","lon":-104.787208,"zone":"CO001","time":"NA","snow":3.3,"date":"NA","precip":0.55,"id":"a6245t1wvkj9","lat":39.520003,"station":"Parker 1.4 WNW"},"type":"Feature","geometry":{"type":"Point","coordinates":[-104.787208,39.520003]}},{"properties":{"elevation":"N/A","lon":-104.154,"zone":"CO001","time":"NA","snow":3.2,"date":"NA","precip":0.62,"id":"a6245szrl41y","lat":39.7557,"station":"Byers 4.9 NE"},"type":"Feature","geometry":{"type":"Point","coordinates":[-104.154,39.7557]}},{"properties":{"elevation":"N/A","lon":-104.732094,"zone":"CO001","time":"NA","snow":3.2,"date":"NA","precip":0.55,"id":"a6245sxrtig8","lat":39.438561,"station":"Parker 5.2 SSE"},"type":"Feature","geometry":{"type":"Point","coordinates":[-104.732094,39.438561]}},{"properties":{"elevation":"N/A","lon":-104.751564,"zone":"CO001","time":"NA","snow":3.2,"date":"NA","precip":0.41,"id":"a6245t8m0tkg","lat":39.11838,"station":"Monument 6.6 ENE"},"type":"Feature","geometry":{"type":"Point","coordinates":[-104.751564,39.11838]}},{"properties":{"elevation":"N/A","lon":-104.81161,"zone":"CO001","time":"NA","snow":3.2,"date":"NA","precip":0.43,"id":"a6245t2ys99a","lat":39.11283,"station":"Monument 3.8 NE"},"type":"Feature","geometry":{"type":"Point","coordinates":[-104.81161,39.11283]}},{"properties":{"elevation":"N/A","lon":-104.9123,"zone":"CO001","time":"NA","snow":3.1,"date":"NA","precip":0.66,"id":"a6245t6e3md1","lat":39.5404,"station":"Highlands Ranch 3.2 ESE"},"type":"Feature","geometry":{"type":"Point","coordinates":[-104.9123,39.5404]}},{"properties":{"elevation":"N/A","lon":-104.6967,"zone":"CO001","time":"NA","snow":3.1,"date":"NA","precip":0.43,"id":"a6245t5qylpa","lat":39.5025,"station":"Parker 3.6 ESE"},"type":"Feature","geometry":{"type":"Point","coordinates":[-104.6967,39.5025]}},{"properties":{"elevation":"N/A","lon":-105.2418,"zone":"CO001","time":"NA","snow":3.1,"date":"NA","precip":0.33,"id":"a6245t6m7b2r","lat":39.3512,"station":"Buffalo Creek 2.9 SSE"},"type":"Feature","geometry":{"type":"Point","coordinates":[-105.2418,39.3512]}},{"properties":{"elevation":"N/A","lon":-104.7909,"zone":"CO001","time":"NA","snow":3.0,"date":"NA","precip":0.46,"id":"a6245t4unzh0","lat":39.9752,"station":"Brighton 1.7 ESE"},"type":"Feature","geometry":{"type":"Point","coordinates":[-104.7909,39.9752]}},{"properties":{"elevation":"N/A","lon":-104.858277,"zone":"CO001","time":"NA","snow":3.0,"date":"NA","precip":0.58,"id":"a6245t1irypk","lat":39.678302,"station":"Aurora 2.8 WSW"},"type":"Feature","geometry":{"type":"Point","coordinates":[-104.858277,39.678302]}},{"properties":{"elevation":"N/A","lon":-105.0015,"zone":"CO001","time":"NA","snow":3.0,"date":"NA","precip":0.0,"id":"a6245sv4oqaf","lat":39.7504,"station":"Denver 3.6 WSW"},"type":"Feature","geometry":{"type":"Point","coordinates":[-105.0015,39.7504]}},{"properties":{"elevation":"N/A","lon":-104.9216,"zone":"CO001","time":"NA","snow":3.0,"date":"NA","precip":0.68,"id":"a6245t42vk7n","lat":39.44,"station":"Sedalia 2.2 E"},"type":"Feature","geometry":{"type":"Point","coordinates":[-104.9216,39.44]}},{"properties":{"elevation":"N/A","lon":-104.9471,"zone":"CO001","time":"NA","snow":3.0,"date":"NA","precip":0.0,"id":"a6245t9q88id","lat":39.3311,"station":"Sedalia 7.2 S"},"type":"Feature","geometry":{"type":"Point","coordinates":[-104.9471,39.3311]}},{"properties":{"elevation":"N/A","lon":-104.949494,"zone":"CO001","time":"NA","snow":3.0,"date":"NA","precip":0.74,"id":"a6245t67wsqv","lat":39.518652,"station":"Highlands Ranch 2.7 SSE"},"type":"Feature","geometry":{"type":"Point","coordinates":[-104.949494,39.518652]}},{"properties":{"elevation":"N/A","lon":-104.9611189,"zone":"CO001","time":"NA","snow":3.0,"date":"NA","precip":0.47,"id":"a6245swpgv2r","lat":39.3315205,"station":"Sedalia 6.8 S"},"type":"Feature","geometry":{"type":"Point","coordinates":[-104.9611189,39.3315205]}},{"properties":{"elevation":"N/A","lon":-104.597488,"zone":"CO001","time":"NA","snow":2.6,"date":"NA","precip":0.35,"id":"a6245t1efjxr","lat":39.537484,"station":"Parker 9.1 ENE"},"type":"Feature","geometry":{"type":"Point","coordinates":[-104.597488,39.537484]}},{"properties":{"elevation":"N/A","lon":-104.8469756,"zone":"CO001","time":"NA","snow":2.6,"date":"NA","precip":0.25,"id":"a6245t9dtizh","lat":38.93529065,"station":"Colorado Springs 7.1 NNW"},"type":"Feature","geometry":{"type":"Point","coordinates":[-104.8469756,38.93529065]}},{"properties":{"elevation":"N/A","lon":-104.903761,"zone":"CO001","time":"NA","snow":2.5,"date":"NA","precip":0.52,"id":"a6245sw9f9dg","lat":39.391119,"station":"Castle Rock 2.9 WNW"},"type":"Feature","geometry":{"type":"Point","coordinates":[-104.903761,39.391119]}},{"properties":{"elevation":"N/A","lon":-104.235907,"zone":"CO001","time":"NA","snow":2.5,"date":"NA","precip":0.24,"id":"a6245t5ej31m","lat":39.150333,"station":"Ramah 4.2 WNW"},"type":"Feature","geometry":{"type":"Point","coordinates":[-104.235907,39.150333]}},{"properties":{"elevation":"N/A","lon":-104.783625,"zone":"CO001","time":"NA","snow":2.5,"date":"NA","precip":0.26,"id":"a6245t3j6pbd","lat":38.900413,"station":"Colorado Springs 5.0 NNE"},"type":"Feature","geometry":{"type":"Point","coordinates":[-104.783625,38.900413]}},{"properties":{"elevation":"N/A","lon":-104.824082,"zone":"CO001","time":"NA","snow":2.5,"date":"NA","precip":0.2,"id":"a6245svfmtvx","lat":39.041034,"station":"Gleneagle 0.3 S"},"type":"Feature","geometry":{"type":"Point","coordinates":[-104.824082,39.041034]}},{"properties":{"elevation":"N/A","lon":-104.813817,"zone":"CO001","time":"NA","snow":2.5,"date":"NA","precip":0.0,"id":"a6245t0gjuep","lat":39.042963,"station":"Gleneagle 0.6 ESE"},"type":"Feature","geometry":{"type":"Point","coordinates":[-104.813817,39.042963]}},{"properties":{"elevation":"N/A","lon":-105.6236,"zone":"CO001","time":"NA","snow":2.5,"date":"NA","precip":0.22,"id":"a6245t5oo7qt","lat":38.7487,"station":"Guffey 5.5 W"},"type":"Feature","geometry":{"type":"Point","coordinates":[-105.6236,38.7487]}},{"properties":{"elevation":"N/A","lon":-104.9972,"zone":"CO001","time":"NA","snow":2.1,"date":"NA","precip":0.69,"id":"a6245t36011z","lat":39.6429,"station":"Englewood 0.6 SE"},"type":"Feature","geometry":{"type":"Point","coordinates":[-104.9972,39.6429]}},{"properties":{"elevation":"N/A","lon":-104.829255,"zone":"CO001","time":"NA","snow":2.1,"date":"NA","precip":0.45,"id":"a6245t23zi4a","lat":38.783546,"station":"Colorado Springs 3.5 S"},"type":"Feature","geometry":{"type":"Point","coordinates":[-104.829255,38.783546]}},{"properties":{"elevation":"N/A","lon":-105.2932,"zone":"CO001","time":"NA","snow":2.1,"date":"NA","precip":0.26,"id":"a6245sv9fapv","lat":39.00252,"station":"Florissant 5.0 N"},"type":"Feature","geometry":{"type":"Point","coordinates":[-105.2932,39.00252]}},{"properties":{"elevation":"N/A","lon":-104.726872,"zone":"CO001","time":"NA","snow":2.0,"date":"NA","precip":0.37,"id":"a6245symadqt","lat":39.644837,"station":"Aurora 8 SE"},"type":"Feature","geometry":{"type":"Point","coordinates":[-104.726872,39.644837]}},{"properties":{"elevation":"N/A","lon":-104.56,"zone":"CO001","time":"NA","snow":2.0,"date":"NA","precip":0.35,"id":"a6245t1xbq1e","lat":39.696,"station":"Watkins 4.3 SSE"},"type":"Feature","geometry":{"type":"Point","coordinates":[-104.56,39.696]}},{"properties":{"elevation":"N/A","lon":-105.0361269,"zone":"CO001","time":"NA","snow":2.0,"date":"NA","precip":0.53,"id":"a6245t6jk1fh","lat":39.676156,"station":"Denver 5.3 SW"},"type":"Feature","geometry":{"type":"Point","coordinates":[-105.0361269,39.676156]}},{"properties":{"elevation":"N/A","lon":-105.494,"zone":"CO001","time":"NA","snow":1.8,"date":"NA","precip":0.29,"id":"a6245t02rumd","lat":39.0205,"station":"Lake George 7.2 WNW"},"type":"Feature","geometry":{"type":"Point","coordinates":[-105.494,39.0205]}},{"properties":{"elevation":"N/A","lon":-104.28021,"zone":"CO001","time":"NA","snow":1.7,"date":"NA","precip":0.23,"id":"a6245t0gnqk9","lat":39.186748,"station":"Calhan 10.6 N"},"type":"Feature","geometry":{"type":"Point","coordinates":[-104.28021,39.186748]}},{"properties":{"elevation":"N/A","lon":-103.4989,"zone":"CO001","time":"NA","snow":1.6,"date":"NA","precip":0.47,"id":"a6245sw63ess","lat":39.755,"station":"Woodrow 16.8 SSE"},"type":"Feature","geometry":{"type":"Point","coordinates":[-103.4989,39.755]}},{"properties":{"elevation":"N/A","lon":-104.4211,"zone":"CO001","time":"NA","snow":1.5,"date":"NA","precip":0.1,"id":"a6245taal48z","lat":39.8975,"station":"Bennett 9.8 N"},"type":"Feature","geometry":{"type":"Point","coordinates":[-104.4211,39.8975]}},{"properties":{"elevation":"N/A","lon":-104.764,"zone":"CO001","time":"NA","snow":1.5,"date":"NA","precip":0.47,"id":"a6245t51ziy1","lat":39.5845,"station":"Cherry Creek Dam 6.7 SE"},"type":"Feature","geometry":{"type":"Point","coordinates":[-104.764,39.5845]}},{"properties":{"elevation":"N/A","lon":-103.918616,"zone":"CO001","time":"NA","snow":1.5,"date":"NA","precip":0.1,"id":"a6245t5ads0m","lat":39.624566,"station":"Deer Trail 6.6 E"},"type":"Feature","geometry":{"type":"Point","coordinates":[-103.918616,39.624566]}},{"properties":{"elevation":"N/A","lon":-103.8134,"zone":"CO001","time":"NA","snow":1.5,"date":"NA","precip":0.15,"id":"a6245ta6jnbv","lat":39.3782,"station":"Agate 8.6 SE"},"type":"Feature","geometry":{"type":"Point","coordinates":[-103.8134,39.3782]}},{"properties":{"elevation":"N/A","lon":-102.3033,"zone":"CO001","time":"NA","snow":1.5,"date":"NA","precip":0.43,"id":"a6245t392jt1","lat":40.5822,"station":"Holyoke .16 SSW"},"type":"Feature","geometry":{"type":"Point","coordinates":[-102.3033,40.5822]}},{"properties":{"elevation":"N/A","lon":-103.4299,"zone":"CO001","time":"NA","snow":1.2,"date":"NA","precip":0.19,"id":"a6245sv8epcn","lat":39.6614,"station":"Lindon 5S"},"type":"Feature","geometry":{"type":"Point","coordinates":[-103.4299,39.6614]}},{"properties":{"elevation":"N/A","lon":-104.814272,"zone":"CO001","time":"NA","snow":1.1,"date":"NA","precip":0.27,"id":"a6245sxvguzp","lat":38.861787,"station":"Colorado Springs 2.0 N"},"type":"Feature","geometry":{"type":"Point","coordinates":[-104.814272,38.861787]}},{"properties":{"elevation":"N/A","lon":-105.07579,"zone":"CO001","time":"NA","snow":1.1,"date":"NA","precip":0.57,"id":"a6245t1s75o7","lat":39.68353,"station":"Lakewood 2.2 ESE"},"type":"Feature","geometry":{"type":"Point","coordinates":[-105.07579,39.68353]}},{"properties":{"elevation":"N/A","lon":-103.8056,"zone":"CO001","time":"NA","snow":0.7,"date":"NA","precip":0.11,"id":"a6245t5vbkbn","lat":39.2858,"station":"Limon 6.3 WNW"},"type":"Feature","geometry":{"type":"Point","coordinates":[-103.8056,39.2858]}},{"properties":{"elevation":"N/A","lon":-102.1826,"zone":"CO001","time":"NA","snow":0.5,"date":"NA","precip":0.54,"id":"a6245t0o3cti","lat":40.6958,"station":"Amherst 1.27 NW"},"type":"Feature","geometry":{"type":"Point","coordinates":[-102.1826,40.6958]}},{"properties":{"elevation":"N/A","lon":-104.868515,"zone":"CO001","time":"NA","snow":0.5,"date":"NA","precip":0.31,"id":"a6245t4p12ab","lat":37.913512,"station":"Rye 3.5 E"},"type":"Feature","geometry":{"type":"Point","coordinates":[-104.868515,37.913512]}},{"properties":{"elevation":"N/A","lon":-106.3237,"zone":"CO002","time":"NA","snow":4.6,"date":"NA","precip":0.0,"id":"a6245sz4e6eu","lat":39.2601,"station":"Leadville 1.8 WNW"},"type":"Feature","geometry":{"type":"Point","coordinates":[-106.3237,39.2601]}},{"properties":{"elevation":"N/A","lon":-104.859,"zone":"CO002","time":"NA","snow":4.2,"date":"NA","precip":0.41,"id":"a6245tadmrpq","lat":39.1125,"station":"Monument 2.9 N"},"type":"Feature","geometry":{"type":"Point","coordinates":[-104.859,39.1125]}},{"properties":{"elevation":"N/A","lon":-106.336,"zone":"CO002","time":"NA","snow":4.0,"date":"NA","precip":0.38,"id":"a6245suaeocv","lat":39.269,"station":"Leadville 2.7 NW"},"type":"Feature","geometry":{"type":"Point","coordinates":[-106.336,39.269]}},{"properties":{"elevation":"N/A","lon":-105.0482833,"zone":"CO002","time":"NA","snow":4.0,"date":"NA","precip":0.44,"id":"a6245t4ysflq","lat":38.9939166,"station":"Woodland Park 0.2 ESE"},"type":"Feature","geometry":{"type":"Point","coordinates":[-105.0482833,38.9939166]}},{"properties":{"elevation":"N/A","lon":-104.71272,"zone":"CO002","time":"NA","snow":3.9,"date":"NA","precip":0.43,"id":"a6245t8igc4y","lat":39.38725,"station":"Franktown 2.1 ENE"},"type":"Feature","geometry":{"type":"Point","coordinates":[-104.71272,39.38725]}},{"properties":{"elevation":"N/A","lon":-104.7629,"zone":"CO002","time":"NA","snow":3.5,"date":"NA","precip":0.38,"id":"a6245t7ydzwd","lat":39.0988,"station":"Colorado Springs 18.7 N"},"type":"Feature","geometry":{"type":"Point","coordinates":[-104.7629,39.0988]}},{"properties":{"elevation":"N/A","lon":-104.830221,"zone":"CO002","time":"NA","snow":3.1,"date":"NA","precip":0.3,"id":"a6245sxg8gqd","lat":39.047109,"station":"Gleneagle 0.4 WNW"},"type":"Feature","geometry":{"type":"Point","coordinates":[-104.830221,39.047109]}},{"properties":{"elevation":"N/A","lon":-104.8343,"zone":"CO002","time":"NA","snow":3.0,"date":"NA","precip":0.34,"id":"a6245szfldc3","lat":39.0985,"station":"Monument 2.1 ENE"},"type":"Feature","geometry":{"type":"Point","coordinates":[-104.8343,39.0985]}},{"properties":{"elevation":"N/A","lon":-104.849076,"zone":"CO002","time":"NA","snow":3.0,"date":"NA","precip":0.23,"id":"a6245t19ofce","lat":38.905232,"station":"Colorado Springs 5.7 WNW"},"type":"Feature","geometry":{"type":"Point","coordinates":[-104.849076,38.905232]}},{"properties":{"elevation":"N/A","lon":-104.8387,"zone":"CO002","time":"NA","snow":3.0,"date":"NA","precip":0.32,"id":"a6245sz1dm2a","lat":39.0537,"station":"Colorado Springs 14.9 N"},"type":"Feature","geometry":{"type":"Point","coordinates":[-104.8387,39.0537]}},{"properties":{"elevation":"N/A","lon":-104.781608,"zone":"CO002","time":"NA","snow":3.0,"date":"NA","precip":0.27,"id":"a6245svpu5me","lat":38.943846,"station":"Colorado Springs 7.0 NNE"},"type":"Feature","geometry":{"type":"Point","coordinates":[-104.781608,38.943846]}},{"properties":{"elevation":"N/A","lon":-106.2816,"zone":"CO002","time":"NA","snow":3.0,"date":"NA","precip":0.17,"id":"a6245t6v0ca1","lat":39.1601,"station":"Leadville 6.3 S"},"type":"Feature","geometry":{"type":"Point","coordinates":[-106.2816,39.1601]}},{"properties":{"elevation":"N/A","lon":-104.9478,"zone":"CO002","time":"NA","snow":3.0,"date":"NA","precip":0.5,"id":"a6245sxc8h4t","lat":37.9139,"station":"Rye 1.1 WSW"},"type":"Feature","geometry":{"type":"Point","coordinates":[-104.9478,37.9139]}},{"properties":{"elevation":"N/A","lon":-104.872274,"zone":"CO002","time":"NA","snow":2.8,"date":"NA","precip":0.56,"id":"a6245t1r8jd3","lat":39.444064,"station":"Castle Rock 4.6 NNW"},"type":"Feature","geometry":{"type":"Point","coordinates":[-104.872274,39.444064]}},{"properties":{"elevation":"N/A","lon":-104.64455,"zone":"CO002","time":"NA","snow":2.8,"date":"NA","precip":0.38,"id":"a6245t9zh9w1","lat":39.099933,"station":"Black Forest 3.9 NNE"},"type":"Feature","geometry":{"type":"Point","coordinates":[-104.64455,39.099933]}},{"properties":{"elevation":"N/A","lon":-104.74184,"zone":"CO002","time":"NA","snow":2.8,"date":"NA","precip":0.15,"id":"a6245t6pr3ir","lat":38.91632,"station":"Colorado Sprngs 6.1 NE"},"type":"Feature","geometry":{"type":"Point","coordinates":[-104.74184,38.91632]}},{"properties":{"elevation":"N/A","lon":-105.0103,"zone":"CO002","time":"NA","snow":2.7,"date":"NA","precip":0.78,"id":"a6245sw2xtze","lat":39.9381,"station":"Westminster 4.5 NNE"},"type":"Feature","geometry":{"type":"Point","coordinates":[-105.0103,39.9381]}},{"properties":{"elevation":"N/A","lon":-105.492,"zone":"CO002","time":"NA","snow":2.5,"date":"NA","precip":0.42,"id":"a6245t0qil9f","lat":38.342,"station":"Texas Creek 6.2 SE"},"type":"Feature","geometry":{"type":"Point","coordinates":[-105.492,38.342]}},{"properties":{"elevation":"N/A","lon":-104.2931,"zone":"CO002","time":"NA","snow":2.0,"date":"NA","precip":0.2,"id":"a6245t649zjx","lat":39.0804,"station":"Calhan 3.1 N"},"type":"Feature","geometry":{"type":"Point","coordinates":[-104.2931,39.0804]}},{"properties":{"elevation":"N/A","lon":-104.853693,"zone":"CO002","time":"NA","snow":2.0,"date":"NA","precip":0.19,"id":"a6245sxgndo1","lat":38.849677,"station":"Colorado Springs 2.1 NW"},"type":"Feature","geometry":{"type":"Point","coordinates":[-104.853693,38.849677]}},{"properties":{"elevation":"N/A","lon":-104.707577,"zone":"CO002","time":"NA","snow":2.0,"date":"NA","precip":0.2,"id":"a6245sz8ehb7","lat":39.020266,"station":"Black Forest 2.8 SW"},"type":"Feature","geometry":{"type":"Point","coordinates":[-104.707577,39.020266]}},{"properties":{"elevation":"N/A","lon":-104.308331,"zone":"CO002","time":"NA","snow":2.0,"date":"NA","precip":0.23,"id":"a6245t8v2b2z","lat":39.033977,"station":"Calhan 0.5 W"},"type":"Feature","geometry":{"type":"Point","coordinates":[-104.308331,39.033977]}},{"properties":{"elevation":"N/A","lon":-104.7734,"zone":"CO002","time":"NA","snow":1.8,"date":"NA","precip":0.19,"id":"a6245t7q1f1t","lat":37.3593,"station":"Aguilar 7.2 WSW"},"type":"Feature","geometry":{"type":"Point","coordinates":[-104.7734,37.3593]}},{"properties":{"elevation":"N/A","lon":-104.838611,"zone":"CO002","time":"NA","snow":1.7,"date":"NA","precip":0.3,"id":"a6245t9e2ntj","lat":38.798889,"station":"Ivywild 0.6 E"},"type":"Feature","geometry":{"type":"Point","coordinates":[-104.838611,38.798889]}},{"properties":{"elevation":"N/A","lon":-106.8139,"zone":"CO002","time":"NA","snow":1.6,"date":"NA","precip":0.46,"id":"a6245t9fgscq","lat":40.4697,"station":"Steamboat Springs 1 SE"},"type":"Feature","geometry":{"type":"Point","coordinates":[-106.8139,40.4697]}},{"properties":{"elevation":"N/A","lon":-104.8231,"zone":"CO002","time":"NA","snow":1.5,"date":"NA","precip":0.34,"id":"a6245swp4wd4","lat":38.7706,"station":"Colorado Springs 7.2 SSW"},"type":"Feature","geometry":{"type":"Point","coordinates":[-104.8231,38.7706]}},{"properties":{"elevation":"N/A","lon":-104.869966,"zone":"CO002","time":"NA","snow":1.5,"date":"NA","precip":0.12,"id":"a6245tagfnax","lat":38.869017,"station":"Manitou Springs 2.3 ENE"},"type":"Feature","geometry":{"type":"Point","coordinates":[-104.869966,38.869017]}},{"properties":{"elevation":"N/A","lon":-105.6417,"zone":"CO002","time":"NA","snow":1.5,"date":"NA","precip":0.37,"id":"a6245su5tx9v","lat":38.3086,"station":"Cotopaxi 4.8 SSE"},"type":"Feature","geometry":{"type":"Point","coordinates":[-105.6417,38.3086]}},{"properties":{"elevation":"N/A","lon":-104.8911,"zone":"CO002","time":"NA","snow":1.2,"date":"NA","precip":0.23,"id":"a6245swwid7o","lat":38.848,"station":"Manitou Springs 1.2 ESE"},"type":"Feature","geometry":{"type":"Point","coordinates":[-104.8911,38.848]}},{"properties":{"elevation":"N/A","lon":-105.6306,"zone":"CO002","time":"NA","snow":1.2,"date":"NA","precip":0.08,"id":"a6245sxuou6y","lat":38.3137,"station":"Cotopaxi 4.9 SE"},"type":"Feature","geometry":{"type":"Point","coordinates":[-105.6306,38.3137]}},{"properties":{"elevation":"N/A","lon":-106.92905,"zone":"CO002","time":"NA","snow":1.2,"date":"NA","precip":0.24,"id":"a6245t32c9q3","lat":37.8493,"station":"Creede 0.2 WSW"},"type":"Feature","geometry":{"type":"Point","coordinates":[-106.92905,37.8493]}},{"properties":{"elevation":"N/A","lon":-104.919,"zone":"CO002","time":"NA","snow":1.1,"date":"NA","precip":0.26,"id":"a6245t18wws4","lat":38.233,"station":"Pueblo 17 W"},"type":"Feature","geometry":{"type":"Point","coordinates":[-104.919,38.233]}},{"properties":{"elevation":"N/A","lon":-105.5115,"zone":"CO002","time":"NA","snow":1.0,"date":"NA","precip":0.34,"id":"a6245su3uuim","lat":38.1009,"station":"Westcliffe 3.4 SW"},"type":"Feature","geometry":{"type":"Point","coordinates":[-105.5115,38.1009]}},{"properties":{"elevation":"N/A","lon":-104.805154,"zone":"CO002","time":"NA","snow":1.0,"date":"NA","precip":0.2,"id":"a6245t7x14ec","lat":38.843666,"station":"Colorado Springs 1.1 NE"},"type":"Feature","geometry":{"type":"Point","coordinates":[-104.805154,38.843666]}},{"properties":{"elevation":"N/A","lon":-105.162,"zone":"CO002","time":"NA","snow":1.0,"date":"NA","precip":0.36,"id":"a6245sun4dfl","lat":38.3841,"station":"Williamsburg .63 WNW"},"type":"Feature","geometry":{"type":"Point","coordinates":[-105.162,38.3841]}},{"properties":{"elevation":"N/A","lon":-107.55495,"zone":"CO002","time":"NA","snow":1.0,"date":"NA","precip":0.45,"id":"a6245swsjh1d","lat":38.288467,"station":"Cimarron 11.2 S"},"type":"Feature","geometry":{"type":"Point","coordinates":[-107.55495,38.288467]}},{"properties":{"elevation":"N/A","lon":-104.9848,"zone":"CO002","time":"NA","snow":1.0,"date":"NA","precip":0.2,"id":"a6245t5blh2z","lat":38.0755,"station":"Beulah 0.4 SW"},"type":"Feature","geometry":{"type":"Point","coordinates":[-104.9848,38.0755]}},{"properties":{"elevation":"N/A","lon":-106.2085,"zone":"CO002","time":"NA","snow":0.9,"date":"NA","precip":0.12,"id":"a6245sumegqf","lat":38.8579,"station":"Buena Vista 4.0 WNW"},"type":"Feature","geometry":{"type":"Point","coordinates":[-106.2085,38.8579]}},{"properties":{"elevation":"N/A","lon":-105.039969,"zone":"CO002","time":"NA","snow":0.5,"date":"NA","precip":0.2,"id":"a6245syij49h","lat":38.443121,"station":"Penrose 1.7 WNW"},"type":"Feature","geometry":{"type":"Point","coordinates":[-105.039969,38.443121]}},{"properties":{"elevation":"N/A","lon":-107.181936,"zone":"CO002","time":"NA","snow":0.5,"date":"NA","precip":0.86,"id":"a6245sx0kerp","lat":39.459258,"station":"Carbondale 4.6 NNE"},"type":"Feature","geometry":{"type":"Point","coordinates":[-107.181936,39.459258]}},{"properties":{"elevation":"N/A","lon":-107.7699759,"zone":"CO002","time":"NA","snow":0.5,"date":"NA","precip":0.25,"id":"a6245t13dql5","lat":38.20125827,"station":"Ridgway 3.3 NNW"},"type":"Feature","geometry":{"type":"Point","coordinates":[-107.7699759,38.20125827]}},{"properties":{"elevation":"N/A","lon":-104.7258,"zone":"CO002","time":"NA","snow":0.3,"date":"NA","precip":0.08,"id":"a6245t5mtxbn","lat":37.212,"station":"Boncarbo 1.5 WSW"},"type":"Feature","geometry":{"type":"Point","coordinates":[-104.7258,37.212]}},{"properties":{"elevation":"N/A","lon":-104.743968,"zone":"CO002","time":"NA","snow":0.3,"date":"NA","precip":0.19,"id":"a6245swcbgvj","lat":38.30417,"station":"Pueblo West 3.4 SSW"},"type":"Feature","geometry":{"type":"Point","coordinates":[-104.743968,38.30417]}},{"properties":{"elevation":"N/A","lon":-106.1923972,"zone":"CO002","time":"NA","snow":0.2,"date":"NA","precip":0.05,"id":"a6245t9r8r4w","lat":38.5432444,"station":"Maysville 2.2 NE"},"type":"Feature","geometry":{"type":"Point","coordinates":[-106.1923972,38.5432444]}},{"properties":{"elevation":"N/A","lon":-106.9908,"zone":"CO003","time":"NA","snow":10.0,"date":"NA","precip":0.88,"id":"a6245sxn6msu","lat":38.9603,"station":"Crested Butte 6.2 N"},"type":"Feature","geometry":{"type":"Point","coordinates":[-106.9908,38.9603]}},{"properties":{"elevation":"N/A","lon":-106.3258,"zone":"CO003","time":"NA","snow":7.1,"date":"NA","precip":0.84,"id":"a6245sv794eb","lat":39.648,"station":"Vail 2.6 E"},"type":"Feature","geometry":{"type":"Point","coordinates":[-106.3258,39.648]}},{"properties":{"elevation":"N/A","lon":-106.395292,"zone":"CO003","time":"NA","snow":5.5,"date":"NA","precip":0.95,"id":"a6245syrgztm","lat":39.645013,"station":"Vail 0.9 WNW"},"type":"Feature","geometry":{"type":"Point","coordinates":[-106.395292,39.645013]}},{"properties":{"elevation":"N/A","lon":-106.532,"zone":"CO003","time":"NA","snow":5.5,"date":"NA","precip":0.73,"id":"a6245t36tgto","lat":40.14,"station":"Kremmling 10.0 NW"},"type":"Feature","geometry":{"type":"Point","coordinates":[-106.532,40.14]}},{"properties":{"elevation":"N/A","lon":-108.1042,"zone":"CO003","time":"NA","snow":3.3,"date":"NA","precip":1.16,"id":"a6245sw954qs","lat":39.0894,"station":"Mesa 5.7 SSE"},"type":"Feature","geometry":{"type":"Point","coordinates":[-108.1042,39.0894]}},{"properties":{"elevation":"N/A","lon":-106.9249,"zone":"CO003","time":"NA","snow":3.0,"date":"NA","precip":1.04,"id":"a6245t09djfw","lat":39.3793,"station":"Basalt 5.8 E"},"type":"Feature","geometry":{"type":"Point","coordinates":[-106.9249,39.3793]}},{"properties":{"elevation":"N/A","lon":-106.6806,"zone":"CO003","time":"NA","snow":2.5,"date":"NA","precip":0.52,"id":"a6245suao6hh","lat":39.7332,"station":"Wolcott 2.3 N"},"type":"Feature","geometry":{"type":"Point","coordinates":[-106.6806,39.7332]}},{"properties":{"elevation":"N/A","lon":-107.186667,"zone":"CO003","time":"NA","snow":2.5,"date":"NA","precip":0.66,"id":"a6245t91xx7n","lat":39.504444,"station":"Cattle Creek 5.1 NE"},"type":"Feature","geometry":{"type":"Point","coordinates":[-107.186667,39.504444]}},{"properties":{"elevation":"N/A","lon":-106.911,"zone":"CO003","time":"NA","snow":2.3,"date":"NA","precip":0.72,"id":"a6245ta23sxp","lat":39.6102,"station":"Gypsum 3.0 SE"},"type":"Feature","geometry":{"type":"Point","coordinates":[-106.911,39.6102]}},{"properties":{"elevation":"N/A","lon":-104.605968,"zone":"CO003","time":"NA","snow":2.3,"date":"NA","precip":0.18,"id":"a6245t41bs8a","lat":38.96213,"station":"Falcon 2.3 NNE"},"type":"Feature","geometry":{"type":"Point","coordinates":[-104.605968,38.96213]}},{"properties":{"elevation":"N/A","lon":-106.8092,"zone":"CO003","time":"NA","snow":1.9,"date":"NA","precip":0.41,"id":"a6245su6161a","lat":40.4848,"station":"Steamboat Springs 1.1 E"},"type":"Feature","geometry":{"type":"Point","coordinates":[-106.8092,40.4848]}},{"properties":{"elevation":"N/A","lon":-104.761167,"zone":"CO003","time":"NA","snow":1.8,"date":"NA","precip":0.24,"id":"a6245taf7srw","lat":38.8611,"station":"Colorado Springs 3.7 ENE"},"type":"Feature","geometry":{"type":"Point","coordinates":[-104.761167,38.8611]}},{"properties":{"elevation":"N/A","lon":-104.811452,"zone":"CO003","time":"NA","snow":1.8,"date":"NA","precip":0.21,"id":"a6245swrg6xn","lat":38.790916,"station":"Colorado Springs 3.0 S"},"type":"Feature","geometry":{"type":"Point","coordinates":[-104.811452,38.790916]}},{"properties":{"elevation":"N/A","lon":-107.6724,"zone":"CO003","time":"NA","snow":0.7,"date":"NA","precip":0.33,"id":"a6245sy3j5ur","lat":38.0259,"station":"Ouray .23 NNW"},"type":"Feature","geometry":{"type":"Point","coordinates":[-107.6724,38.0259]}},{"properties":{"elevation":"N/A","lon":-107.6673,"zone":"CO003","time":"NA","snow":0.7,"date":"NA","precip":0.6,"id":"a6245t7m2lng","lat":37.8112,"station":"Silverton .16 WSW"},"type":"Feature","geometry":{"type":"Point","coordinates":[-107.6673,37.8112]}},{"properties":{"elevation":"N/A","lon":-103.497007,"zone":"CO003","time":"NA","snow":0.6,"date":"NA","precip":0.06,"id":"a6245t03cp7x","lat":39.277678,"station":"Genoa 0.1 ESE"},"type":"Feature","geometry":{"type":"Point","coordinates":[-103.497007,39.277678]}},{"properties":{"elevation":"N/A","lon":-107.7488,"zone":"CO003","time":"NA","snow":0.6,"date":"NA","precip":0.49,"id":"a6245ta91qqr","lat":38.5246,"station":"Montrose 7.3 ENE"},"type":"Feature","geometry":{"type":"Point","coordinates":[-107.7488,38.5246]}},{"properties":{"elevation":"N/A","lon":-107.9203,"zone":"CO003","time":"NA","snow":0.2,"date":"NA","precip":0.52,"id":"a6245t41zd4x","lat":40.0407,"station":"Meeker 1.9 WSW"},"type":"Feature","geometry":{"type":"Point","coordinates":[-107.9203,40.0407]}},{"properties":{"elevation":"N/A","lon":-108.4177,"zone":"CO003","time":"NA","snow":0.1,"date":"NA","precip":0.53,"id":"a6245t00rsic","lat":37.4884,"station":"Dolores 4.8 ENE"},"type":"Feature","geometry":{"type":"Point","coordinates":[-108.4177,37.4884]}}],"is_temporal":false,"author":{"url":"","metadata":"","contact_name":"","contact_address":"","source":"","contact_phone":""},"source":"","pagination":{"sort":null,"start":0,"total":380,"limit":1000000},"state":"complete","tags":"","published":"2014-08-12T21:10:10-04:00","id":170160}