{"type":"FeatureCollection","data_type":"Dataset","url_type":null,"permissions":[{"permissions":{"download":true,"edit":true,"view":true},"group_id":32422},{"permissions":{"download":true,"view":true},"group_id":"everyone"}],"classification":null,"title":"dc playgroundloacations100411","count":392,"stream_id":187006,"contributor":{"url":"http://geocommons.com/users/32181","name":"rogeo"},"data_attributes":null,"calculation_params":null,"icon_link":null,"link":"http://geocommons.com/overlays/187006.json","extent":[-122.847,38.8255,-76.9192,45.9325],"geometry_types":["point"],"unique_name":null,"name":"dc playgroundloacations100411","feature_count":392,"description":"","next_feature":null,"is_raster":false,"short_classification":"Y","stats":{"private_ac":{"max":1,"mean":0.00255102040816327,"variance":0.00255102040816327,"stdev":0.0505076272276106,"min":0,"median":0},"5 stars":{"max":4,"mean":0.204081632653061,"variance":0.357221149329296,"stdev":0.597679805020461,"min":0,"median":0},"1 star":{"max":2,"mean":0.0433673469387755,"variance":0.0467078135602066,"stdev":0.216119905515912,"min":0,"median":0},"lng":{"max":-76.919171,"mean":-77.1284928112245,"variance":5.36092161251021,"stdev":2.31536640999005,"min":-122.846617,"median":-77.012453},"id":{"max":100051,"mean":41785.6071428571,"variance":1250010267.46164,"stdev":35355.4842628642,"min":33,"median":46822},"comment_co":{"max":53,"mean":0.239795918367347,"variance":7.78378307844885,"stdev":2.78994320344498,"min":0,"median":0},"photo_coun":{"max":16,"mean":1.01785714285714,"variance":5.67487212276216,"stdev":2.38219900989866,"min":0,"median":0},"2 stars":{"max":2,"mean":0.0561224489795918,"variance":0.0582232893157267,"stdev":0.241295025468257,"min":0,"median":0},"3 stars":{"max":2,"mean":0.135204081632653,"variance":0.137683334203247,"stdev":0.371057049795913,"min":0,"median":0},"lat":{"max":45.932502,"mean":38.9266857117347,"variance":0.127140808007055,"stdev":0.356568097292866,"min":38.825453,"median":38.91074},"4 stars":{"max":2,"mean":0.135204081632653,"variance":0.137683334203247,"stdev":0.371057049795913,"min":0,"median":0}},"features":[{"properties":{"name":"10th and Maryland","city":"Washington","descriptio":"Rubber surfacing.","private_ac":0,"5 stars":2,"comment_co":0,"id":"0","state_code":"DC","lng":-76.992645,"1 star":0,"photo_coun":2,"rating_cou":"18","2 stars":1,"address":"10th and C Streets NE","lat":38.885985,"3 stars":2,"4 stars":2},"type":"Feature","geometry":{"type":"Point","coordinates":[-76.992645,38.885985]}},{"properties":{"name":"10th Street Playground","city":"Washington","descriptio":"Separate play space for 2-5 year olds (tot lot).  Lots of climbing equipment, fi","private_ac":0,"5 stars":0,"comment_co":0,"id":"1","state_code":"DC","lng":-77.01666,"1 star":1,"photo_coun":2,"rating_cou":"5","2 stars":0,"address":"NULL","lat":38.91074,"3 stars":0,"4 stars":0},"type":"Feature","geometry":{"type":"Point","coordinates":[-77.01666,38.91074]}},{"properties":{"name":"16th Street Playground","city":"Washington","descriptio":"Playground and tennis courts in the Mt. Pleasant/Columbia Heights area.","private_ac":0,"5 stars":0,"comment_co":1,"id":"2","state_code":"DC","lng":-77.036374,"1 star":0,"photo_coun":6,"rating_cou":"3","2 stars":0,"address":"3149 16th Street NW","lat":38.930124,"3 stars":1,"4 stars":1},"type":"Feature","geometry":{"type":"Point","coordinates":[-77.036374,38.930124]}},{"properties":{"name":"1740 Kalorama Road","city":"Washington","descriptio":"Very simple playground; not in great shape","private_ac":0,"5 stars":0,"comment_co":0,"id":"3","state_code":"DC","lng":-77.040912,"1 star":0,"photo_coun":0,"rating_cou":"2","2 stars":1,"address":"Kalorama Road and Champlain St, NW","lat":38.920208,"3 stars":0,"4 stars":0},"type":"Feature","geometry":{"type":"Point","coordinates":[-77.040912,38.920208]}},{"properties":{"name":"23rd Street Playground","city":"Washington","descriptio":"Equipment by Playworld Systems Inc.","private_ac":0,"5 stars":0,"comment_co":0,"id":"4","state_code":"DC","lng":-76.974061,"1 star":0,"photo_coun":0,"rating_cou":"NULL","2 stars":0,"address":"23rd Street, S.E.","lat":38.860268,"3 stars":0,"4 stars":0},"type":"Feature","geometry":{"type":"Point","coordinates":[-76.974061,38.860268]}},{"properties":{"name":"3749 First Street","city":"Washington","descriptio":"Separate play space for 2-5 year olds (tot lot).","private_ac":0,"5 stars":0,"comment_co":0,"id":"5","state_code":"DC","lng":-77.006221,"1 star":0,"photo_coun":0,"rating_cou":"NULL","2 stars":0,"address":"3749 1st St Se","lat":38.835892,"3 stars":0,"4 stars":0},"type":"Feature","geometry":{"type":"Point","coordinates":[-77.006221,38.835892]}},{"properties":{"name":"42nd Street Playground","city":"Washington","descriptio":"On 42nd Street between Albemarle and Yuma.  Separate play space for 2-5 year old","private_ac":0,"5 stars":0,"comment_co":0,"id":"6","state_code":"DC","lng":-77.08175,"1 star":0,"photo_coun":4,"rating_cou":"8","2 stars":0,"address":"Albemarle and 42nd St. NW","lat":38.947318,"3 stars":0,"4 stars":0},"type":"Feature","geometry":{"type":"Point","coordinates":[-77.08175,38.947318]}},{"properties":{"name":"4th Street Playground","city":"Washington","descriptio":"Separate play space for 2-5 year olds (tot lot).  Bule and orange.  Several side","private_ac":0,"5 stars":0,"comment_co":0,"id":"7","state_code":"DC","lng":-77.000577,"1 star":0,"photo_coun":0,"rating_cou":"8","2 stars":0,"address":"4th and Maryland, NE","lat":38.893051,"3 stars":0,"4 stars":0},"type":"Feature","geometry":{"type":"Point","coordinates":[-77.000577,38.893051]}},{"properties":{"name":"5th &amp; E SE","city":"Washington","descriptio":null,"private_ac":0,"5 stars":1,"comment_co":0,"id":"8","state_code":"DC","lng":-76.999498,"1 star":0,"photo_coun":0,"rating_cou":"9","2 stars":0,"address":"5th and E Sts SE","lat":38.883244,"3 stars":0,"4 stars":0},"type":"Feature","geometry":{"type":"Point","coordinates":[-76.999498,38.883244]}},{"properties":{"name":"5th and C Street Playground","city":"Washington","descriptio":"Separate play space for 2-5 year olds (tot lot).  Green and Tan.  Includes a spi","private_ac":0,"5 stars":0,"comment_co":0,"id":"9","state_code":"DC","lng":-76.999516,"1 star":0,"photo_coun":0,"rating_cou":"11","2 stars":0,"address":"5th and C Street","lat":38.893043,"3 stars":1,"4 stars":1},"type":"Feature","geometry":{"type":"Point","coordinates":[-76.999516,38.893043]}},{"properties":{"name":"7th and P Street Playground","city":"Washington","descriptio":"Separate play space for 2-5 year olds (tot lot).  Red and green, many slides, mu","private_ac":0,"5 stars":0,"comment_co":0,"id":"10","state_code":"DC","lng":-77.021911,"1 star":0,"photo_coun":2,"rating_cou":"11","2 stars":0,"address":"7th and P Street","lat":38.909664,"3 stars":1,"4 stars":1},"type":"Feature","geometry":{"type":"Point","coordinates":[-77.021911,38.909664]}},{"properties":{"name":"A","city":"Washington","descriptio":"A","private_ac":0,"5 stars":0,"comment_co":0,"id":"11","state_code":"DC","lng":-77.051872,"1 star":0,"photo_coun":0,"rating_cou":"NULL","2 stars":0,"address":"Connecticut Ave Nw","lat":38.940719,"3 stars":0,"4 stars":0},"type":"Feature","geometry":{"type":"Point","coordinates":[-77.051872,38.940719]}},{"properties":{"name":"Adams Elementary School","city":"Washington","descriptio":"Public school: Facilities available for play during non-school hours.","private_ac":0,"5 stars":0,"comment_co":0,"id":"12","state_code":"DC","lng":-77.044018,"1 star":0,"photo_coun":0,"rating_cou":"NULL","2 stars":0,"address":"2020 19th St NW","lat":38.917395,"3 stars":0,"4 stars":0},"type":"Feature","geometry":{"type":"Point","coordinates":[-77.044018,38.917395]}},{"properties":{"name":"Aiton Elementary School","city":"Washington","descriptio":"The central core, or PlayOdysseyu2122 deck supplies tremendous opportunity. The","private_ac":0,"5 stars":0,"comment_co":0,"id":"13","state_code":"DC","lng":-76.934047,"1 star":0,"photo_coun":0,"rating_cou":"NULL","2 stars":0,"address":"533 48th Pl. NE","lat":38.896107,"3 stars":0,"4 stars":0},"type":"Feature","geometry":{"type":"Point","coordinates":[-76.934047,38.896107]}},{"properties":{"name":"Ambassador Baptist Church","city":"Washington","descriptio":"Its a magical masterpiece! Despite limited space this church maximized this area","private_ac":0,"5 stars":0,"comment_co":0,"id":"14","state_code":"DC","lng":-76.984172,"1 star":0,"photo_coun":0,"rating_cou":"NULL","2 stars":0,"address":"1412 Minnesota Ave., SE","lat":38.867039,"3 stars":0,"4 stars":0},"type":"Feature","geometry":{"type":"Point","coordinates":[-76.984172,38.867039]}},{"properties":{"name":"Amidon Elementary School","city":"Washington","descriptio":"Public school: Facilities available for play during non-school hours.","private_ac":0,"5 stars":0,"comment_co":0,"id":"15","state_code":"DC","lng":-77.017558,"1 star":0,"photo_coun":0,"rating_cou":"NULL","2 stars":0,"address":"401 I St Sw","lat":38.879253,"3 stars":0,"4 stars":0},"type":"Feature","geometry":{"type":"Point","coordinates":[-77.017558,38.879253]}},{"properties":{"name":"Amidon Park","city":"Washington","descriptio":"Separate play space for 2-5 year olds (tot lot).  _x000D__x000D__x000D__x000D__x","private_ac":0,"5 stars":0,"comment_co":0,"id":"16","state_code":"DC","lng":-77.018321,"1 star":0,"photo_coun":0,"rating_cou":"NULL","2 stars":0,"address":"400 I St Sw","lat":38.879029,"3 stars":0,"4 stars":0},"type":"Feature","geometry":{"type":"Point","coordinates":[-77.018321,38.879029]}},{"properties":{"name":"Anacostia High School","city":"Washington","descriptio":"Public school: Facilities available for play during non-school hours.","private_ac":0,"5 stars":0,"comment_co":0,"id":"17","state_code":"DC","lng":-76.982229,"1 star":0,"photo_coun":0,"rating_cou":"NULL","2 stars":0,"address":"1601 16th St Se","lat":38.870724,"3 stars":0,"4 stars":0},"type":"Feature","geometry":{"type":"Point","coordinates":[-76.982229,38.870724]}},{"properties":{"name":"Anacostia Rd","city":"Washington","descriptio":"Playground","private_ac":0,"5 stars":0,"comment_co":0,"id":"18","state_code":"DC","lng":-76.953981,"1 star":0,"photo_coun":0,"rating_cou":"NULL","2 stars":0,"address":"Anacostia Rd SE","lat":38.886639,"3 stars":0,"4 stars":0},"type":"Feature","geometry":{"type":"Point","coordinates":[-76.953981,38.886639]}},{"properties":{"name":"Arboretum Community Center","city":"Washington","descriptio":"The facility has three playgrounds, two picnic areas, a public vegetable garden","private_ac":0,"5 stars":0,"comment_co":0,"id":"19","state_code":"DC","lng":-76.971748,"1 star":0,"photo_coun":0,"rating_cou":"NULL","2 stars":0,"address":"2412 Rand Pl NE","lat":38.913359,"3 stars":0,"4 stars":0},"type":"Feature","geometry":{"type":"Point","coordinates":[-76.971748,38.913359]}},{"properties":{"name":"Associates for Renewal In Education, Inc. Playground","city":"Washington","descriptio":"Not only does this playground sport an awesome design, it also represents the ho","private_ac":0,"5 stars":1,"comment_co":0,"id":"20","state_code":"DC","lng":-77.010552,"1 star":0,"photo_coun":5,"rating_cou":"5","2 stars":0,"address":"45 P Street, NW","lat":38.909715,"3 stars":0,"4 stars":0},"type":"Feature","geometry":{"type":"Point","coordinates":[-77.010552,38.909715]}},{"properties":{"name":"Backus Middle School","city":"Washington","descriptio":"Public school: Facilities available for play during non-school hours.","private_ac":0,"5 stars":0,"comment_co":0,"id":"21","state_code":"DC","lng":-76.996661,"1 star":0,"photo_coun":0,"rating_cou":"NULL","2 stars":0,"address":"5171 S Dakota Ave Ne","lat":38.952526,"3 stars":0,"4 stars":0},"type":"Feature","geometry":{"type":"Point","coordinates":[-76.996661,38.952526]}},{"properties":{"name":"Bald Eagle Recreation Center","city":"Washington","descriptio":"Separate play space for 2-5 year olds (tot lot).","private_ac":0,"5 stars":0,"comment_co":0,"id":"22","state_code":"DC","lng":-77.035775,"1 star":0,"photo_coun":0,"rating_cou":"NULL","2 stars":0,"address":"3149 16th St NW","lat":38.930071,"3 stars":0,"4 stars":0},"type":"Feature","geometry":{"type":"Point","coordinates":[-77.035775,38.930071]}},{"properties":{"name":"Ballou Stay","city":"Washington","descriptio":"Public school: Facilities available for play during non-school hours.","private_ac":0,"5 stars":0,"comment_co":0,"id":"23","state_code":"DC","lng":-77.000548,"1 star":0,"photo_coun":0,"rating_cou":"NULL","2 stars":0,"address":"3401 4th St Se","lat":38.840349,"3 stars":0,"4 stars":0},"type":"Feature","geometry":{"type":"Point","coordinates":[-77.000548,38.840349]}},{"properties":{"name":"Bancroft Elementary School","city":"Washington","descriptio":"Public school: Facilities available for play during non-school hours.","private_ac":0,"5 stars":1,"comment_co":1,"id":"24","state_code":"DC","lng":-77.040282,"1 star":0,"photo_coun":4,"rating_cou":"9","2 stars":0,"address":"1755 Newton St NW","lat":38.934151,"3 stars":0,"4 stars":0},"type":"Feature","geometry":{"type":"Point","coordinates":[-77.040282,38.934151]}},{"properties":{"name":"Banneker Community Center","city":"Washington","descriptio":"This is a HUGE space with lots of activities for the whole family.  Tennis Court","private_ac":0,"5 stars":0,"comment_co":0,"id":"25","state_code":"DC","lng":-77.022938,"1 star":0,"photo_coun":2,"rating_cou":"4","2 stars":0,"address":"2500 Georgia Ave, NW","lat":38.922711,"3 stars":0,"4 stars":0},"type":"Feature","geometry":{"type":"Point","coordinates":[-77.022938,38.922711]}},{"properties":{"name":"Banneker High School","city":"Washington","descriptio":"Public school: Facilities available for play during non-school hours.","private_ac":0,"5 stars":0,"comment_co":0,"id":"26","state_code":"DC","lng":-77.023481,"1 star":0,"photo_coun":0,"rating_cou":"NULL","2 stars":0,"address":"800 Euclid St NW","lat":38.924113,"3 stars":0,"4 stars":0},"type":"Feature","geometry":{"type":"Point","coordinates":[-77.023481,38.924113]}},{"properties":{"name":"Barbara Jordan Public Charter School","city":"Washington","descriptio":"Public school: Facilities available for play during non-school hours.","private_ac":0,"5 stars":0,"comment_co":0,"id":"27","state_code":"DC","lng":-77.012453,"1 star":0,"photo_coun":0,"rating_cou":"NULL","2 stars":0,"address":"100 Peabody St NW","lat":38.962648,"3 stars":0,"4 stars":0},"type":"Feature","geometry":{"type":"Point","coordinates":[-77.012453,38.962648]}},{"properties":{"name":"Barnard Elementary School","city":"Washington","descriptio":"Public school: Facilities available for play during non-school hours.","private_ac":0,"5 stars":0,"comment_co":0,"id":"28","state_code":"DC","lng":-77.018482,"1 star":0,"photo_coun":0,"rating_cou":"NULL","2 stars":0,"address":"430 Decatur St NW","lat":38.947922,"3 stars":0,"4 stars":0},"type":"Feature","geometry":{"type":"Point","coordinates":[-77.018482,38.947922]}},{"properties":{"name":"Barry Farm","city":"Washington D.C.","descriptio":null,"private_ac":0,"5 stars":0,"comment_co":0,"id":"29","state_code":"DC","lng":-76.996632,"1 star":0,"photo_coun":0,"rating_cou":"3","2 stars":0,"address":"1230 Sumner Road SE","lat":38.860736,"3 stars":1,"4 stars":1},"type":"Feature","geometry":{"type":"Point","coordinates":[-76.996632,38.860736]}},{"properties":{"name":"Baseball Field at Lincoln Mulitcultural Middle School","city":"Washington","descriptio":null,"private_ac":0,"5 stars":0,"comment_co":0,"id":"30","state_code":"DC","lng":-77.036033,"1 star":0,"photo_coun":0,"rating_cou":"3","2 stars":0,"address":"3101 16th St NW","lat":38.929998,"3 stars":1,"4 stars":1},"type":"Feature","geometry":{"type":"Point","coordinates":[-77.036033,38.929998]}},{"properties":{"name":"Basketball Court","city":"Washington","descriptio":null,"private_ac":0,"5 stars":0,"comment_co":0,"id":"31","state_code":"DC","lng":-77.036341,"1 star":0,"photo_coun":0,"rating_cou":"2","2 stars":1,"address":"Taylor Street NW and 16th Street NW","lat":38.940762,"3 stars":0,"4 stars":0},"type":"Feature","geometry":{"type":"Point","coordinates":[-77.036341,38.940762]}},{"properties":{"name":"Beauvoir National Cathedral Elementary School Playground","city":"Washington","descriptio":"This playground is attached to the Beauvoir school and features a space for the","private_ac":0,"5 stars":0,"comment_co":0,"id":"32","state_code":"DC","lng":-77.066386,"1 star":0,"photo_coun":2,"rating_cou":"NULL","2 stars":0,"address":"34 St. and Cathedral Avenue","lat":38.929007,"3 stars":0,"4 stars":0},"type":"Feature","geometry":{"type":"Point","coordinates":[-77.066386,38.929007]}},{"properties":{"name":"Beers Elementary School","city":"Washington","descriptio":"Public school: Facilities available for play during non-school hours.","private_ac":0,"5 stars":0,"comment_co":0,"id":"33","state_code":"DC","lng":-76.956372,"1 star":0,"photo_coun":0,"rating_cou":"NULL","2 stars":0,"address":"3600 Alabama Ave Se","lat":38.863184,"3 stars":0,"4 stars":0},"type":"Feature","geometry":{"type":"Point","coordinates":[-76.956372,38.863184]}},{"properties":{"name":"Bell High School","city":"Washington","descriptio":"Public school: Facilities available for play during non-school hours.","private_ac":0,"5 stars":0,"comment_co":0,"id":"34","state_code":"DC","lng":-77.034681,"1 star":0,"photo_coun":0,"rating_cou":"NULL","2 stars":0,"address":"3145 Hiatt Pl NW","lat":38.929172,"3 stars":0,"4 stars":0},"type":"Feature","geometry":{"type":"Point","coordinates":[-77.034681,38.929172]}},{"properties":{"name":"Benning Elementary School","city":"Washington","descriptio":"Public school: Facilities available for play during non-school hours.","private_ac":0,"5 stars":0,"comment_co":0,"id":"35","state_code":"DC","lng":-76.944506,"1 star":0,"photo_coun":0,"rating_cou":"NULL","2 stars":0,"address":"100 41st St Ne","lat":38.89089,"3 stars":0,"4 stars":0},"type":"Feature","geometry":{"type":"Point","coordinates":[-76.944506,38.89089]}},{"properties":{"name":"Benning Park Recreation Center","city":"Washington","descriptio":"Accesible for children two to five years old.","private_ac":0,"5 stars":0,"comment_co":0,"id":"36","state_code":"DC","lng":-76.929316,"1 star":0,"photo_coun":0,"rating_cou":"NULL","2 stars":0,"address":"Ì†51st and Fitch Street","lat":38.880674,"3 stars":0,"4 stars":0},"type":"Feature","geometry":{"type":"Point","coordinates":[-76.929316,38.880674]}},{"properties":{"name":"Benning Stoddert Recreation Center","city":"Washington","descriptio":"Sports field and recreation center","private_ac":0,"5 stars":0,"comment_co":0,"id":"37","state_code":"DC","lng":-76.948305,"1 star":0,"photo_coun":0,"rating_cou":"NULL","2 stars":0,"address":"100 Stoddert Place, SE","lat":38.888372,"3 stars":0,"4 stars":0},"type":"Feature","geometry":{"type":"Point","coordinates":[-76.948305,38.888372]}},{"properties":{"name":"Benning Terrace Apartments","city":"Washington","descriptio":"This community built Playstructure is equipped with the versatile Corkscrew. An","private_ac":0,"5 stars":0,"comment_co":0,"id":"38","state_code":"DC","lng":-76.936993,"1 star":0,"photo_coun":0,"rating_cou":"NULL","2 stars":0,"address":"4450 G Street, SE","lat":38.880591,"3 stars":0,"4 stars":0},"type":"Feature","geometry":{"type":"Point","coordinates":[-76.936993,38.880591]}},{"properties":{"name":"Benning Terrace Apartments Playgrounds","city":"South East","descriptio":"NULL","private_ac":0,"5 stars":0,"comment_co":0,"id":"39","state_code":"DC","lng":-76.936993,"1 star":0,"photo_coun":0,"rating_cou":"NULL","2 stars":0,"address":"4450 G Street","lat":38.880591,"3 stars":0,"4 stars":0},"type":"Feature","geometry":{"type":"Point","coordinates":[-76.936993,38.880591]}},{"properties":{"name":"Birney Elementary School","city":"Washington","descriptio":"Public school: Facilities available for play during non-school hours.","private_ac":0,"5 stars":0,"comment_co":0,"id":"40","state_code":"DC","lng":-76.994166,"1 star":0,"photo_coun":0,"rating_cou":"NULL","2 stars":0,"address":"2501 M L King Jr Ave","lat":38.861564,"3 stars":0,"4 stars":0},"type":"Feature","geometry":{"type":"Point","coordinates":[-76.994166,38.861564]}},{"properties":{"name":"Bishop Walker School","city":"Washington","descriptio":"This school now has a new playground!","private_ac":0,"5 stars":1,"comment_co":0,"id":"41","state_code":"DC","lng":-77.00534,"1 star":0,"photo_coun":9,"rating_cou":"5","2 stars":0,"address":"3640 Martin Luther King Jr Blvd","lat":38.838281,"3 stars":0,"4 stars":0},"type":"Feature","geometry":{"type":"Point","coordinates":[-77.00534,38.838281]}},{"properties":{"name":"Bowen Elementary School","city":"Washington","descriptio":"Public school: Facilities available for play during non-school hours.","private_ac":0,"5 stars":0,"comment_co":0,"id":"42","state_code":"DC","lng":-77.012176,"1 star":0,"photo_coun":0,"rating_cou":"NULL","2 stars":0,"address":"101 M St Sw","lat":38.876531,"3 stars":0,"4 stars":0},"type":"Feature","geometry":{"type":"Point","coordinates":[-77.012176,38.876531]}},{"properties":{"name":"Boys &amp; Girls Clubs of Greater Washington: Jellef Branch","city":"Washington","descriptio":"This site has a field and outdoor pool.","private_ac":0,"5 stars":0,"comment_co":0,"id":"43","state_code":"DC","lng":-77.066177,"1 star":0,"photo_coun":0,"rating_cou":"NULL","2 stars":0,"address":"3265 S Street, NW","lat":38.915633,"3 stars":0,"4 stars":0},"type":"Feature","geometry":{"type":"Point","coordinates":[-77.066177,38.915633]}},{"properties":{"name":"Brent Elementary School","city":"Washington","descriptio":"Public school: Facilities available for play during non-school hours.","private_ac":0,"5 stars":0,"comment_co":0,"id":"44","state_code":"DC","lng":-77.002035,"1 star":0,"photo_coun":0,"rating_cou":"NULL","2 stars":0,"address":"330 3rd St Ne","lat":38.894263,"3 stars":0,"4 stars":0},"type":"Feature","geometry":{"type":"Point","coordinates":[-77.002035,38.894263]}},{"properties":{"name":"Brentwood Recreation Center","city":"Washington","descriptio":"This recreation center has two playgrounds, a basketball and tennis court as wel","private_ac":0,"5 stars":0,"comment_co":0,"id":"45","state_code":"DC","lng":-76.98294,"1 star":0,"photo_coun":0,"rating_cou":"NULL","2 stars":0,"address":"2311 14th St NE","lat":38.920861,"3 stars":0,"4 stars":0},"type":"Feature","geometry":{"type":"Point","coordinates":[-76.98294,38.920861]}},{"properties":{"name":"Brightwood Elementary School","city":"Washington","descriptio":"Public school: Facilities available for play during non-school hours.","private_ac":0,"5 stars":0,"comment_co":0,"id":"46","state_code":"DC","lng":-77.030286,"1 star":0,"photo_coun":0,"rating_cou":"NULL","2 stars":0,"address":"1300 Nicholson St NW","lat":38.96019,"3 stars":0,"4 stars":0},"type":"Feature","geometry":{"type":"Point","coordinates":[-77.030286,38.96019]}},{"properties":{"name":"Brookland Elementary School","city":"Washington","descriptio":"Public school: Facilities available for play during non-school hours.","private_ac":0,"5 stars":0,"comment_co":0,"id":"47","state_code":"DC","lng":-76.990275,"1 star":0,"photo_coun":0,"rating_cou":"3","2 stars":0,"address":"1150 Michigan Ave Ne","lat":38.938677,"3 stars":1,"4 stars":1},"type":"Feature","geometry":{"type":"Point","coordinates":[-76.990275,38.938677]}},{"properties":{"name":"Brookland Manor","city":"Washington","descriptio":"Separate play space for 2-5 year olds (tot lot).  Adventure Bridge, Turbo Tower,","private_ac":0,"5 stars":0,"comment_co":0,"id":"48","state_code":"DC","lng":-76.985317,"1 star":0,"photo_coun":1,"rating_cou":"NULL","2 stars":0,"address":"2504 14th St Ne","lat":38.924166,"3 stars":0,"4 stars":0},"type":"Feature","geometry":{"type":"Point","coordinates":[-76.985317,38.924166]}},{"properties":{"name":"Brown, Ronald Middle School","city":"Washington","descriptio":"Public school: Facilities available for play during non-school hours.","private_ac":0,"5 stars":0,"comment_co":0,"id":"49","state_code":"DC","lng":-76.933676,"1 star":0,"photo_coun":0,"rating_cou":"NULL","2 stars":0,"address":"4800 Meade St Ne","lat":38.90607,"3 stars":0,"4 stars":0},"type":"Feature","geometry":{"type":"Point","coordinates":[-76.933676,38.90607]}},{"properties":{"name":"Browne Junior High School","city":"Washington","descriptio":"Public school: Facilities available for play during non-school hours.","private_ac":0,"5 stars":0,"comment_co":0,"id":"50","state_code":"DC","lng":-76.970163,"1 star":0,"photo_coun":0,"rating_cou":"NULL","2 stars":0,"address":"850 26th St Ne","lat":38.901918,"3 stars":0,"4 stars":0},"type":"Feature","geometry":{"type":"Point","coordinates":[-76.970163,38.901918]}},{"properties":{"name":"Bruce Monroe Community Park","city":"Washington","descriptio":"Large community park between Columbia Rd and Irving St NW on west side of Georgi","private_ac":0,"5 stars":0,"comment_co":0,"id":"51","state_code":"DC","lng":-77.023229,"1 star":0,"photo_coun":0,"rating_cou":"NULL","2 stars":0,"address":"Georgia Ave NW and Columbia Rd","lat":38.929041,"3 stars":0,"4 stars":0},"type":"Feature","geometry":{"type":"Point","coordinates":[-77.023229,38.929041]}},{"properties":{"name":"Bruce Monroe Community Park","city":"Washington","descriptio":"This park will eventually be developed into a retail and apartments, but for now","private_ac":0,"5 stars":0,"comment_co":0,"id":"52","state_code":"DC","lng":-77.023091,"1 star":0,"photo_coun":0,"rating_cou":"NULL","2 stars":0,"address":"Georgia Street NW and Irving Street NW","lat":38.928123,"3 stars":0,"4 stars":0},"type":"Feature","geometry":{"type":"Point","coordinates":[-77.023091,38.928123]}},{"properties":{"name":"Building Bridges Across the River","city":"Washington","descriptio":"Separate play space for 2-5 year olds (tot lot).  Trippple Racer, 0-12 ramp, arc","private_ac":0,"5 stars":0,"comment_co":0,"id":"53","state_code":"DC","lng":-76.97296,"1 star":0,"photo_coun":2,"rating_cou":"NULL","2 stars":0,"address":"1901 Mississippi Ave","lat":38.862289,"3 stars":0,"4 stars":0},"type":"Feature","geometry":{"type":"Point","coordinates":[-76.97296,38.862289]}},{"properties":{"name":"Bunker Hill Elementary School","city":"Washington","descriptio":"Public school: Facilities available for play during non-school hours.","private_ac":0,"5 stars":0,"comment_co":0,"id":"54","state_code":"DC","lng":-76.984938,"1 star":0,"photo_coun":0,"rating_cou":"NULL","2 stars":0,"address":"1401 Michigan Ave Ne","lat":38.941905,"3 stars":0,"4 stars":0},"type":"Feature","geometry":{"type":"Point","coordinates":[-76.984938,38.941905]}},{"properties":{"name":"Burleith Tot Lot","city":"Washington","descriptio":"A great, cool and shaded park in the summer, perfect for little babies through a","private_ac":0,"5 stars":0,"comment_co":0,"id":"55","state_code":"DC","lng":-77.069296,"1 star":0,"photo_coun":0,"rating_cou":"NULL","2 stars":0,"address":"35th Street and S Street","lat":38.91453,"3 stars":0,"4 stars":0},"type":"Feature","geometry":{"type":"Point","coordinates":[-77.069296,38.91453]}},{"properties":{"name":"Burrville Elementary School","city":"Washington","descriptio":"Public school: Facilities available for play during non-school hours.","private_ac":0,"5 stars":0,"comment_co":0,"id":"56","state_code":"DC","lng":-76.925031,"1 star":0,"photo_coun":0,"rating_cou":"NULL","2 stars":0,"address":"801 Division Ave Ne","lat":38.899905,"3 stars":0,"4 stars":0},"type":"Feature","geometry":{"type":"Point","coordinates":[-76.925031,38.899905]}},{"properties":{"name":"Capital City Public Charter School","city":"Washington","descriptio":"Public school: Facilities available for play during non-school hours.","private_ac":0,"5 stars":0,"comment_co":0,"id":"57","state_code":"DC","lng":-77.035841,"1 star":0,"photo_coun":0,"rating_cou":"NULL","2 stars":0,"address":"3047 15th St NW","lat":38.928512,"3 stars":0,"4 stars":0},"type":"Feature","geometry":{"type":"Point","coordinates":[-77.035841,38.928512]}},{"properties":{"name":"Capitol East Natatorium","city":"Washington","descriptio":"Please let us know if this is not a valid playspace: webmaster@kaboom.org","private_ac":0,"5 stars":0,"comment_co":0,"id":"58","state_code":"DC","lng":-76.997468,"1 star":0,"photo_coun":0,"rating_cou":"NULL","2 stars":0,"address":"635 N Carolina Ave Se","lat":38.886879,"3 stars":0,"4 stars":0},"type":"Feature","geometry":{"type":"Point","coordinates":[-76.997468,38.886879]}},{"properties":{"name":"Cardozo High School","city":"Washington","descriptio":"Public school: Facilities available for play during non-school hours.","private_ac":0,"5 stars":0,"comment_co":0,"id":"59","state_code":"DC","lng":-77.030505,"1 star":0,"photo_coun":0,"rating_cou":"NULL","2 stars":0,"address":"1300 Clifton St NW","lat":38.922437,"3 stars":0,"4 stars":0},"type":"Feature","geometry":{"type":"Point","coordinates":[-77.030505,38.922437]}},{"properties":{"name":"Carlos Rosario International Charter School","city":"Washington","descriptio":"This playspace is shared by CentroNia and the Carlos Rosario International Chart","private_ac":0,"5 stars":0,"comment_co":0,"id":"60","state_code":"DC","lng":-77.027464,"1 star":0,"photo_coun":2,"rating_cou":"NULL","2 stars":0,"address":"1100 Harvard St., NW","lat":38.926565,"3 stars":0,"4 stars":0},"type":"Feature","geometry":{"type":"Point","coordinates":[-77.027464,38.926565]}},{"properties":{"name":"Chamberlain","city":"Washington, DC","descriptio":"NULL","private_ac":0,"5 stars":0,"comment_co":0,"id":"61","state_code":"DC","lng":-76.986854,"1 star":0,"photo_coun":0,"rating_cou":"NULL","2 stars":0,"address":"1345 Potomac Avenue, SE","lat":38.879763,"3 stars":0,"4 stars":0},"type":"Feature","geometry":{"type":"Point","coordinates":[-76.986854,38.879763]}},{"properties":{"name":"Chevy Chase Baptist Church Playground","city":"NW, Washington","descriptio":"This small playground has new equipment and a few different playsets and play ar","private_ac":0,"5 stars":0,"comment_co":0,"id":"62","state_code":"DC","lng":-77.078324,"1 star":0,"photo_coun":0,"rating_cou":"NULL","2 stars":0,"address":"5671 Western Ave","lat":38.96621,"3 stars":0,"4 stars":0},"type":"Feature","geometry":{"type":"Point","coordinates":[-77.078324,38.96621]}},{"properties":{"name":"Chevy Chase Baptist Church Playground","city":"NW, Washington","descriptio":"This small playground has new equipment and a few different playsets and play ar","private_ac":0,"5 stars":0,"comment_co":0,"id":"63","state_code":"DC","lng":-77.078324,"1 star":0,"photo_coun":0,"rating_cou":"NULL","2 stars":0,"address":"5671 Western Ave","lat":38.96621,"3 stars":0,"4 stars":0},"type":"Feature","geometry":{"type":"Point","coordinates":[-77.078324,38.96621]}},{"properties":{"name":"Chevy Chase Playground &amp; Pre-School","city":"Washington","descriptio":"Part of the DC parks &amp; Rec system, this playground has a playground for 5 to 12","private_ac":0,"5 stars":2,"comment_co":0,"id":"64","state_code":"DC","lng":-77.081037,"1 star":0,"photo_coun":3,"rating_cou":"18","2 stars":0,"address":"4101 Livingston","lat":38.963086,"3 stars":0,"4 stars":0},"type":"Feature","geometry":{"type":"Point","coordinates":[-77.081037,38.963086]}},{"properties":{"name":"Chevy Chase Presbyterian Church","city":"Washington","descriptio":"Separate play space for 2-5 year olds (tot lot.)  Directly next to a parking lot","private_ac":0,"5 stars":0,"comment_co":1,"id":"65","state_code":"DC","lng":-77.075758,"1 star":0,"photo_coun":2,"rating_cou":"3","2 stars":0,"address":"One Chevy Chase Circle","lat":38.967311,"3 stars":1,"4 stars":1},"type":"Feature","geometry":{"type":"Point","coordinates":[-77.075758,38.967311]}},{"properties":{"name":"Chevy Chase Recreation Center","city":"Washington","descriptio":"A tot lot that has a sandbox, two very small portable Little Tikes slides, and t","private_ac":0,"5 stars":0,"comment_co":0,"id":"66","state_code":"DC","lng":-77.075568,"1 star":1,"photo_coun":2,"rating_cou":"1","2 stars":0,"address":"5601 Connecticut Avenue","lat":38.964902,"3 stars":0,"4 stars":0},"type":"Feature","geometry":{"type":"Point","coordinates":[-77.075568,38.964902]}},{"properties":{"name":"Children of Mine Center","city":"Washington","descriptio":"Separate play space for 2-5 year olds (tot lot).","private_ac":0,"5 stars":0,"comment_co":0,"id":"67","state_code":"DC","lng":-76.99052,"1 star":0,"photo_coun":4,"rating_cou":"NULL","2 stars":0,"address":"2263 Mount View Place, SE","lat":38.862808,"3 stars":0,"4 stars":0},"type":"Feature","geometry":{"type":"Point","coordinates":[-76.99052,38.862808]}},{"properties":{"name":"Church Playground","city":"Washington","descriptio":null,"private_ac":0,"5 stars":0,"comment_co":0,"id":"68","state_code":"DC","lng":-77.078348,"1 star":0,"photo_coun":1,"rating_cou":"NULL","2 stars":0,"address":"5671 Western Ave NW","lat":38.966326,"3 stars":0,"4 stars":0},"type":"Feature","geometry":{"type":"Point","coordinates":[-77.078348,38.966326]}},{"properties":{"name":"Cleveland Elementary School Playground","city":"Washington","descriptio":"School Playground","private_ac":0,"5 stars":0,"comment_co":0,"id":"69","state_code":"DC","lng":-77.022908,"1 star":0,"photo_coun":0,"rating_cou":"NULL","2 stars":0,"address":"1825 8th St. NW","lat":38.914826,"3 stars":0,"4 stars":0},"type":"Feature","geometry":{"type":"Point","coordinates":[-77.022908,38.914826]}},{"properties":{"name":"Columbia Heights Community Center","city":"Washington","descriptio":"This site has a basketball court, playground and fitness center.","private_ac":0,"5 stars":0,"comment_co":0,"id":"70","state_code":"DC","lng":-77.034707,"1 star":0,"photo_coun":0,"rating_cou":"NULL","2 stars":0,"address":"1480 Girard Street, NW","lat":38.92482,"3 stars":0,"4 stars":0},"type":"Feature","geometry":{"type":"Point","coordinates":[-77.034707,38.92482]}},{"properties":{"name":"Community Academy Public Charter School","city":"Washington","descriptio":"Public school: Facilities available for play during non-school hours.","private_ac":0,"5 stars":0,"comment_co":0,"id":"71","state_code":"DC","lng":-77.0305,"1 star":0,"photo_coun":0,"rating_cou":"NULL","2 stars":0,"address":"1300 Allison St NW","lat":38.944657,"3 stars":0,"4 stars":0},"type":"Feature","geometry":{"type":"Point","coordinates":[-77.0305,38.944657]}},{"properties":{"name":"Community Services Center","city":"Washington","descriptio":"Separate play space for 2-5 year olds (tot lot).  Toddler Town w/primary color o","private_ac":0,"5 stars":0,"comment_co":0,"id":"72","state_code":"DC","lng":-76.976412,"1 star":0,"photo_coun":0,"rating_cou":"NULL","2 stars":0,"address":"2001 Mississippi Ave","lat":38.843023,"3 stars":0,"4 stars":0},"type":"Feature","geometry":{"type":"Point","coordinates":[-76.976412,38.843023]}},{"properties":{"name":"Cook Elementary School","city":"Washington","descriptio":"Public school: Facilities available for play during non-school hours.","private_ac":0,"5 stars":0,"comment_co":0,"id":"73","state_code":"DC","lng":-77.009889,"1 star":0,"photo_coun":0,"rating_cou":"NULL","2 stars":0,"address":"30 P St NW","lat":38.909632,"3 stars":0,"4 stars":0},"type":"Feature","geometry":{"type":"Point","coordinates":[-77.009889,38.909632]}},{"properties":{"name":"Cooke Elementary School","city":"Washington","descriptio":"Public school: Facilities available for play during non-school hours.","private_ac":0,"5 stars":0,"comment_co":0,"id":"74","state_code":"DC","lng":-77.038385,"1 star":0,"photo_coun":0,"rating_cou":"NULL","2 stars":0,"address":"2525 17th St NW","lat":38.923768,"3 stars":0,"4 stars":0},"type":"Feature","geometry":{"type":"Point","coordinates":[-77.038385,38.923768]}},{"properties":{"name":"Coolidge High School","city":"Washington","descriptio":"Public school: Facilities available for play during non-school hours.","private_ac":0,"5 stars":0,"comment_co":0,"id":"75","state_code":"DC","lng":-77.019876,"1 star":0,"photo_coun":0,"rating_cou":"NULL","2 stars":0,"address":"6315 5th St NW","lat":38.966177,"3 stars":0,"4 stars":0},"type":"Feature","geometry":{"type":"Point","coordinates":[-77.019876,38.966177]}},{"properties":{"name":"Cornerstone Schools of DC Playground","city":"Washington","descriptio":"School Playground for Cornerstone Schools of Washington DC","private_ac":0,"5 stars":0,"comment_co":0,"id":"76","state_code":"DC","lng":-76.947224,"1 star":0,"photo_coun":8,"rating_cou":"NULL","2 stars":0,"address":"Ely and Ridge Rd","lat":38.883772,"3 stars":0,"4 stars":0},"type":"Feature","geometry":{"type":"Point","coordinates":[-76.947224,38.883772]}},{"properties":{"name":"D.C. General Shelter","city":"Washington, DC","descriptio":"This is the largest emergency shelter for homeless families in D.C. where 400 ch","private_ac":0,"5 stars":0,"comment_co":0,"id":"77","state_code":"DC","lng":-76.975944,"1 star":0,"photo_coun":0,"rating_cou":"NULL","2 stars":0,"address":"1900 Massachusetts Ave. SE","lat":38.885855,"3 stars":0,"4 stars":0},"type":"Feature","geometry":{"type":"Point","coordinates":[-76.975944,38.885855]}},{"properties":{"name":"Davis Elementary School Playground","city":"Washington","descriptio":"School Playground","private_ac":0,"5 stars":0,"comment_co":0,"id":"78","state_code":"DC","lng":-76.93705,"1 star":0,"photo_coun":0,"rating_cou":"NULL","2 stars":0,"address":"4430 H St. SE","lat":38.87866,"3 stars":0,"4 stars":0},"type":"Feature","geometry":{"type":"Point","coordinates":[-76.93705,38.87866]}},{"properties":{"name":"DC Prep Edgewood Elementary","city":"Washington","descriptio":"DC Prep is a public charter school in Washington, D.C. This campus (which opene","private_ac":0,"5 stars":4,"comment_co":11,"id":"79","state_code":"DC","lng":-76.995558,"1 star":0,"photo_coun":0,"rating_cou":"20","2 stars":0,"address":"707 Edgewood St. NE","lat":38.924159,"3 stars":0,"4 stars":0},"type":"Feature","geometry":{"type":"Point","coordinates":[-76.995558,38.924159]}},{"properties":{"name":"Deal Junior High School","city":"Washington","descriptio":"Public school: Facilities available for play during non-school hours.","private_ac":0,"5 stars":0,"comment_co":0,"id":"80","state_code":"DC","lng":-77.074091,"1 star":0,"photo_coun":0,"rating_cou":"NULL","2 stars":0,"address":"3815 Fort Dr NW","lat":38.952342,"3 stars":0,"4 stars":0},"type":"Feature","geometry":{"type":"Point","coordinates":[-77.074091,38.952342]}},{"properties":{"name":"Deanwood Recreation Center","city":"Washington","descriptio":"Site includes a playground, mutipurpose field anda  pool with a water slide.","private_ac":0,"5 stars":0,"comment_co":0,"id":"81","state_code":"DC","lng":-76.931678,"1 star":0,"photo_coun":0,"rating_cou":"NULL","2 stars":0,"address":"1350 49th St NE","lat":38.90788,"3 stars":0,"4 stars":0},"type":"Feature","geometry":{"type":"Point","coordinates":[-76.931678,38.90788]}},{"properties":{"name":"Developing Families Center, Inc.","city":"Washington, District of Columbia","descriptio":"The DC Developing Families Center (DCDFC) promotes the empowerment of low-income","private_ac":0,"5 stars":0,"comment_co":0,"id":"82","state_code":"DC","lng":-76.978946,"1 star":1,"photo_coun":16,"rating_cou":"1","2 stars":0,"address":"801 17th Street Northeast","lat":38.900657,"3 stars":0,"4 stars":0},"type":"Feature","geometry":{"type":"Point","coordinates":[-76.978946,38.900657]}},{"properties":{"name":"Douglass Community Center","city":"Washington","descriptio":"Site includes a playground, tennis court and a softball field.","private_ac":0,"5 stars":0,"comment_co":0,"id":"83","state_code":"DC","lng":-76.979889,"1 star":0,"photo_coun":0,"rating_cou":"NULL","2 stars":0,"address":"2100 Stanton Terrace SE","lat":38.850661,"3 stars":0,"4 stars":0},"type":"Feature","geometry":{"type":"Point","coordinates":[-76.979889,38.850661]}},{"properties":{"name":"Draper Elementary School","city":"Washington","descriptio":"Public school: Facilities available for play during non-school hours.","private_ac":0,"5 stars":0,"comment_co":0,"id":"84","state_code":"DC","lng":-76.991865,"1 star":0,"photo_coun":0,"rating_cou":"NULL","2 stars":0,"address":"908 Wahler Pl Se","lat":38.83409,"3 stars":0,"4 stars":0},"type":"Feature","geometry":{"type":"Point","coordinates":[-76.991865,38.83409]}},{"properties":{"name":"Drew Elementary School","city":"Washington","descriptio":"Public school: Facilities available for play during non-school hours.","private_ac":0,"5 stars":0,"comment_co":0,"id":"85","state_code":"DC","lng":-76.920077,"1 star":0,"photo_coun":0,"rating_cou":"NULL","2 stars":0,"address":"5600 Eads St Ne","lat":38.896382,"3 stars":0,"4 stars":0},"type":"Feature","geometry":{"type":"Point","coordinates":[-76.920077,38.896382]}},{"properties":{"name":"Dupont Field","city":"Washington","descriptio":"Separate play space for 2-5 year olds (tot lot).  A soccer field (in average con","private_ac":0,"5 stars":1,"comment_co":0,"id":"86","state_code":"DC","lng":-77.036496,"1 star":0,"photo_coun":0,"rating_cou":"7","2 stars":1,"address":"16th and Q Street","lat":38.91111,"3 stars":0,"4 stars":0},"type":"Feature","geometry":{"type":"Point","coordinates":[-77.036496,38.91111]}},{"properties":{"name":"E.L. Haynes Kansas Avenue Campus","city":"Washington","descriptio":"A wonderful play space at E.L. Haynes Public Charter School.  Reserved for use b","private_ac":0,"5 stars":1,"comment_co":0,"id":"87","state_code":"DC","lng":-77.022699,"1 star":0,"photo_coun":2,"rating_cou":"5","2 stars":0,"address":"Kansas Avenue and Buchanan Street NW","lat":38.946233,"3 stars":0,"4 stars":0},"type":"Feature","geometry":{"type":"Point","coordinates":[-77.022699,38.946233]}},{"properties":{"name":"East Capitol Dwellings Part - 1","city":"Washington","descriptio":"Located in a heavily populated area, this playground will please the young resid","private_ac":0,"5 stars":0,"comment_co":0,"id":"88","state_code":"DC","lng":-77.009036,"1 star":0,"photo_coun":0,"rating_cou":"NULL","2 stars":0,"address":"5725 East Capitol St, SE","lat":38.959622,"3 stars":0,"4 stars":0},"type":"Feature","geometry":{"type":"Point","coordinates":[-77.009036,38.959622]}},{"properties":{"name":"East Capitol Dwellings Part - 2","city":"Washington","descriptio":"Complete with an Age-Appropriate Sign to welcome its visitors, this playground i","private_ac":0,"5 stars":0,"comment_co":0,"id":"89","state_code":"DC","lng":-77.009036,"1 star":0,"photo_coun":0,"rating_cou":"NULL","2 stars":0,"address":"5725  East Capitol St.","lat":38.959622,"3 stars":0,"4 stars":0},"type":"Feature","geometry":{"type":"Point","coordinates":[-77.009036,38.959622]}},{"properties":{"name":"East Capitol Dwellings Playground","city":"South East","descriptio":"NULL","private_ac":0,"5 stars":0,"comment_co":0,"id":"90","state_code":"DC","lng":-76.919171,"1 star":0,"photo_coun":1,"rating_cou":"NULL","2 stars":0,"address":"5725 East Capitol St","lat":38.889696,"3 stars":0,"4 stars":0},"type":"Feature","geometry":{"type":"Point","coordinates":[-76.919171,38.889696]}},{"properties":{"name":"East Potomac Park","city":"Washington","descriptio":"Separate play space for 2-5 year olds (tot lot).  East Potomac Park is a 300+ ac","private_ac":0,"5 stars":3,"comment_co":0,"id":"91","state_code":"DC","lng":-77.034483,"1 star":0,"photo_coun":0,"rating_cou":"15","2 stars":0,"address":"1090 Ohio Dr SW","lat":38.875618,"3 stars":0,"4 stars":0},"type":"Feature","geometry":{"type":"Point","coordinates":[-77.034483,38.875618]}},{"properties":{"name":"Eastern High School","city":"Washington","descriptio":"Public school: Facilities available for play during non-school hours.","private_ac":0,"5 stars":0,"comment_co":0,"id":"92","state_code":"DC","lng":-76.980691,"1 star":0,"photo_coun":0,"rating_cou":"NULL","2 stars":0,"address":"1700 E Capitol St Ne","lat":38.889732,"3 stars":0,"4 stars":0},"type":"Feature","geometry":{"type":"Point","coordinates":[-76.980691,38.889732]}},{"properties":{"name":"Edgewood Recreation Center","city":"Washington","descriptio":"This site includes a playground, sports field and recreation center","private_ac":0,"5 stars":0,"comment_co":0,"id":"93","state_code":"DC","lng":-77.001986,"1 star":0,"photo_coun":0,"rating_cou":"NULL","2 stars":0,"address":"Evarts St Ne &amp; 3rd St NE","lat":38.9245,"3 stars":0,"4 stars":0},"type":"Feature","geometry":{"type":"Point","coordinates":[-77.001986,38.9245]}},{"properties":{"name":"Edison Friendship Charter School Playground","city":"South East","descriptio":"NULL","private_ac":0,"5 stars":0,"comment_co":0,"id":"94","state_code":"DC","lng":-76.986642,"1 star":0,"photo_coun":0,"rating_cou":"NULL","2 stars":0,"address":"1345 Potomac Ave","lat":38.879486,"3 stars":0,"4 stars":0},"type":"Feature","geometry":{"type":"Point","coordinates":[-76.986642,38.879486]}},{"properties":{"name":"Eliot Junior High School","city":"Washington","descriptio":"Public school: Facilities available for play during non-school hours.","private_ac":0,"5 stars":0,"comment_co":0,"id":"95","state_code":"DC","lng":-76.979028,"1 star":0,"photo_coun":0,"rating_cou":"NULL","2 stars":0,"address":"1830 Constitution Ave Ne","lat":38.892658,"3 stars":0,"4 stars":0},"type":"Feature","geometry":{"type":"Point","coordinates":[-76.979028,38.892658]}},{"properties":{"name":"Elsie Whitlow Stokes Community Freedom Public Charter School","city":"Washington","descriptio":"Spiral Slide and/or Slither Slide, Cliff Hanger, Adventure Tube, Monorail, Bing","private_ac":0,"5 stars":1,"comment_co":0,"id":"96","state_code":"DC","lng":-76.990118,"1 star":0,"photo_coun":3,"rating_cou":"9","2 stars":0,"address":"3700 Oakview Terrace NE","lat":38.935636,"3 stars":0,"4 stars":0},"type":"Feature","geometry":{"type":"Point","coordinates":[-76.990118,38.935636]}},{"properties":{"name":"Elsie Whitlow Stokes Community Freedom Public Charter School","city":"Washington","descriptio":"The school has one Kaboom playground in fornt of the building that is open to th","private_ac":0,"5 stars":0,"comment_co":0,"id":"97","state_code":"DC","lng":-76.972166,"1 star":0,"photo_coun":0,"rating_cou":"NULL","2 stars":0,"address":"In between 12th and 13th Streets,NE off of Perry St, NE","lat":38.936166,"3 stars":0,"4 stars":0},"type":"Feature","geometry":{"type":"Point","coordinates":[-76.972166,38.936166]}},{"properties":{"name":"Emery Elementary School","city":"Washington","descriptio":"Public school: Facilities available for play during non-school hours.","private_ac":0,"5 stars":0,"comment_co":0,"id":"98","state_code":"DC","lng":-77.006518,"1 star":0,"photo_coun":0,"rating_cou":"NULL","2 stars":0,"address":"1720 1st St Ne","lat":38.912919,"3 stars":0,"4 stars":0},"type":"Feature","geometry":{"type":"Point","coordinates":[-77.006518,38.912919]}},{"properties":{"name":"Emery Recreation Center","city":"Washington","descriptio":"This rec center is brand new and quite nice.  The space is comprehensive and pro","private_ac":0,"5 stars":0,"comment_co":0,"id":"99","state_code":"DC","lng":-77.028195,"1 star":0,"photo_coun":2,"rating_cou":"4","2 stars":0,"address":"5701 Georgia Avenue, NW","lat":38.958319,"3 stars":0,"4 stars":0},"type":"Feature","geometry":{"type":"Point","coordinates":[-77.028195,38.958319]}},{"properties":{"name":"Emilia, Reggio","city":"Washington","descriptio":"Public school: Facilities available for play during non-school hours.","private_ac":0,"5 stars":0,"comment_co":0,"id":"100","state_code":"DC","lng":-77.000224,"1 star":0,"photo_coun":0,"rating_cou":"NULL","2 stars":0,"address":"425 C St Ne","lat":38.893046,"3 stars":0,"4 stars":0},"type":"Feature","geometry":{"type":"Point","coordinates":[-77.000224,38.893046]}},{"properties":{"name":"Episcopal Center for Children","city":"Washington","descriptio":"Separate play space for 2-5 year olds (tot lot.)  Rusted metal everything, very","private_ac":0,"5 stars":0,"comment_co":0,"id":"101","state_code":"DC","lng":-77.064974,"1 star":2,"photo_coun":2,"rating_cou":"2","2 stars":0,"address":"NULL","lat":38.96829,"3 stars":0,"4 stars":0},"type":"Feature","geometry":{"type":"Point","coordinates":[-77.064974,38.96829]}},{"properties":{"name":"Eugene A. Clark Elementary School","city":"Washington","descriptio":"NULL","private_ac":0,"5 stars":1,"comment_co":0,"id":"102","state_code":"DC","lng":-77.021736,"1 star":0,"photo_coun":3,"rating_cou":"5","2 stars":0,"address":"4501 7th St NW","lat":38.945143,"3 stars":0,"4 stars":0},"type":"Feature","geometry":{"type":"Point","coordinates":[-77.021736,38.945143]}},{"properties":{"name":"Evans Middle School","city":"Washington","descriptio":"Public school: Facilities available for play during non-school hours.","private_ac":0,"5 stars":0,"comment_co":0,"id":"103","state_code":"DC","lng":-76.921816,"1 star":0,"photo_coun":0,"rating_cou":"NULL","2 stars":0,"address":"5600 E Capitol St Ne","lat":38.890554,"3 stars":0,"4 stars":0},"type":"Feature","geometry":{"type":"Point","coordinates":[-76.921816,38.890554]}},{"properties":{"name":"Ferebee-Hope Elementary School","city":"Washington","descriptio":"Public school: Facilities available for play during non-school hours.","private_ac":0,"5 stars":0,"comment_co":0,"id":"104","state_code":"DC","lng":-76.994603,"1 star":0,"photo_coun":0,"rating_cou":"NULL","2 stars":0,"address":"3999 8th St Se","lat":38.831996,"3 stars":0,"4 stars":0},"type":"Feature","geometry":{"type":"Point","coordinates":[-76.994603,38.831996]}},{"properties":{"name":"First Rock Baptist Church Child Development Center","city":"Washington, DC","descriptio":"Location is a common area for a Child Developement Center and a Senior Citizen R","private_ac":0,"5 stars":0,"comment_co":0,"id":"105","state_code":"DC","lng":-76.93155,"1 star":1,"photo_coun":10,"rating_cou":"1","2 stars":0,"address":"Benning Road and H Streets, SE","lat":38.878684,"3 stars":0,"4 stars":0},"type":"Feature","geometry":{"type":"Point","coordinates":[-76.93155,38.878684]}},{"properties":{"name":"Florida Ave Park","city":"Washington","descriptio":"Playground, basketball court, homeless hangout.","private_ac":0,"5 stars":0,"comment_co":0,"id":"106","state_code":"DC","lng":-77.012152,"1 star":0,"photo_coun":0,"rating_cou":"2","2 stars":1,"address":"Florida and First Streets, NW","lat":38.912114,"3 stars":0,"4 stars":0},"type":"Feature","geometry":{"type":"Point","coordinates":[-77.012152,38.912114]}},{"properties":{"name":"Forest Hills Playground","city":"Washington","descriptio":"A playground in a residential neighborhood, surrounded by a fence.","private_ac":0,"5 stars":2,"comment_co":1,"id":"107","state_code":"DC","lng":-77.065173,"1 star":0,"photo_coun":5,"rating_cou":"18","2 stars":0,"address":"Chesapeake ave NW and 32nd st nw","lat":38.950722,"3 stars":0,"4 stars":0},"type":"Feature","geometry":{"type":"Point","coordinates":[-77.065173,38.950722]}},{"properties":{"name":"Forrest Hills Playground","city":"Washington DC","descriptio":null,"private_ac":0,"5 stars":0,"comment_co":0,"id":"108","state_code":"DC","lng":-77.057186,"1 star":0,"photo_coun":0,"rating_cou":"NULL","2 stars":0,"address":"Linnean Ave. and Brandywine St. NW","lat":38.949667,"3 stars":0,"4 stars":0},"type":"Feature","geometry":{"type":"Point","coordinates":[-77.057186,38.949667]}},{"properties":{"name":"Fort Dupont Ice Arena","city":"Washington","descriptio":"The Fort Dupont Ice Area is a full-sized, NHL regulation-sized rink, and the onl","private_ac":0,"5 stars":2,"comment_co":0,"id":"109","state_code":"DC","lng":-76.94051,"1 star":0,"photo_coun":1,"rating_cou":"10","2 stars":0,"address":"NULL","lat":38.892782,"3 stars":0,"4 stars":0},"type":"Feature","geometry":{"type":"Point","coordinates":[-76.94051,38.892782]}},{"properties":{"name":"Fort Lincoln Park","city":"Washington","descriptio":"Do you like to slither like a snake or crawl like a centipede? Youll have the op","private_ac":0,"5 stars":0,"comment_co":0,"id":"110","state_code":"DC","lng":-76.959618,"1 star":0,"photo_coun":0,"rating_cou":"NULL","2 stars":0,"address":"31st Street and Lincoln Drive, NE","lat":38.924331,"3 stars":0,"4 stars":0},"type":"Feature","geometry":{"type":"Point","coordinates":[-76.959618,38.924331]}},{"properties":{"name":"Fort Reno","city":"washington d.c.","descriptio":"Also a stage","private_ac":0,"5 stars":0,"comment_co":0,"id":"111","state_code":"DC","lng":-77.07278,"1 star":0,"photo_coun":1,"rating_cou":"3","2 stars":0,"address":"reno road and fessenden","lat":38.954678,"3 stars":1,"4 stars":1},"type":"Feature","geometry":{"type":"Point","coordinates":[-77.07278,38.954678]}},{"properties":{"name":"Fort Stanton Recreation Center","city":"Washington D.C.","descriptio":null,"private_ac":0,"5 stars":0,"comment_co":0,"id":"112","state_code":"DC","lng":-76.979188,"1 star":1,"photo_coun":0,"rating_cou":"1","2 stars":0,"address":"1812 Erie Street SE","lat":38.857319,"3 stars":0,"4 stars":0},"type":"Feature","geometry":{"type":"Point","coordinates":[-76.979188,38.857319]}},{"properties":{"name":"Fort Stevens Recreation Center","city":"Washington","descriptio":"Separate play space for 2-5 year olds (tot lot.)  Benches and trees, very clean,","private_ac":0,"5 stars":1,"comment_co":0,"id":"113","state_code":"DC","lng":-77.02853,"1 star":0,"photo_coun":2,"rating_cou":"5","2 stars":0,"address":"NULL","lat":38.97827,"3 stars":0,"4 stars":0},"type":"Feature","geometry":{"type":"Point","coordinates":[-77.02853,38.97827]}},{"properties":{"name":"FRANCIS JUNIOR HIGH SCHOOL","city":"WASHINGTON","descriptio":"Public school: Facilities available for play during non-school hours","private_ac":0,"5 stars":0,"comment_co":0,"id":"114","state_code":"DC","lng":-77.051782,"1 star":0,"photo_coun":1,"rating_cou":"4","2 stars":0,"address":"2425 N ST NW","lat":38.90725,"3 stars":0,"4 stars":0},"type":"Feature","geometry":{"type":"Point","coordinates":[-77.051782,38.90725]}},{"properties":{"name":"franciscan monastary","city":"Washington","descriptio":"While there is no play structure here, there is a wonderful garden which the chi","private_ac":0,"5 stars":0,"comment_co":0,"id":"115","state_code":"DC","lng":-76.986113,"1 star":0,"photo_coun":0,"rating_cou":"3","2 stars":0,"address":"14th and Quincy Street NE","lat":38.937223,"3 stars":1,"4 stars":1},"type":"Feature","geometry":{"type":"Point","coordinates":[-76.986113,38.937223]}},{"properties":{"name":"Friends of Lincoln Park","city":"Washington","descriptio":"Separate play space for 2-5 year olds (tot lot).","private_ac":0,"5 stars":0,"comment_co":0,"id":"116","state_code":"DC","lng":-76.992495,"1 star":0,"photo_coun":0,"rating_cou":"4","2 stars":0,"address":"400 10th Street SE","lat":38.883968,"3 stars":0,"4 stars":0},"type":"Feature","geometry":{"type":"Point","coordinates":[-76.992495,38.883968]}},{"properties":{"name":"Friendship House","city":"South East","descriptio":"NULL","private_ac":0,"5 stars":0,"comment_co":0,"id":"117","state_code":"DC","lng":-76.997714,"1 star":0,"photo_coun":1,"rating_cou":"4","2 stars":0,"address":"619 D Street","lat":38.884056,"3 stars":0,"4 stars":0},"type":"Feature","geometry":{"type":"Point","coordinates":[-76.997714,38.884056]}},{"properties":{"name":"Friendship House","city":"Washington","descriptio":"We need willing volunteers to attempt the awesome SlideWinder2u2122. If youre mo","private_ac":0,"5 stars":0,"comment_co":0,"id":"118","state_code":"DC","lng":-76.997714,"1 star":0,"photo_coun":0,"rating_cou":"NULL","2 stars":0,"address":"619 D Street, SE","lat":38.884056,"3 stars":0,"4 stars":0},"type":"Feature","geometry":{"type":"Point","coordinates":[-76.997714,38.884056]}},{"properties":{"name":"Friendship Recreation Center Playground","city":"Washington","descriptio":"Part of the DC Parks &amp; Rec system, this Rec Center has a large playgorund for yo","private_ac":0,"5 stars":2,"comment_co":0,"id":"119","state_code":"DC","lng":-77.087788,"1 star":0,"photo_coun":5,"rating_cou":"14","2 stars":0,"address":"Van Ness Street and 45th St. NW","lat":38.943156,"3 stars":0,"4 stars":0},"type":"Feature","geometry":{"type":"Point","coordinates":[-77.087788,38.943156]}},{"properties":{"name":"Friendship Southeast Elementary Academy","city":"Washington","descriptio":"This is a great new playground at Friendship Charter Academy.","private_ac":0,"5 stars":1,"comment_co":0,"id":"120","state_code":"DC","lng":-76.996974,"1 star":0,"photo_coun":0,"rating_cou":"5","2 stars":0,"address":"645 Milwaukee Place","lat":38.847472,"3 stars":0,"4 stars":0},"type":"Feature","geometry":{"type":"Point","coordinates":[-76.996974,38.847472]}},{"properties":{"name":"Frienship Public Charter School: Chamberlain Elementary","city":"Washington","descriptio":"Playground is located down alley to back parking lot behind the school.","private_ac":0,"5 stars":0,"comment_co":0,"id":"121","state_code":"DC","lng":-76.986642,"1 star":0,"photo_coun":1,"rating_cou":"5","2 stars":1,"address":"1345 Potomac Ave. SE","lat":38.879486,"3 stars":1,"4 stars":1},"type":"Feature","geometry":{"type":"Point","coordinates":[-76.986642,38.879486]}},{"properties":{"name":"Ft. Bayard","city":"Washington","descriptio":"Ft. Bayard has a tot lot with a sandbox and modern play equipment. It also has a","private_ac":0,"5 stars":0,"comment_co":0,"id":"122","state_code":"DC","lng":-77.091291,"1 star":0,"photo_coun":0,"rating_cou":"NULL","2 stars":0,"address":"4600 River Rd., NW","lat":38.956468,"3 stars":0,"4 stars":0},"type":"Feature","geometry":{"type":"Point","coordinates":[-77.091291,38.956468]}},{"properties":{"name":"Gage Eckington Elementary School","city":"Washington","descriptio":"Public school: Facilities available for play during non-school hours.","private_ac":0,"5 stars":0,"comment_co":0,"id":"123","state_code":"DC","lng":-77.015892,"1 star":0,"photo_coun":0,"rating_cou":"NULL","2 stars":0,"address":"2025 3rd St NW","lat":38.917504,"3 stars":0,"4 stars":0},"type":"Feature","geometry":{"type":"Point","coordinates":[-77.015892,38.917504]}},{"properties":{"name":"Garfield Park","city":"Washington","descriptio":"Separate play space for 2-5 year olds (tot lot) that includes swings, a slide an","private_ac":0,"5 stars":2,"comment_co":0,"id":"124","state_code":"DC","lng":-77.00353,"1 star":0,"photo_coun":6,"rating_cou":"24","2 stars":0,"address":"Second and F Streets, SE","lat":38.881947,"3 stars":2,"4 stars":2},"type":"Feature","geometry":{"type":"Point","coordinates":[-77.00353,38.881947]}},{"properties":{"name":"Garnet-Patterson Middle School","city":"Washington","descriptio":"Public school: Facilities available for play during non-school hours.","private_ac":0,"5 stars":0,"comment_co":0,"id":"125","state_code":"DC","lng":-77.026013,"1 star":0,"photo_coun":0,"rating_cou":"NULL","2 stars":0,"address":"2001 10th St NW","lat":38.917047,"3 stars":0,"4 stars":0},"type":"Feature","geometry":{"type":"Point","coordinates":[-77.026013,38.917047]}},{"properties":{"name":"Garrison Elementary School","city":"Washington","descriptio":"Public school: Facilities available for play during non-school hours.","private_ac":0,"5 stars":0,"comment_co":0,"id":"126","state_code":"DC","lng":-77.028115,"1 star":0,"photo_coun":0,"rating_cou":"NULL","2 stars":0,"address":"1200 S St NW","lat":38.914111,"3 stars":0,"4 stars":0},"type":"Feature","geometry":{"type":"Point","coordinates":[-77.028115,38.914111]}},{"properties":{"name":"Georgetown Day School","city":"Washington","descriptio":"The Georgetown Day School Playground features a playground for 5-12 year olds an","private_ac":0,"5 stars":0,"comment_co":0,"id":"127","state_code":"DC","lng":-77.08621,"1 star":0,"photo_coun":0,"rating_cou":"4","2 stars":0,"address":"4530 Macarthur Boulevard Northwest","lat":38.908805,"3 stars":0,"4 stars":0},"type":"Feature","geometry":{"type":"Point","coordinates":[-77.08621,38.908805]}},{"properties":{"name":"Gibbs Elementary School","city":"Washington","descriptio":"Separate play space for 2-5 year olds (tot lot).  Transfer Station, Driver Panel","private_ac":0,"5 stars":0,"comment_co":0,"id":"128","state_code":"DC","lng":-76.97726,"1 star":0,"photo_coun":0,"rating_cou":"NULL","2 stars":0,"address":"500 19th St Ne","lat":38.896095,"3 stars":0,"4 stars":0},"type":"Feature","geometry":{"type":"Point","coordinates":[-76.97726,38.896095]}},{"properties":{"name":"Girard Street Park","city":"Washington","descriptio":"Girard Street Park is a great place to run, jump and swing your day away.  With","private_ac":0,"5 stars":1,"comment_co":0,"id":"129","state_code":"DC","lng":-77.034181,"1 star":0,"photo_coun":11,"rating_cou":"5","2 stars":0,"address":"1450 Girard St NW","lat":38.92541,"3 stars":0,"4 stars":0},"type":"Feature","geometry":{"type":"Point","coordinates":[-77.034181,38.92541]}},{"properties":{"name":"Gravelly Point Fields","city":"Washington","descriptio":"Separate play space for 2-5 year olds (tot lot).  Immediately north of DCA.  Pla","private_ac":0,"5 stars":0,"comment_co":0,"id":"130","state_code":"DC","lng":-77.01666,"1 star":0,"photo_coun":3,"rating_cou":"4","2 stars":0,"address":"GW Parkway and 14th Street Bridge","lat":38.91074,"3 stars":0,"4 stars":0},"type":"Feature","geometry":{"type":"Point","coordinates":[-77.01666,38.91074]}},{"properties":{"name":"Green Elementary School","city":"Washington","descriptio":"Public school: Facilities available for play during non-school hours.","private_ac":0,"5 stars":0,"comment_co":0,"id":"131","state_code":"DC","lng":-76.982461,"1 star":0,"photo_coun":0,"rating_cou":"NULL","2 stars":0,"address":"1500 Mississippi Ave Se","lat":38.844265,"3 stars":0,"4 stars":0},"type":"Feature","geometry":{"type":"Point","coordinates":[-76.982461,38.844265]}},{"properties":{"name":"Guy Mason Playground","city":"Washington","descriptio":"In addition to a tall twisty slide, spring toys and lots of swings, this wooden","private_ac":0,"5 stars":1,"comment_co":0,"id":"132","state_code":"DC","lng":-77.072905,"1 star":0,"photo_coun":1,"rating_cou":"5","2 stars":0,"address":"Wisconsin Ave. NW and Calvert St. NW","lat":38.922551,"3 stars":0,"4 stars":0},"type":"Feature","geometry":{"type":"Point","coordinates":[-77.072905,38.922551]}},{"properties":{"name":"Hains Point","city":"Washington","descriptio":"Rubber surfacing. Separate area for 2-5 year old kids.","private_ac":0,"5 stars":0,"comment_co":0,"id":"133","state_code":"DC","lng":-77.042806,"1 star":1,"photo_coun":6,"rating_cou":"1","2 stars":0,"address":"1100 Ohio Dr SW","lat":38.881086,"3 stars":0,"4 stars":0},"type":"Feature","geometry":{"type":"Point","coordinates":[-77.042806,38.881086]}},{"properties":{"name":"Hamilton Recreation Center","city":"Washington D.C.","descriptio":null,"private_ac":0,"5 stars":0,"comment_co":0,"id":"134","state_code":"DC","lng":-77.031133,"1 star":0,"photo_coun":0,"rating_cou":"NULL","2 stars":0,"address":"1340 Hamilton Street NW","lat":38.952668,"3 stars":0,"4 stars":0},"type":"Feature","geometry":{"type":"Point","coordinates":[-77.031133,38.952668]}},{"properties":{"name":"Hamlin Park","city":"Washington","descriptio":"NULL","private_ac":0,"5 stars":0,"comment_co":0,"id":"135","state_code":"DC","lng":-76.982314,"1 star":0,"photo_coun":0,"rating_cou":"3","2 stars":0,"address":"Hamlin","lat":38.92803,"3 stars":1,"4 stars":1},"type":"Feature","geometry":{"type":"Point","coordinates":[-76.982314,38.92803]}},{"properties":{"name":"Hardy Middle School","city":"Washington","descriptio":"Public school: Facilities available for play during non-school hours.","private_ac":0,"5 stars":0,"comment_co":0,"id":"136","state_code":"DC","lng":-77.068902,"1 star":0,"photo_coun":0,"rating_cou":"NULL","2 stars":0,"address":"1819 35th St NW","lat":38.915721,"3 stars":0,"4 stars":0},"type":"Feature","geometry":{"type":"Point","coordinates":[-77.068902,38.915721]}},{"properties":{"name":"Hardy Recreation Center","city":"Washington","descriptio":"The site includes a playground, tennis court and multipurpose field.","private_ac":0,"5 stars":0,"comment_co":0,"id":"137","state_code":"DC","lng":-77.064865,"1 star":0,"photo_coun":0,"rating_cou":"NULL","2 stars":0,"address":"4500 Q St Nw","lat":38.910387,"3 stars":0,"4 stars":0},"type":"Feature","geometry":{"type":"Point","coordinates":[-77.064865,38.910387]}},{"properties":{"name":"Hardy Recreation Center Playground","city":"Washington","descriptio":"Tot playground and 5-12 playground adjacent to the Rec Center.","private_ac":0,"5 stars":0,"comment_co":0,"id":"138","state_code":"DC","lng":-77.085047,"1 star":0,"photo_coun":0,"rating_cou":"NULL","2 stars":0,"address":"4500 Q St Northwest and 45th NW","lat":38.910157,"3 stars":0,"4 stars":0},"type":"Feature","geometry":{"type":"Point","coordinates":[-77.085047,38.910157]}},{"properties":{"name":"Harriet Tubman Elementary School Playground","city":"Washington","descriptio":"School Playground","private_ac":0,"5 stars":0,"comment_co":0,"id":"139","state_code":"DC","lng":-77.029668,"1 star":0,"photo_coun":0,"rating_cou":"NULL","2 stars":0,"address":"3101 13th St. NW","lat":38.928642,"3 stars":0,"4 stars":0},"type":"Feature","geometry":{"type":"Point","coordinates":[-77.029668,38.928642]}},{"properties":{"name":"Harris Elementary School","city":"Washington","descriptio":"Public school: Facilities available for play during non-school hours.","private_ac":0,"5 stars":0,"comment_co":0,"id":"140","state_code":"DC","lng":-76.926144,"1 star":0,"photo_coun":0,"rating_cou":"NULL","2 stars":0,"address":"301 53rd St Se","lat":38.88471,"3 stars":0,"4 stars":0},"type":"Feature","geometry":{"type":"Point","coordinates":[-76.926144,38.88471]}},{"properties":{"name":"Harrison Recreation Center","city":"Washington D.C.","descriptio":null,"private_ac":0,"5 stars":0,"comment_co":0,"id":"141","state_code":"DC","lng":-77.030392,"1 star":0,"photo_coun":8,"rating_cou":"3","2 stars":0,"address":"1330 V. Street NW","lat":38.917855,"3 stars":1,"4 stars":1},"type":"Feature","geometry":{"type":"Point","coordinates":[-77.030392,38.917855]}},{"properties":{"name":"Harry Thomas Sr. Recreation Center","city":"Washington","descriptio":"This site includes a playground, baseball field, basketball court and tennis cou","private_ac":0,"5 stars":0,"comment_co":0,"id":"142","state_code":"DC","lng":-77.008307,"1 star":0,"photo_coun":0,"rating_cou":"NULL","2 stars":0,"address":"1743 Lincoln Rd NE","lat":38.913313,"3 stars":0,"4 stars":0},"type":"Feature","geometry":{"type":"Point","coordinates":[-77.008307,38.913313]}},{"properties":{"name":"Hart Middle School","city":"Washington","descriptio":"Public school: Facilities available for play during non-school hours.","private_ac":0,"5 stars":0,"comment_co":0,"id":"143","state_code":"DC","lng":-76.995801,"1 star":0,"photo_coun":0,"rating_cou":"NULL","2 stars":0,"address":"601 Mississippi Ave Se","lat":38.837726,"3 stars":0,"4 stars":0},"type":"Feature","geometry":{"type":"Point","coordinates":[-76.995801,38.837726]}},{"properties":{"name":"Hearst Elementary School","city":"Washington","descriptio":"A very large playground structure on the side of Hearst School.  The surfacing i","private_ac":0,"5 stars":0,"comment_co":0,"id":"144","state_code":"DC","lng":-77.07247,"1 star":0,"photo_coun":3,"rating_cou":"4","2 stars":0,"address":"3950 37th Street, NW","lat":38.940757,"3 stars":0,"4 stars":0},"type":"Feature","geometry":{"type":"Point","coordinates":[-77.07247,38.940757]}},{"properties":{"name":"Hearst Recreation Center Playground","city":"Washington","descriptio":"Located behind Phoebe Hearst Elementary School, this is is a small playground at","private_ac":0,"5 stars":2,"comment_co":0,"id":"145","state_code":"DC","lng":-77.07247,"1 star":1,"photo_coun":8,"rating_cou":"14","2 stars":0,"address":"3950 37th Street, NW","lat":38.940757,"3 stars":1,"4 stars":1},"type":"Feature","geometry":{"type":"Point","coordinates":[-77.07247,38.940757]}},{"properties":{"name":"Hendley Elementary School","city":"Washington","descriptio":"Public school: Facilities available for play during non-school hours.","private_ac":0,"5 stars":0,"comment_co":0,"id":"146","state_code":"DC","lng":-76.998954,"1 star":0,"photo_coun":0,"rating_cou":"NULL","2 stars":0,"address":"425 Chesapeake St Se","lat":38.828838,"3 stars":0,"4 stars":0},"type":"Feature","geometry":{"type":"Point","coordinates":[-76.998954,38.828838]}},{"properties":{"name":"Hillcrest Recreation Center","city":"Washington D.C.","descriptio":null,"private_ac":0,"5 stars":0,"comment_co":0,"id":"147","state_code":"DC","lng":-76.961915,"1 star":0,"photo_coun":0,"rating_cou":"NULL","2 stars":0,"address":"3100 Denver Street","lat":38.858383,"3 stars":0,"4 stars":0},"type":"Feature","geometry":{"type":"Point","coordinates":[-76.961915,38.858383]}},{"properties":{"name":"Hine Junior High School","city":"Washington","descriptio":"Public school: Facilities available for play during non-school hours.","private_ac":0,"5 stars":0,"comment_co":0,"id":"148","state_code":"DC","lng":-76.994939,"1 star":0,"photo_coun":0,"rating_cou":"NULL","2 stars":0,"address":"335 8th St Se","lat":38.885478,"3 stars":0,"4 stars":0},"type":"Feature","geometry":{"type":"Point","coordinates":[-76.994939,38.885478]}},{"properties":{"name":"Horace Mann Elementary School","city":"NW, Washington","descriptio":"This playground is located in AU park with a lot of space for running around and","private_ac":0,"5 stars":0,"comment_co":0,"id":"149","state_code":"DC","lng":-77.087418,"1 star":0,"photo_coun":0,"rating_cou":"NULL","2 stars":0,"address":"4430 Newark St","lat":38.934026,"3 stars":0,"4 stars":0},"type":"Feature","geometry":{"type":"Point","coordinates":[-77.087418,38.934026]}},{"properties":{"name":"Horace Mann Elementary School","city":"NW, Washington","descriptio":"This playground is located in AU park with a lot of space for running around and","private_ac":0,"5 stars":0,"comment_co":0,"id":"150","state_code":"DC","lng":-77.087418,"1 star":0,"photo_coun":0,"rating_cou":"NULL","2 stars":0,"address":"4430 Newark St","lat":38.934026,"3 stars":0,"4 stars":0},"type":"Feature","geometry":{"type":"Point","coordinates":[-77.087418,38.934026]}},{"properties":{"name":"Houston Elementary School","city":"Washington","descriptio":"Public school: Facilities available for play during non-school hours.","private_ac":0,"5 stars":0,"comment_co":0,"id":"151","state_code":"DC","lng":-76.929616,"1 star":0,"photo_coun":0,"rating_cou":"NULL","2 stars":0,"address":"1100 50th Pl Ne","lat":38.90467,"3 stars":0,"4 stars":0},"type":"Feature","geometry":{"type":"Point","coordinates":[-76.929616,38.90467]}},{"properties":{"name":"Howard Road Academy","city":"Washington","descriptio":"Public school: Facilities available for play during non-school hours.","private_ac":0,"5 stars":0,"comment_co":0,"id":"152","state_code":"DC","lng":-76.998926,"1 star":0,"photo_coun":0,"rating_cou":"NULL","2 stars":0,"address":"701 Howard Rd Se","lat":38.863988,"3 stars":0,"4 stars":0},"type":"Feature","geometry":{"type":"Point","coordinates":[-76.998926,38.863988]}},{"properties":{"name":"Howard University Learning Center","city":"Washington","descriptio":"Equipment by Playworld Systems Inc.","private_ac":0,"5 stars":0,"comment_co":0,"id":"153","state_code":"DC","lng":-77.019062,"1 star":0,"photo_coun":0,"rating_cou":"NULL","2 stars":0,"address":"450 Howard Place Suite 1019","lat":38.922637,"3 stars":0,"4 stars":0},"type":"Feature","geometry":{"type":"Point","coordinates":[-77.019062,38.922637]}},{"properties":{"name":"Hunter Pines","city":"Washington","descriptio":"Separate play space for 2-5 year olds (tot lot).","private_ac":0,"5 stars":0,"comment_co":0,"id":"154","state_code":"DC","lng":-76.97675,"1 star":0,"photo_coun":0,"rating_cou":"NULL","2 stars":0,"address":"1901 Mississippi Ave Se","lat":38.843781,"3 stars":0,"4 stars":0},"type":"Feature","geometry":{"type":"Point","coordinates":[-76.97675,38.843781]}},{"properties":{"name":"Hyde-Addison Elementary School","city":"Washington","descriptio":"Public school: Facilities available for play during non-school hours.","private_ac":0,"5 stars":0,"comment_co":0,"id":"155","state_code":"DC","lng":-77.064384,"1 star":0,"photo_coun":0,"rating_cou":"NULL","2 stars":0,"address":"3219 O St NW","lat":38.907849,"3 stars":0,"4 stars":0},"type":"Feature","geometry":{"type":"Point","coordinates":[-77.064384,38.907849]}},{"properties":{"name":"Ideal Academy Public Charter School (N Capitol St. Campus)","city":"Washington","descriptio":"A new KaBOOM! playground was built here on May 28th, 2009!","private_ac":0,"5 stars":2,"comment_co":0,"id":"156","state_code":"DC","lng":-77.010148,"1 star":0,"photo_coun":6,"rating_cou":"10","2 stars":0,"address":"6130 North Capitol Street NW","lat":38.96513,"3 stars":0,"4 stars":0},"type":"Feature","geometry":{"type":"Point","coordinates":[-77.010148,38.96513]}},{"properties":{"name":"Ideal Academy Public Charter School (Peabody St. Campus)","city":"Washington","descriptio":"Public school: Facilities available for play during non-school hours.","private_ac":0,"5 stars":0,"comment_co":0,"id":"157","state_code":"DC","lng":-77.012508,"1 star":0,"photo_coun":0,"rating_cou":"NULL","2 stars":0,"address":"100 Peabody St NW","lat":38.962212,"3 stars":0,"4 stars":0},"type":"Feature","geometry":{"type":"Point","coordinates":[-77.012508,38.962212]}},{"properties":{"name":"Imagine Southeast Public Charter School","city":"Washington","descriptio":"Playground for Pre-k -8 school that will one day have approximately 600 students","private_ac":0,"5 stars":3,"comment_co":0,"id":"158","state_code":"DC","lng":-76.999836,"1 star":0,"photo_coun":13,"rating_cou":"17","2 stars":1,"address":"421 Alabama Avenue SE","lat":38.842868,"3 stars":0,"4 stars":0},"type":"Feature","geometry":{"type":"Point","coordinates":[-76.999836,38.842868]}},{"properties":{"name":"Janney Elementary School","city":"Washington","descriptio":"Public school: Facilities available for play during non-school hours.","private_ac":0,"5 stars":0,"comment_co":0,"id":"159","state_code":"DC","lng":-77.080997,"1 star":0,"photo_coun":0,"rating_cou":"NULL","2 stars":0,"address":"4130 Albemarle St NW","lat":38.947616,"3 stars":0,"4 stars":0},"type":"Feature","geometry":{"type":"Point","coordinates":[-77.080997,38.947616]}},{"properties":{"name":"JO Wilson Elementary School - Outdoor Recreation Grounds","city":"Washington","descriptio":"Newly renovated outdoor recreation grounds, including 3 playground structures, o","private_ac":0,"5 stars":1,"comment_co":0,"id":"160","state_code":"DC","lng":-76.998427,"1 star":0,"photo_coun":2,"rating_cou":"9","2 stars":0,"address":"6th Street NE and K Street NE","lat":38.90249,"3 stars":0,"4 stars":0},"type":"Feature","geometry":{"type":"Point","coordinates":[-76.998427,38.90249]}},{"properties":{"name":"John Burroughs Elementary School","city":"Washington","descriptio":"Mulch/engineered wood fiber ground.","private_ac":0,"5 stars":0,"comment_co":0,"id":"161","state_code":"DC","lng":-76.978478,"1 star":0,"photo_coun":0,"rating_cou":"NULL","2 stars":0,"address":"1820 Monroe Street NE","lat":38.93361,"3 stars":0,"4 stars":0},"type":"Feature","geometry":{"type":"Point","coordinates":[-76.978478,38.93361]}},{"properties":{"name":"John Eaton Elementary School Playground","city":"Washington","descriptio":"This is a small playground attached to the elementary school, located on the cor","private_ac":0,"5 stars":0,"comment_co":0,"id":"162","state_code":"DC","lng":-77.065266,"1 star":0,"photo_coun":0,"rating_cou":"NULL","2 stars":0,"address":"3301 Lowell Street NW","lat":38.932571,"3 stars":0,"4 stars":0},"type":"Feature","geometry":{"type":"Point","coordinates":[-77.065266,38.932571]}},{"properties":{"name":"Jose-Arz Academy Public Charter School","city":"Washington","descriptio":"Public school: Facilities available for play during non-school hours.","private_ac":0,"5 stars":0,"comment_co":0,"id":"163","state_code":"DC","lng":-77.003756,"1 star":0,"photo_coun":0,"rating_cou":"NULL","2 stars":0,"address":"220 Taylor St Ne","lat":38.941465,"3 stars":0,"4 stars":0},"type":"Feature","geometry":{"type":"Point","coordinates":[-77.003756,38.941465]}},{"properties":{"name":"Joseph H. Cole Recreation Center","city":"Washington D.C.","descriptio":null,"private_ac":0,"5 stars":1,"comment_co":0,"id":"164","state_code":"DC","lng":-76.989465,"1 star":0,"photo_coun":0,"rating_cou":"7","2 stars":1,"address":"1200 Morse Street NE","lat":38.903611,"3 stars":0,"4 stars":0},"type":"Feature","geometry":{"type":"Point","coordinates":[-76.989465,38.903611]}},{"properties":{"name":"kaboom","city":"Washington D.C.","descriptio":"Good","private_ac":0,"5 stars":0,"comment_co":0,"id":"165","state_code":"DC","lng":-77.007133,"1 star":0,"photo_coun":0,"rating_cou":"NULL","2 stars":0,"address":"Washington Heliport, 1724 South Capitol St Se","lat":38.868926,"3 stars":0,"4 stars":0},"type":"Feature","geometry":{"type":"Point","coordinates":[-77.007133,38.868926]}},{"properties":{"name":"KaBOOM! National Headquarters","city":"Washington","descriptio":"National Headquarters of KaBOOM!, the national non-profit dedicated to a great p","private_ac":0,"5 stars":4,"comment_co":1,"id":"166","state_code":"DC","lng":-77.065022,"1 star":0,"photo_coun":11,"rating_cou":"22","2 stars":1,"address":"4455 Connecticut Ave., NW","lat":38.946793,"3 stars":0,"4 stars":0},"type":"Feature","geometry":{"type":"Point","coordinates":[-77.065022,38.946793]}},{"properties":{"name":"Kalorama Park","city":"Washington","descriptio":"Separate play space for 2-5 year olds (tot lot).  There is also a play area for","private_ac":0,"5 stars":2,"comment_co":0,"id":"167","state_code":"DC","lng":-77.043883,"1 star":0,"photo_coun":0,"rating_cou":"21","2 stars":0,"address":"Columbia Rd and Belmont Rd NW","lat":38.920617,"3 stars":1,"4 stars":1},"type":"Feature","geometry":{"type":"Point","coordinates":[-77.043883,38.920617]}},{"properties":{"name":"Kalorama Park","city":"Washington, D.C.","descriptio":"Kalorama has a basketball court, and a fenced in tot lot play area and another f","private_ac":0,"5 stars":0,"comment_co":0,"id":"168","state_code":"DC","lng":-77.043883,"1 star":0,"photo_coun":7,"rating_cou":"3","2 stars":0,"address":"Columbia Rd Nw and Belmont NW","lat":38.920617,"3 stars":1,"4 stars":1},"type":"Feature","geometry":{"type":"Point","coordinates":[-77.043883,38.920617]}},{"properties":{"name":"Keely's District Boxing &amp; Youth Center","city":"Washington","descriptio":"Making a difference for today's youth!","private_ac":0,"5 stars":0,"comment_co":0,"id":"169","state_code":"DC","lng":-77.034264,"1 star":0,"photo_coun":2,"rating_cou":"2","2 stars":1,"address":"1458 Columbia Rd NW","lat":38.927147,"3 stars":0,"4 stars":0},"type":"Feature","geometry":{"type":"Point","coordinates":[-77.034264,38.927147]}},{"properties":{"name":"Kelly Miller","city":"Washington","descriptio":"Playground","private_ac":0,"5 stars":0,"comment_co":0,"id":"170","state_code":"DC","lng":-77.017812,"1 star":0,"photo_coun":0,"rating_cou":"NULL","2 stars":0,"address":"4th Street NW","lat":38.956505,"3 stars":0,"4 stars":0},"type":"Feature","geometry":{"type":"Point","coordinates":[-77.017812,38.956505]}},{"properties":{"name":"Kenilworth Courts","city":"Washington","descriptio":"Separate play space for 2-5 year olds (tot lot).  Babble-on, u bounce, adventure","private_ac":0,"5 stars":0,"comment_co":0,"id":"171","state_code":"DC","lng":-76.937511,"1 star":0,"photo_coun":0,"rating_cou":"NULL","2 stars":0,"address":"4500 Quarles Ne","lat":38.911521,"3 stars":0,"4 stars":0},"type":"Feature","geometry":{"type":"Point","coordinates":[-76.937511,38.911521]}},{"properties":{"name":"Kenilworth Elementary School","city":"Washington","descriptio":"Public school: Facilities available for play during non-school hours.","private_ac":0,"5 stars":0,"comment_co":0,"id":"172","state_code":"DC","lng":-76.940239,"1 star":0,"photo_coun":0,"rating_cou":"NULL","2 stars":0,"address":"1300 44th St Ne","lat":38.90723,"3 stars":0,"4 stars":0},"type":"Feature","geometry":{"type":"Point","coordinates":[-76.940239,38.90723]}},{"properties":{"name":"Kenilworth-Parkside Recreation Center","city":"Washington","descriptio":"Housed within Cesar Chavez Public Charter School this recreation center has a ba","private_ac":0,"5 stars":0,"comment_co":0,"id":"173","state_code":"DC","lng":-76.940297,"1 star":0,"photo_coun":0,"rating_cou":"NULL","2 stars":0,"address":"1300 44th St NE","lat":38.907224,"3 stars":0,"4 stars":0},"type":"Feature","geometry":{"type":"Point","coordinates":[-76.940297,38.907224]}},{"properties":{"name":"Ketcham Elementary School","city":"Washington","descriptio":"Public school: Facilities available for play during non-school hours.. Separate","private_ac":0,"5 stars":0,"comment_co":0,"id":"174","state_code":"DC","lng":-76.983262,"1 star":0,"photo_coun":0,"rating_cou":"NULL","2 stars":0,"address":"1919 15th St Se","lat":38.866259,"3 stars":0,"4 stars":0},"type":"Feature","geometry":{"type":"Point","coordinates":[-76.983262,38.866259]}},{"properties":{"name":"Key Elementary School Playground","city":"Washington","descriptio":"School Playground","private_ac":0,"5 stars":0,"comment_co":0,"id":"175","state_code":"DC","lng":-77.100542,"1 star":0,"photo_coun":0,"rating_cou":"NULL","2 stars":0,"address":"5001 Dana Pl. NW","lat":38.926599,"3 stars":0,"4 stars":0},"type":"Feature","geometry":{"type":"Point","coordinates":[-77.100542,38.926599]}},{"properties":{"name":"Kimball Elementary School","city":"Washington","descriptio":"Public school: Facilities available for play during non-school hours.","private_ac":0,"5 stars":0,"comment_co":0,"id":"176","state_code":"DC","lng":-76.957794,"1 star":0,"photo_coun":0,"rating_cou":"NULL","2 stars":0,"address":"3375 Minnesota Ave Se","lat":38.883249,"3 stars":0,"4 stars":0},"type":"Feature","geometry":{"type":"Point","coordinates":[-76.957794,38.883249]}},{"properties":{"name":"King-Greenleaf Recreation Center","city":"Washington","descriptio":"This site includes a playground, large recreation field and a tennis court.","private_ac":0,"5 stars":0,"comment_co":0,"id":"177","state_code":"DC","lng":-77.012465,"1 star":0,"photo_coun":0,"rating_cou":"NULL","2 stars":0,"address":"201 N St SW","lat":38.874396,"3 stars":0,"4 stars":0},"type":"Feature","geometry":{"type":"Point","coordinates":[-77.012465,38.874396]}},{"properties":{"name":"Kingman and Heritage Islands","city":"Washington","descriptio":"Separate play space for 2-5 year olds (tot lot).  _x000D__x000D__x000D__x000D__x","private_ac":0,"5 stars":0,"comment_co":0,"id":"178","state_code":"DC","lng":-76.969485,"1 star":0,"photo_coun":0,"rating_cou":"NULL","2 stars":0,"address":"Benning Rd NE and Oklahoma Ave Ne","lat":38.897721,"3 stars":0,"4 stars":0},"type":"Feature","geometry":{"type":"Point","coordinates":[-76.969485,38.897721]}},{"properties":{"name":"Kingsbury Playground","city":"Washington","descriptio":null,"private_ac":0,"5 stars":0,"comment_co":0,"id":"179","state_code":"DC","lng":-77.034093,"1 star":0,"photo_coun":0,"rating_cou":"3","2 stars":0,"address":"5000 14th Street NW","lat":38.951017,"3 stars":1,"4 stars":1},"type":"Feature","geometry":{"type":"Point","coordinates":[-77.034093,38.951017]}},{"properties":{"name":"Kipp Dc/Key Academy","city":"Washington","descriptio":"Public school: Facilities available for play during non-school hours.","private_ac":0,"5 stars":0,"comment_co":0,"id":"180","state_code":"DC","lng":-76.995567,"1 star":0,"photo_coun":0,"rating_cou":"NULL","2 stars":0,"address":"770 M St Se","lat":38.877061,"3 stars":0,"4 stars":0},"type":"Feature","geometry":{"type":"Point","coordinates":[-76.995567,38.877061]}},{"properties":{"name":"Kramer Middle School","city":"Washington","descriptio":"Public school: Facilities available for play during non-school hours.","private_ac":0,"5 stars":0,"comment_co":0,"id":"181","state_code":"DC","lng":-76.979921,"1 star":0,"photo_coun":0,"rating_cou":"NULL","2 stars":0,"address":"1700 Q St Se","lat":38.872192,"3 stars":0,"4 stars":0},"type":"Feature","geometry":{"type":"Point","coordinates":[-76.979921,38.872192]}},{"properties":{"name":"Lafayette Elementary School","city":"Washington D.C.","descriptio":"lots of asphault games. Great playgrounds for 2-5 and 5-12","private_ac":0,"5 stars":1,"comment_co":0,"id":"182","state_code":"DC","lng":-77.068348,"1 star":0,"photo_coun":2,"rating_cou":"5","2 stars":0,"address":"5701 Broad Branch Rd NW","lat":38.965822,"3 stars":0,"4 stars":0},"type":"Feature","geometry":{"type":"Point","coordinates":[-77.068348,38.965822]}},{"properties":{"name":"Lafayette Elementary School Playground","city":"Washington","descriptio":"School Playground","private_ac":0,"5 stars":0,"comment_co":0,"id":"183","state_code":"DC","lng":-77.06843,"1 star":0,"photo_coun":0,"rating_cou":"NULL","2 stars":0,"address":"5701 Broad Branch Rd. NW","lat":38.965866,"3 stars":0,"4 stars":0},"type":"Feature","geometry":{"type":"Point","coordinates":[-77.06843,38.965866]}},{"properties":{"name":"Lafayette Recreation Center","city":"Washington","descriptio":"NULL","private_ac":0,"5 stars":0,"comment_co":0,"id":"184","state_code":"DC","lng":-77.066357,"1 star":0,"photo_coun":8,"rating_cou":"NULL","2 stars":0,"address":"5900 33rd St NW","lat":38.967622,"3 stars":0,"4 stars":0},"type":"Feature","geometry":{"type":"Point","coordinates":[-77.066357,38.967622]}},{"properties":{"name":"LAMB Charter School","city":"Washington","descriptio":"Separate play space for 2-5 year olds (tot lot).  Crazy bones bridge, Whirlwind","private_ac":0,"5 stars":0,"comment_co":0,"id":"185","state_code":"DC","lng":-77.032395,"1 star":0,"photo_coun":0,"rating_cou":"3","2 stars":0,"address":"1375 Missouri Ave NW","lat":38.962158,"3 stars":1,"4 stars":1},"type":"Feature","geometry":{"type":"Point","coordinates":[-77.032395,38.962158]}},{"properties":{"name":"Lamond Playground","city":"Washington","descriptio":"Sports field","private_ac":0,"5 stars":0,"comment_co":0,"id":"186","state_code":"DC","lng":-77.008654,"1 star":0,"photo_coun":0,"rating_cou":"NULL","2 stars":0,"address":"20 Tuckerman St. NE","lat":38.96735,"3 stars":0,"4 stars":0},"type":"Feature","geometry":{"type":"Point","coordinates":[-77.008654,38.96735]}},{"properties":{"name":"Langdon Elementary School","city":"Washington","descriptio":"Public school: Facilities available for play during non-school hours..","private_ac":0,"5 stars":0,"comment_co":0,"id":"187","state_code":"DC","lng":-76.977461,"1 star":0,"photo_coun":0,"rating_cou":"NULL","2 stars":0,"address":"1900 Evarts St Ne","lat":38.924525,"3 stars":0,"4 stars":0},"type":"Feature","geometry":{"type":"Point","coordinates":[-76.977461,38.924525]}},{"properties":{"name":"Langdon Park Community Center","city":"Washington","descriptio":"This site includes a playground, skate park, basketball court and a multipurpose","private_ac":0,"5 stars":0,"comment_co":0,"id":"188","state_code":"DC","lng":-76.976202,"1 star":0,"photo_coun":0,"rating_cou":"NULL","2 stars":0,"address":"2901 20th St. NE","lat":38.927021,"3 stars":0,"4 stars":0},"type":"Feature","geometry":{"type":"Point","coordinates":[-76.976202,38.927021]}},{"properties":{"name":"Langston Terrace","city":"Washington","descriptio":"Playground","private_ac":0,"5 stars":0,"comment_co":0,"id":"189","state_code":"DC","lng":-76.973317,"1 star":0,"photo_coun":0,"rating_cou":"NULL","2 stars":0,"address":"G Street NE","lat":38.898924,"3 stars":0,"4 stars":0},"type":"Feature","geometry":{"type":"Point","coordinates":[-76.973317,38.898924]}},{"properties":{"name":"Lasalle Elementary School","city":"Washington","descriptio":"Public school: Facilities available for play during non-school hours.","private_ac":0,"5 stars":0,"comment_co":0,"id":"190","state_code":"DC","lng":-76.998754,"1 star":0,"photo_coun":0,"rating_cou":"NULL","2 stars":0,"address":"501 Riggs Rd Ne","lat":38.961076,"3 stars":0,"4 stars":0},"type":"Feature","geometry":{"type":"Point","coordinates":[-76.998754,38.961076]}},{"properties":{"name":"Latin American Montessori Bilingual Public Charter School (LAMB PCS)","city":"Washington","descriptio":"KaBOOM! and FBR Capital Markets built the playground at this school in 2006.  Th","private_ac":0,"5 stars":0,"comment_co":0,"id":"191","state_code":"DC","lng":-77.032395,"1 star":0,"photo_coun":0,"rating_cou":"NULL","2 stars":0,"address":"1375 Missouri Ave., NW","lat":38.962158,"3 stars":0,"4 stars":0},"type":"Feature","geometry":{"type":"Point","coordinates":[-77.032395,38.962158]}},{"properties":{"name":"Leckie Elementary School","city":"Washington","descriptio":"Public school: Facilities available for play during non-school hours.","private_ac":0,"5 stars":0,"comment_co":0,"id":"192","state_code":"DC","lng":-77.012553,"1 star":0,"photo_coun":0,"rating_cou":"NULL","2 stars":0,"address":"4200 M L King Jr Ave","lat":38.828626,"3 stars":0,"4 stars":0},"type":"Feature","geometry":{"type":"Point","coordinates":[-77.012553,38.828626]}},{"properties":{"name":"Lederer Gardens","city":"Washington","descriptio":"This site has a greenhouse and community garden.","private_ac":0,"5 stars":0,"comment_co":0,"id":"193","state_code":"DC","lng":-76.93296,"1 star":0,"photo_coun":0,"rating_cou":"NULL","2 stars":0,"address":"4801 Nannie Helen Burroughs Avenue, NE","lat":38.898892,"3 stars":0,"4 stars":0},"type":"Feature","geometry":{"type":"Point","coordinates":[-76.93296,38.898892]}},{"properties":{"name":"Lincoln Heights","city":"Washington","descriptio":"Playground","private_ac":0,"5 stars":0,"comment_co":0,"id":"194","state_code":"DC","lng":-76.929588,"1 star":0,"photo_coun":0,"rating_cou":"NULL","2 stars":0,"address":"50th Street NE","lat":38.89867,"3 stars":0,"4 stars":0},"type":"Feature","geometry":{"type":"Point","coordinates":[-76.929588,38.89867]}},{"properties":{"name":"Lincoln Park NE","city":"Washington","descriptio":"This park is a local gathering point for many toddlers, babies and young childre","private_ac":0,"5 stars":0,"comment_co":0,"id":"195","state_code":"DC","lng":-76.988307,"1 star":0,"photo_coun":3,"rating_cou":"4","2 stars":0,"address":"East Capitol and 13th Street, NE","lat":38.889949,"3 stars":0,"4 stars":0},"type":"Feature","geometry":{"type":"Point","coordinates":[-76.988307,38.889949]}},{"properties":{"name":"Lincoln Park SE","city":"Washington","descriptio":"This space is well suited to young children with a variety of different activiti","private_ac":0,"5 stars":0,"comment_co":0,"id":"196","state_code":"DC","lng":-76.98831,"1 star":0,"photo_coun":4,"rating_cou":"8","2 stars":2,"address":"East Capitol and 13th St, SE","lat":38.889622,"3 stars":0,"4 stars":0},"type":"Feature","geometry":{"type":"Point","coordinates":[-76.98831,38.889622]}},{"properties":{"name":"Ludlow-Taylor Elementary School","city":"Washington","descriptio":"Public school: Facilities available for play during non-school hours.","private_ac":0,"5 stars":0,"comment_co":0,"id":"197","state_code":"DC","lng":-76.996506,"1 star":0,"photo_coun":0,"rating_cou":"2","2 stars":1,"address":"659 G St Ne","lat":38.898882,"3 stars":0,"4 stars":0},"type":"Feature","geometry":{"type":"Point","coordinates":[-76.996506,38.898882]}},{"properties":{"name":"MacFarland Middle School","city":"Washington","descriptio":"Public school: Facilities available for play during non-school hours.","private_ac":0,"5 stars":0,"comment_co":0,"id":"198","state_code":"DC","lng":-77.027343,"1 star":0,"photo_coun":0,"rating_cou":"NULL","2 stars":0,"address":"4400 Iowa Ave NW","lat":38.943945,"3 stars":0,"4 stars":0},"type":"Feature","geometry":{"type":"Point","coordinates":[-77.027343,38.943945]}},{"properties":{"name":"Macomb Recreation Center","city":"Washington","descriptio":"This Rec Center, part of DC Parks &amp; Rec, has two playgrounds. The upper one is m","private_ac":0,"5 stars":1,"comment_co":0,"id":"199","state_code":"DC","lng":-77.066937,"1 star":0,"photo_coun":9,"rating_cou":"9","2 stars":0,"address":"3409 Macomb St NW","lat":38.933473,"3 stars":0,"4 stars":0},"type":"Feature","geometry":{"type":"Point","coordinates":[-77.066937,38.933473]}},{"properties":{"name":"Malcolm X Elementary School","city":"Washington","descriptio":"Public school: Facilities available for play during non-school hours.","private_ac":0,"5 stars":0,"comment_co":0,"id":"200","state_code":"DC","lng":-76.985968,"1 star":0,"photo_coun":0,"rating_cou":"NULL","2 stars":0,"address":"1351 Alabama Ave Se","lat":38.844345,"3 stars":0,"4 stars":0},"type":"Feature","geometry":{"type":"Point","coordinates":[-76.985968,38.844345]}},{"properties":{"name":"Mamie D. Lee School","city":"Washington","descriptio":"Who wants to stand on the sidelines and watch? That is why LSIs Transfer Module","private_ac":0,"5 stars":0,"comment_co":0,"id":"201","state_code":"DC","lng":-77.00779,"1 star":0,"photo_coun":0,"rating_cou":"NULL","2 stars":0,"address":"100 Gallatin street, NE","lat":38.952374,"3 stars":0,"4 stars":0},"type":"Feature","geometry":{"type":"Point","coordinates":[-77.00779,38.952374]}},{"properties":{"name":"Mann Elementary School","city":"Washington","descriptio":"Public school: Facilities available for play during non-school hours.","private_ac":0,"5 stars":0,"comment_co":0,"id":"202","state_code":"DC","lng":-77.087519,"1 star":0,"photo_coun":0,"rating_cou":"NULL","2 stars":0,"address":"4430 Newark St NW","lat":38.934001,"3 stars":0,"4 stars":0},"type":"Feature","geometry":{"type":"Point","coordinates":[-77.087519,38.934001]}},{"properties":{"name":"Maplewood Apartments","city":"Washington","descriptio":"FastFun is so easy! You choose from 5 designs like these, pick a color, and plac","private_ac":0,"5 stars":0,"comment_co":0,"id":"203","state_code":"DC","lng":-76.97347,"1 star":0,"photo_coun":0,"rating_cou":"NULL","2 stars":0,"address":"23rd Place and Hartford Street SE","lat":38.854075,"3 stars":0,"4 stars":0},"type":"Feature","geometry":{"type":"Point","coordinates":[-76.97347,38.854075]}},{"properties":{"name":"Maria Barry","city":"Washington","descriptio":null,"private_ac":0,"5 stars":0,"comment_co":0,"id":"204","state_code":"DC","lng":-77.033398,"1 star":0,"photo_coun":0,"rating_cou":"NULL","2 stars":0,"address":"14th and Hamilton, NW","lat":38.952853,"3 stars":0,"4 stars":0},"type":"Feature","geometry":{"type":"Point","coordinates":[-77.033398,38.952853]}},{"properties":{"name":"Marie H. Reed Community Learning Center","city":"Washington","descriptio":"NULL","private_ac":0,"5 stars":0,"comment_co":0,"id":"205","state_code":"DC","lng":-77.041598,"1 star":0,"photo_coun":6,"rating_cou":"7","2 stars":0,"address":"18th Street NW","lat":38.919188,"3 stars":1,"4 stars":1},"type":"Feature","geometry":{"type":"Point","coordinates":[-77.041598,38.919188]}},{"properties":{"name":"Marion Park","city":"Washington","descriptio":null,"private_ac":0,"5 stars":0,"comment_co":0,"id":"206","state_code":"DC","lng":-76.9995,"1 star":0,"photo_coun":4,"rating_cou":"3","2 stars":0,"address":"5th and G St SE","lat":38.881278,"3 stars":1,"4 stars":1},"type":"Feature","geometry":{"type":"Point","coordinates":[-76.9995,38.881278]}},{"properties":{"name":"Martin Luther King Jr. Elementary School Playground","city":"Washington","descriptio":"School Playground","private_ac":0,"5 stars":0,"comment_co":0,"id":"207","state_code":"DC","lng":-76.998431,"1 star":0,"photo_coun":0,"rating_cou":"NULL","2 stars":0,"address":"3200 6th St. SE","lat":38.843104,"3 stars":0,"4 stars":0},"type":"Feature","geometry":{"type":"Point","coordinates":[-76.998431,38.843104]}},{"properties":{"name":"Marvin Gaye Park Playground","city":"Washington","descriptio":"Across the street from Marvin Gaye Park (formerly Watts Branch Park). Separate p","private_ac":0,"5 stars":1,"comment_co":0,"id":"208","state_code":"DC","lng":-76.925643,"1 star":0,"photo_coun":4,"rating_cou":"5","2 stars":0,"address":"5200 Foote Street, NE","lat":38.897612,"3 stars":0,"4 stars":0},"type":"Feature","geometry":{"type":"Point","coordinates":[-76.925643,38.897612]}},{"properties":{"name":"Maury Elementary School","city":"Washington","descriptio":"Public school: Facilities available for play during non-school hours.","private_ac":0,"5 stars":0,"comment_co":53,"id":"209","state_code":"DC","lng":-76.989012,"1 star":0,"photo_coun":4,"rating_cou":"8","2 stars":0,"address":"1250 Constitution Ave. NE","lat":38.892026,"3 stars":0,"4 stars":0},"type":"Feature","geometry":{"type":"Point","coordinates":[-76.989012,38.892026]}},{"properties":{"name":"Maya Angelou Public Charter School","city":"Washington","descriptio":"Public school: Facilities available for play during non-school hours.","private_ac":0,"5 stars":0,"comment_co":0,"id":"210","state_code":"DC","lng":-77.023613,"1 star":0,"photo_coun":0,"rating_cou":"NULL","2 stars":0,"address":"1851 9th St NW","lat":38.915386,"3 stars":0,"4 stars":0},"type":"Feature","geometry":{"type":"Point","coordinates":[-77.023613,38.915386]}},{"properties":{"name":"McGogney Elementary School","city":"Washington","descriptio":"Public school: Facilities available for play during non-school hours.","private_ac":0,"5 stars":0,"comment_co":0,"id":"211","state_code":"DC","lng":-76.993628,"1 star":0,"photo_coun":0,"rating_cou":"NULL","2 stars":0,"address":"3400 Wheeler Rd Se","lat":38.84046,"3 stars":0,"4 stars":0},"type":"Feature","geometry":{"type":"Point","coordinates":[-76.993628,38.84046]}},{"properties":{"name":"McLean Gardens","city":"Washington D.C.","descriptio":"Nice playground in the McLean Gardens condominium community.  Ideal for 3-8 year","private_ac":0,"5 stars":0,"comment_co":0,"id":"212","state_code":"DC","lng":-77.077146,"1 star":0,"photo_coun":0,"rating_cou":"NULL","2 stars":0,"address":"39th and Newark NW","lat":38.935671,"3 stars":0,"4 stars":0},"type":"Feature","geometry":{"type":"Point","coordinates":[-77.077146,38.935671]}},{"properties":{"name":"Meridian Hill Park","city":"Washington DC","descriptio":"Playground","private_ac":0,"5 stars":1,"comment_co":2,"id":"213","state_code":"DC","lng":-77.036455,"1 star":0,"photo_coun":0,"rating_cou":"8","2 stars":0,"address":"16th Street and Euclid Street NW","lat":38.92323,"3 stars":1,"4 stars":1},"type":"Feature","geometry":{"type":"Point","coordinates":[-77.036455,38.92323]}},{"properties":{"name":"Meridian Public Charter School","city":"Washington","descriptio":"Public school: Facilities available for play during non-school hours.","private_ac":0,"5 stars":0,"comment_co":0,"id":"214","state_code":"DC","lng":-77.030456,"1 star":0,"photo_coun":0,"rating_cou":"NULL","2 stars":0,"address":"1328 Florida Ave NW","lat":38.919869,"3 stars":0,"4 stars":0},"type":"Feature","geometry":{"type":"Point","coordinates":[-77.030456,38.919869]}},{"properties":{"name":"Merritt Elementary School","city":"Washington","descriptio":"Public school: Facilities available for play during non-school hours.","private_ac":0,"5 stars":0,"comment_co":0,"id":"215","state_code":"DC","lng":-76.929458,"1 star":0,"photo_coun":0,"rating_cou":"NULL","2 stars":0,"address":"5002 Hayes St Ne","lat":38.900031,"3 stars":0,"4 stars":0},"type":"Feature","geometry":{"type":"Point","coordinates":[-76.929458,38.900031]}},{"properties":{"name":"Meyer Elementary School","city":"Washington","descriptio":"Public school: Facilities available for play during non-school hours.","private_ac":0,"5 stars":0,"comment_co":0,"id":"216","state_code":"DC","lng":-77.026241,"1 star":0,"photo_coun":0,"rating_cou":"NULL","2 stars":0,"address":"2501 11th St NW","lat":38.922828,"3 stars":0,"4 stars":0},"type":"Feature","geometry":{"type":"Point","coordinates":[-77.026241,38.922828]}},{"properties":{"name":"Miner Elementary School","city":"Washington","descriptio":"Public school: Facilities available for play during non-school hours.","private_ac":0,"5 stars":0,"comment_co":0,"id":"217","state_code":"DC","lng":-76.982895,"1 star":0,"photo_coun":0,"rating_cou":"NULL","2 stars":0,"address":"601 15th St Ne","lat":38.897899,"3 stars":0,"4 stars":0},"type":"Feature","geometry":{"type":"Point","coordinates":[-76.982895,38.897899]}},{"properties":{"name":"Mitchell Park","city":"Washington","descriptio":"NULL","private_ac":0,"5 stars":1,"comment_co":0,"id":"218","state_code":"DC","lng":-77.050571,"1 star":0,"photo_coun":2,"rating_cou":"5","2 stars":0,"address":"23rd and S Street, NW","lat":38.914057,"3 stars":0,"4 stars":0},"type":"Feature","geometry":{"type":"Point","coordinates":[-77.050571,38.914057]}},{"properties":{"name":"Monroe Street Playground","city":"DC","descriptio":"NULL","private_ac":0,"5 stars":0,"comment_co":0,"id":"219","state_code":"DC","lng":-77.028447,"1 star":0,"photo_coun":0,"rating_cou":"5","2 stars":1,"address":"11th and Monroe Streets","lat":38.932753,"3 stars":1,"4 stars":1},"type":"Feature","geometry":{"type":"Point","coordinates":[-77.028447,38.932753]}},{"properties":{"name":"Montrose Park","city":"Washington","descriptio":"playground at Montrose Park","private_ac":0,"5 stars":0,"comment_co":0,"id":"220","state_code":"DC","lng":-77.063048,"1 star":0,"photo_coun":4,"rating_cou":"4","2 stars":0,"address":"3099 R Street, NW","lat":38.913269,"3 stars":0,"4 stars":0},"type":"Feature","geometry":{"type":"Point","coordinates":[-77.063048,38.913269]}},{"properties":{"name":"Moore, Luke Academy","city":"Washington","descriptio":"Public school: Facilities available for play during non-school hours.","private_ac":0,"5 stars":0,"comment_co":0,"id":"221","state_code":"DC","lng":-76.992425,"1 star":0,"photo_coun":0,"rating_cou":"NULL","2 stars":0,"address":"1000 Monroe St Ne","lat":38.932595,"3 stars":0,"4 stars":0},"type":"Feature","geometry":{"type":"Point","coordinates":[-76.992425,38.932595]}},{"properties":{"name":"Moten Elementary School","city":"Washington","descriptio":"Public school: Facilities available for play during non-school hours.","private_ac":0,"5 stars":0,"comment_co":0,"id":"222","state_code":"DC","lng":-76.983281,"1 star":0,"photo_coun":0,"rating_cou":"NULL","2 stars":0,"address":"1565 Morris Rd Se","lat":38.856985,"3 stars":0,"4 stars":0},"type":"Feature","geometry":{"type":"Point","coordinates":[-76.983281,38.856985]}},{"properties":{"name":"Murch Elementary School Playground","city":"Washington","descriptio":"This is a new playground for the school, but it is commonly used by neighborhood","private_ac":0,"5 stars":2,"comment_co":0,"id":"223","state_code":"DC","lng":-77.069834,"1 star":0,"photo_coun":2,"rating_cou":"10","2 stars":0,"address":"4810 36th Street, NW","lat":38.952348,"3 stars":0,"4 stars":0},"type":"Feature","geometry":{"type":"Point","coordinates":[-77.069834,38.952348]}},{"properties":{"name":"Nalle Elementary School","city":"Washington","descriptio":"Public school: Facilities available for play during non-school hours.","private_ac":0,"5 stars":0,"comment_co":0,"id":"224","state_code":"DC","lng":-76.930437,"1 star":0,"photo_coun":0,"rating_cou":"NULL","2 stars":0,"address":"219 50th St Se","lat":38.886115,"3 stars":0,"4 stars":0},"type":"Feature","geometry":{"type":"Point","coordinates":[-76.930437,38.886115]}},{"properties":{"name":"Nation's Capital Child and Family Development","city":"Washington","descriptio":"Separate play space for 2-5 year olds (tot lot).","private_ac":0,"5 stars":0,"comment_co":0,"id":"225","state_code":"DC","lng":-76.976663,"1 star":0,"photo_coun":0,"rating_cou":"NULL","2 stars":0,"address":"1501 Benning Rd NE - Lower Level","lat":38.908089,"3 stars":0,"4 stars":0},"type":"Feature","geometry":{"type":"Point","coordinates":[-76.976663,38.908089]}},{"properties":{"name":"National Building Museum","city":"Washington","descriptio":"The National Building Museum has a great area for kids called the Building Zone","private_ac":0,"5 stars":4,"comment_co":1,"id":"226","state_code":"DC","lng":-77.017658,"1 star":0,"photo_coun":0,"rating_cou":"20","2 stars":0,"address":"401 F Street NW","lat":38.897296,"3 stars":0,"4 stars":0},"type":"Feature","geometry":{"type":"Point","coordinates":[-77.017658,38.897296]}},{"properties":{"name":"National Children's Center","city":"Washington","descriptio":"Separate play space for 2-5 year olds (tot lot).  Monorail, Triple Shootout, Arc","private_ac":0,"5 stars":0,"comment_co":0,"id":"227","state_code":"DC","lng":-77.002901,"1 star":0,"photo_coun":0,"rating_cou":"NULL","2 stars":0,"address":"3400 Martin Luther King Jr. Ave Se","lat":38.841193,"3 stars":0,"4 stars":0},"type":"Feature","geometry":{"type":"Point","coordinates":[-77.002901,38.841193]}},{"properties":{"name":"National Children's Center Nw Campus","city":"Washington","descriptio":"Separate play space for 2-5 year olds (tot lot).  Spiral Slide, Trippple Racer S","private_ac":0,"5 stars":0,"comment_co":0,"id":"228","state_code":"DC","lng":-77.014035,"1 star":0,"photo_coun":0,"rating_cou":"NULL","2 stars":0,"address":"6200 2nd St NW","lat":38.965659,"3 stars":0,"4 stars":0},"type":"Feature","geometry":{"type":"Point","coordinates":[-77.014035,38.965659]}},{"properties":{"name":"National Gallery of Art Ice Skating Rink","city":"Washington","descriptio":"Separate play space for 2-5 year olds (tot lot).  Monday through Thursday 10am-1","private_ac":0,"5 stars":1,"comment_co":0,"id":"229","state_code":"DC","lng":-77.021909,"1 star":0,"photo_coun":2,"rating_cou":"5","2 stars":0,"address":"7th Street and Constitution Avenue NW","lat":38.892078,"3 stars":0,"4 stars":0},"type":"Feature","geometry":{"type":"Point","coordinates":[-77.021909,38.892078]}},{"properties":{"name":"National Mall Fields","city":"Washington","descriptio":"Separate play space for 2-5 year olds (tot lot).  The national mall has many fie","private_ac":0,"5 stars":0,"comment_co":0,"id":"230","state_code":"DC","lng":-77.031951,"1 star":1,"photo_coun":5,"rating_cou":"1","2 stars":0,"address":"14th Street and Constitution","lat":38.892089,"3 stars":0,"4 stars":0},"type":"Feature","geometry":{"type":"Point","coordinates":[-77.031951,38.892089]}},{"properties":{"name":"National Park Service","city":"Washington","descriptio":"Its the double decker Play Panel! Located above the Store Panel is the Chimes Pa","private_ac":0,"5 stars":0,"comment_co":0,"id":"231","state_code":"DC","lng":-76.99262,"1 star":0,"photo_coun":0,"rating_cou":"NULL","2 stars":0,"address":"10th and Maryland Ave.","lat":38.896363,"3 stars":0,"4 stars":0},"type":"Feature","geometry":{"type":"Point","coordinates":[-76.99262,38.896363]}},{"properties":{"name":"National Zoo","city":"Washington D.C.","descriptio":null,"private_ac":0,"5 stars":0,"comment_co":0,"id":"232","state_code":"DC","lng":-77.055131,"1 star":0,"photo_coun":0,"rating_cou":"4","2 stars":0,"address":"3001 Connecticut Ave. NW","lat":38.929766,"3 stars":0,"4 stars":0},"type":"Feature","geometry":{"type":"Point","coordinates":[-77.055131,38.929766]}},{"properties":{"name":"New Community After School and Advocacy Program","city":"Washington","descriptio":"Separate play space for 2-5 year olds (tot lot).  Chainbridge, 360 spiral slide,","private_ac":0,"5 stars":0,"comment_co":0,"id":"233","state_code":"DC","lng":-77.020564,"1 star":0,"photo_coun":0,"rating_cou":"NULL","2 stars":0,"address":"614 S St NW","lat":38.91414,"3 stars":0,"4 stars":0},"type":"Feature","geometry":{"type":"Point","coordinates":[-77.020564,38.91414]}},{"properties":{"name":"new day","city":"washington","descriptio":"We are turning the back of our building into a safe and healty place for our chi","private_ac":0,"5 stars":0,"comment_co":0,"id":"234","state_code":"DC","lng":-76.992255,"1 star":0,"photo_coun":0,"rating_cou":"NULL","2 stars":0,"address":"851 yuma st.se","lat":38.832038,"3 stars":0,"4 stars":0},"type":"Feature","geometry":{"type":"Point","coordinates":[-76.992255,38.832038]}},{"properties":{"name":"New York Ave Playground","city":"Washington","descriptio":"We would like to replace the old, broken, and dangerous play equipment with new","private_ac":0,"5 stars":0,"comment_co":0,"id":"235","state_code":"DC","lng":-77.012163,"1 star":0,"photo_coun":0,"rating_cou":"NULL","2 stars":0,"address":"1st &amp; New York Ave NW","lat":38.906334,"3 stars":0,"4 stars":0},"type":"Feature","geometry":{"type":"Point","coordinates":[-77.012163,38.906334]}},{"properties":{"name":"New York Avenue Playground","city":"North West","descriptio":"NULL","private_ac":0,"5 stars":0,"comment_co":0,"id":"236","state_code":"DC","lng":-77.013613,"1 star":0,"photo_coun":0,"rating_cou":"NULL","2 stars":0,"address":"New York Avenue and Kirby Street","lat":38.905819,"3 stars":0,"4 stars":0},"type":"Feature","geometry":{"type":"Point","coordinates":[-77.013613,38.905819]}},{"properties":{"name":"Newlands Park","city":"Washington D.C.","descriptio":"NULL","private_ac":0,"5 stars":0,"comment_co":0,"id":"237","state_code":"DC","lng":-77.057465,"1 star":0,"photo_coun":0,"rating_cou":"3","2 stars":0,"address":"Military and 28th","lat":38.960992,"3 stars":1,"4 stars":1},"type":"Feature","geometry":{"type":"Point","coordinates":[-77.057465,38.960992]}},{"properties":{"name":"Next Step Public Charter School","city":"Washington","descriptio":"Public school: Facilities available for play during non-school hours.","private_ac":0,"5 stars":0,"comment_co":0,"id":"238","state_code":"DC","lng":-77.033723,"1 star":0,"photo_coun":0,"rating_cou":"NULL","2 stars":0,"address":"1419 Columbia Rd NW","lat":38.928027,"3 stars":0,"4 stars":0},"type":"Feature","geometry":{"type":"Point","coordinates":[-77.033723,38.928027]}},{"properties":{"name":"Northwest Settlement House","city":"North West","descriptio":"NULL","private_ac":0,"5 stars":0,"comment_co":0,"id":"239","state_code":"DC","lng":-77.017848,"1 star":0,"photo_coun":0,"rating_cou":"2","2 stars":0,"address":"448 Ridge Street","lat":38.906298,"3 stars":0,"4 stars":0},"type":"Feature","geometry":{"type":"Point","coordinates":[-77.017848,38.906298]}},{"properties":{"name":"Northwest Settlement House","city":"Washington","descriptio":"This cozy structure fits wonderfully into this confined area. Scramble up the Tr","private_ac":0,"5 stars":0,"comment_co":0,"id":"240","state_code":"DC","lng":-77.017848,"1 star":0,"photo_coun":0,"rating_cou":"NULL","2 stars":1,"address":"448 Ridge Street , NW","lat":38.906298,"3 stars":0,"4 stars":0},"type":"Feature","geometry":{"type":"Point","coordinates":[-77.017848,38.906298]}},{"properties":{"name":"Noyes Elementary School","city":"Washington","descriptio":"Public school: Facilities available for play during non-school hours.","private_ac":0,"5 stars":0,"comment_co":0,"id":"241","state_code":"DC","lng":-76.991566,"1 star":0,"photo_coun":0,"rating_cou":"NULL","2 stars":0,"address":"2725 10th St Ne","lat":38.924868,"3 stars":0,"4 stars":0},"type":"Feature","geometry":{"type":"Point","coordinates":[-76.991566,38.924868]}},{"properties":{"name":"Oak Street Apartments","city":"Washington","descriptio":"Playground","private_ac":0,"5 stars":0,"comment_co":0,"id":"242","state_code":"DC","lng":-77.034861,"1 star":0,"photo_coun":0,"rating_cou":"NULL","2 stars":0,"address":"Oak Street NW","lat":38.934484,"3 stars":0,"4 stars":0},"type":"Feature","geometry":{"type":"Point","coordinates":[-77.034861,38.934484]}},{"properties":{"name":"Orr Elementary School","city":"Washington","descriptio":"Public school: Facilities available for play during non-school hours.","private_ac":0,"5 stars":0,"comment_co":0,"id":"243","state_code":"DC","lng":-76.974916,"1 star":0,"photo_coun":0,"rating_cou":"NULL","2 stars":0,"address":"2200 Minnesota Ave Se","lat":38.87139,"3 stars":0,"4 stars":0},"type":"Feature","geometry":{"type":"Point","coordinates":[-76.974916,38.87139]}},{"properties":{"name":"Oxon Run Park","city":"Washington","descriptio":"Separate play space for 2-5 year olds (tot lot).  _x000D__x000D__x000D__x000D__x","private_ac":0,"5 stars":0,"comment_co":0,"id":"244","state_code":"DC","lng":-76.972482,"1 star":0,"photo_coun":0,"rating_cou":"NULL","2 stars":0,"address":"Mississippi Ave SE and Southern Ave SE","lat":38.84374,"3 stars":0,"4 stars":0},"type":"Feature","geometry":{"type":"Point","coordinates":[-76.972482,38.84374]}},{"properties":{"name":"Oxon Run Park","city":"Washington","descriptio":"Separate play space for 2-5 year olds (tot lot).  U-Bounce, Climb Across, Superd","private_ac":0,"5 stars":0,"comment_co":0,"id":"245","state_code":"DC","lng":-77.00329,"1 star":0,"photo_coun":0,"rating_cou":"NULL","2 stars":0,"address":"4414 Livingston Rd Se","lat":38.825453,"3 stars":0,"4 stars":0},"type":"Feature","geometry":{"type":"Point","coordinates":[-77.00329,38.825453]}},{"properties":{"name":"Oxon Run Park","city":"Washington","descriptio":"Equipment by Playworld Systems Inc.","private_ac":0,"5 stars":0,"comment_co":0,"id":"246","state_code":"DC","lng":-76.988426,"1 star":0,"photo_coun":0,"rating_cou":"NULL","2 stars":0,"address":"1300 Mississippi Ave., S.E.","lat":38.839875,"3 stars":0,"4 stars":0},"type":"Feature","geometry":{"type":"Point","coordinates":[-76.988426,38.839875]}},{"properties":{"name":"Oxon Run Pool","city":"Washington","descriptio":"This site includes a pool.","private_ac":0,"5 stars":0,"comment_co":0,"id":"247","state_code":"DC","lng":-77.000272,"1 star":0,"photo_coun":0,"rating_cou":"NULL","2 stars":0,"address":"441 Mississippi Ave Se","lat":38.836539,"3 stars":0,"4 stars":0},"type":"Feature","geometry":{"type":"Point","coordinates":[-77.000272,38.836539]}},{"properties":{"name":"Oyster Elementary School","city":"Washington","descriptio":"Step right up onto the Transfer Module, the Talk Tube announcer states.  It is t","private_ac":0,"5 stars":0,"comment_co":0,"id":"248","state_code":"DC","lng":-77.057363,"1 star":0,"photo_coun":0,"rating_cou":"NULL","2 stars":0,"address":"2801 Calvert street NW","lat":38.923789,"3 stars":0,"4 stars":0},"type":"Feature","geometry":{"type":"Point","coordinates":[-77.057363,38.923789]}},{"properties":{"name":"Oyster Elementary School Playground","city":"North West","descriptio":"NULL","private_ac":0,"5 stars":0,"comment_co":0,"id":"249","state_code":"DC","lng":-77.057363,"1 star":0,"photo_coun":0,"rating_cou":"3","2 stars":0,"address":"2801 Calvert street","lat":38.923789,"3 stars":1,"4 stars":1},"type":"Feature","geometry":{"type":"Point","coordinates":[-77.057363,38.923789]}},{"properties":{"name":"P and 2nd street SW","city":"Washington D.C.","descriptio":null,"private_ac":0,"5 stars":0,"comment_co":0,"id":"250","state_code":"DC","lng":-77.013636,"1 star":0,"photo_coun":1,"rating_cou":"3","2 stars":0,"address":"P and 2nd street Southwest","lat":38.885053,"3 stars":1,"4 stars":1},"type":"Feature","geometry":{"type":"Point","coordinates":[-77.013636,38.885053]}},{"properties":{"name":"Palisades Park","city":"Washington","descriptio":"A multi-use community center, playground and playspace.","private_ac":0,"5 stars":1,"comment_co":0,"id":"251","state_code":"DC","lng":-77.103725,"1 star":0,"photo_coun":0,"rating_cou":"5","2 stars":0,"address":"5200 Sherrier Place, NW","lat":38.925698,"3 stars":0,"4 stars":0},"type":"Feature","geometry":{"type":"Point","coordinates":[-77.103725,38.925698]}},{"properties":{"name":"Park Playground","city":"Washington","descriptio":"Testing app","private_ac":0,"5 stars":0,"comment_co":0,"id":"252","state_code":"DC","lng":-77.051872,"1 star":0,"photo_coun":0,"rating_cou":"NULL","2 stars":0,"address":"Connecticut Ave Nw","lat":38.940719,"3 stars":0,"4 stars":0},"type":"Feature","geometry":{"type":"Point","coordinates":[-77.051872,38.940719]}},{"properties":{"name":"Park Southern Neighborhood Corporation","city":"Washington D.C.","descriptio":"Community build!","private_ac":0,"5 stars":1,"comment_co":0,"id":"253","state_code":"DC","lng":-76.992581,"1 star":0,"photo_coun":3,"rating_cou":"5","2 stars":0,"address":"800 Southern Avenue","lat":38.828026,"3 stars":0,"4 stars":0},"type":"Feature","geometry":{"type":"Point","coordinates":[-76.992581,38.828026]}},{"properties":{"name":"Parkview Elementary","city":"Washington","descriptio":"Playground next to Park View Elementary School. Unknown if it is open to the pub","private_ac":0,"5 stars":0,"comment_co":1,"id":"254","state_code":"DC","lng":-77.020813,"1 star":0,"photo_coun":0,"rating_cou":"3","2 stars":0,"address":"3560 Warder St NW","lat":38.933974,"3 stars":1,"4 stars":1},"type":"Feature","geometry":{"type":"Point","coordinates":[-77.020813,38.933974]}},{"properties":{"name":"Parkview Recreation Center","city":"Washington","descriptio":"Separate play space for 2-5 year olds (tot lot.) Basketball courts, swimming poo","private_ac":0,"5 stars":1,"comment_co":0,"id":"255","state_code":"DC","lng":-77.021165,"1 star":0,"photo_coun":2,"rating_cou":"12","2 stars":0,"address":"Princeton Pl. NW and Warder St. NW","lat":38.935587,"3 stars":1,"4 stars":1},"type":"Feature","geometry":{"type":"Point","coordinates":[-77.021165,38.935587]}},{"properties":{"name":"Patterson Elementary School Playground","city":"Washington","descriptio":"School Playground","private_ac":0,"5 stars":0,"comment_co":0,"id":"256","state_code":"DC","lng":-77.008722,"1 star":0,"photo_coun":0,"rating_cou":"NULL","2 stars":0,"address":"4399 South Capitol Terr. SW","lat":38.826065,"3 stars":0,"4 stars":0},"type":"Feature","geometry":{"type":"Point","coordinates":[-77.008722,38.826065]}},{"properties":{"name":"Paul JHS Public Charter School","city":"Washington","descriptio":"Public school: Facilities available for play during non-school hours..","private_ac":0,"5 stars":0,"comment_co":0,"id":"257","state_code":"DC","lng":-77.024223,"1 star":0,"photo_coun":0,"rating_cou":"NULL","2 stars":0,"address":"5800 8th St NW","lat":38.960354,"3 stars":0,"4 stars":0},"type":"Feature","geometry":{"type":"Point","coordinates":[-77.024223,38.960354]}},{"properties":{"name":"PAYNE ELEMENTARY SCHOOL","city":"WASHINGTON","descriptio":"Public school: Facilities available for play during non-school hours","private_ac":0,"5 stars":0,"comment_co":0,"id":"258","state_code":"DC","lng":-76.983415,"1 star":0,"photo_coun":0,"rating_cou":"NULL","2 stars":0,"address":"305 15TH ST NE","lat":38.893558,"3 stars":0,"4 stars":0},"type":"Feature","geometry":{"type":"Point","coordinates":[-76.983415,38.893558]}},{"properties":{"name":"Payne Recreation Center","city":"Washington D.C.","descriptio":null,"private_ac":0,"5 stars":0,"comment_co":0,"id":"259","state_code":"DC","lng":-76.983597,"1 star":0,"photo_coun":0,"rating_cou":"NULL","2 stars":0,"address":"303 15th Street SE","lat":38.885309,"3 stars":0,"4 stars":0},"type":"Feature","geometry":{"type":"Point","coordinates":[-76.983597,38.885309]}},{"properties":{"name":"People's Co-op","city":"Washington","descriptio":"This is a fantastic playspace.  It inlcudes a double bay of swings, a spiral sli","private_ac":0,"5 stars":1,"comment_co":1,"id":"260","state_code":"DC","lng":-76.987648,"1 star":0,"photo_coun":1,"rating_cou":"5","2 stars":0,"address":"2438 Elvans Road, SE","lat":38.854051,"3 stars":0,"4 stars":0},"type":"Feature","geometry":{"type":"Point","coordinates":[-76.987648,38.854051]}},{"properties":{"name":"Petworth Community park","city":"Washington","descriptio":null,"private_ac":0,"5 stars":0,"comment_co":0,"id":"261","state_code":"DC","lng":-77.030587,"1 star":0,"photo_coun":0,"rating_cou":"3","2 stars":0,"address":"3483 Holmead Pl NW","lat":38.934145,"3 stars":1,"4 stars":1},"type":"Feature","geometry":{"type":"Point","coordinates":[-77.030587,38.934145]}},{"properties":{"name":"Piney Branch Park","city":"Washington","descriptio":"Piney Branch Park is an extension of Rock Creek park located in the upper area o","private_ac":0,"5 stars":0,"comment_co":0,"id":"262","state_code":"DC","lng":-77.035661,"1 star":0,"photo_coun":1,"rating_cou":"3","2 stars":0,"address":"Piney Branch Parkway NW","lat":38.9392,"3 stars":1,"4 stars":1},"type":"Feature","geometry":{"type":"Point","coordinates":[-77.035661,38.9392]}},{"properties":{"name":"Playground","city":"District of Columbia","descriptio":null,"private_ac":0,"5 stars":0,"comment_co":0,"id":"263","state_code":"DC","lng":-77.036285,"1 star":0,"photo_coun":0,"rating_cou":"3","2 stars":0,"address":"K St and 26th St NW","lat":38.983199,"3 stars":1,"4 stars":1},"type":"Feature","geometry":{"type":"Point","coordinates":[-77.036285,38.983199]}},{"properties":{"name":"Playground","city":"Washington D.C.","descriptio":"has a fence around it. I think it is a church, not positive","private_ac":0,"5 stars":0,"comment_co":0,"id":"264","state_code":"DC","lng":-77.054647,"1 star":0,"photo_coun":1,"rating_cou":"3","2 stars":0,"address":"Juniper and 16th Street","lat":38.902358,"3 stars":1,"4 stars":1},"type":"Feature","geometry":{"type":"Point","coordinates":[-77.054647,38.902358]}},{"properties":{"name":"Playground At 11th and Monroe","city":"Washington","descriptio":"All passengers great and small please enter through the Ramp at this time. Were","private_ac":0,"5 stars":0,"comment_co":0,"id":"265","state_code":"DC","lng":-77.028447,"1 star":0,"photo_coun":0,"rating_cou":"NULL","2 stars":0,"address":"11th and Monroe Streets","lat":38.932753,"3 stars":0,"4 stars":0},"type":"Feature","geometry":{"type":"Point","coordinates":[-77.028447,38.932753]}},{"properties":{"name":"Playground at Nationals Park","city":"Washington DC","descriptio":"A playground in the right field of the new Nationals Park baseball stadium.","private_ac":0,"5 stars":0,"comment_co":0,"id":"266","state_code":"DC","lng":-77.008961,"1 star":0,"photo_coun":4,"rating_cou":"7","2 stars":0,"address":"1500 South Capitol Street, SE","lat":38.872011,"3 stars":1,"4 stars":1},"type":"Feature","geometry":{"type":"Point","coordinates":[-77.008961,38.872011]}},{"properties":{"name":"Playground at New York Avenue","city":"Washington","descriptio":"This cute and colorful playground is suitable for ages 2-5 years old. Moving fro","private_ac":0,"5 stars":0,"comment_co":0,"id":"267","state_code":"DC","lng":-77.013613,"1 star":0,"photo_coun":0,"rating_cou":"NULL","2 stars":0,"address":"New York Avenue and Kirby Street NW","lat":38.905819,"3 stars":0,"4 stars":0},"type":"Feature","geometry":{"type":"Point","coordinates":[-77.013613,38.905819]}},{"properties":{"name":"Plummer Elementary School","city":"Washington","descriptio":"Public school: Facilities available for play during non-school hours.","private_ac":0,"5 stars":0,"comment_co":0,"id":"268","state_code":"DC","lng":-76.939685,"1 star":0,"photo_coun":0,"rating_cou":"NULL","2 stars":0,"address":"4601 Texas Ave Se","lat":38.887121,"3 stars":0,"4 stars":0},"type":"Feature","geometry":{"type":"Point","coordinates":[-76.939685,38.887121]}},{"properties":{"name":"Potomac Gardens Playground","city":"Washington, DC","descriptio":null,"private_ac":0,"5 stars":0,"comment_co":0,"id":"269","state_code":"DC","lng":-76.989703,"1 star":0,"photo_coun":6,"rating_cou":"NULL","2 stars":0,"address":"1225 G Street SE","lat":38.881191,"3 stars":0,"4 stars":0},"type":"Feature","geometry":{"type":"Point","coordinates":[-76.989703,38.881191]}},{"properties":{"name":"Powell Elementary School","city":"Washington","descriptio":"Great place to play with lots of open space next to the playground.  Wonderful m","private_ac":0,"5 stars":0,"comment_co":0,"id":"270","state_code":"DC","lng":-77.031456,"1 star":0,"photo_coun":3,"rating_cou":"4","2 stars":0,"address":"1350 Upshur St NW","lat":38.941587,"3 stars":0,"4 stars":0},"type":"Feature","geometry":{"type":"Point","coordinates":[-77.031456,38.941587]}},{"properties":{"name":"R and 5th Playground","city":"Washington","descriptio":"Separate play space for 2-5 year olds (tot lot).  Wavy slide, crawl tubes, tree","private_ac":0,"5 stars":0,"comment_co":0,"id":"271","state_code":"DC","lng":-77.01893,"1 star":0,"photo_coun":2,"rating_cou":"2","2 stars":1,"address":"R Street and 5th, NE","lat":38.912607,"3 stars":0,"4 stars":0},"type":"Feature","geometry":{"type":"Point","coordinates":[-77.01893,38.912607]}},{"properties":{"name":"Randle Highlands Elementary School","city":"Washington","descriptio":"Public school: Facilities available for play during non-school hours.","private_ac":0,"5 stars":0,"comment_co":0,"id":"272","state_code":"DC","lng":-76.964784,"1 star":0,"photo_coun":0,"rating_cou":"NULL","2 stars":0,"address":"1650 30th St Se","lat":38.870076,"3 stars":0,"4 stars":0},"type":"Feature","geometry":{"type":"Point","coordinates":[-76.964784,38.870076]}},{"properties":{"name":"Raymond Elementary School","city":"Washington","descriptio":"Separate play space for 2-5 year olds (tot lot.)  Lots of graffiti, bars on wind","private_ac":0,"5 stars":0,"comment_co":0,"id":"273","state_code":"DC","lng":-77.02617,"1 star":0,"photo_coun":2,"rating_cou":"3","2 stars":0,"address":"915 Spring Rd. NW","lat":38.935928,"3 stars":1,"4 stars":1},"type":"Feature","geometry":{"type":"Point","coordinates":[-77.02617,38.935928]}},{"properties":{"name":"Raymond Playground","city":"Washington","descriptio":"Upper playground next two baseball field and field house.  Mulch base with one s","private_ac":0,"5 stars":0,"comment_co":0,"id":"274","state_code":"DC","lng":-77.027191,"1 star":0,"photo_coun":0,"rating_cou":"3","2 stars":0,"address":"3700 10th St NW","lat":38.93567,"3 stars":1,"4 stars":1},"type":"Feature","geometry":{"type":"Point","coordinates":[-77.027191,38.93567]}},{"properties":{"name":"Regency House Community Area","city":"Washington D.C.","descriptio":"uneven land, good for reading  a book under a tree, - needs a playground...","private_ac":0,"5 stars":0,"comment_co":0,"id":"275","state_code":"DC","lng":-77.073301,"1 star":1,"photo_coun":0,"rating_cou":"1","2 stars":0,"address":"Military Road and Connecticut Ave.","lat":38.961016,"3 stars":0,"4 stars":0},"type":"Feature","geometry":{"type":"Point","coordinates":[-77.073301,38.961016]}},{"properties":{"name":"Rickenbacker Housing Playground","city":"Bolling AFB","descriptio":"The playground in located on Bolling Air Force base directly across the street f","private_ac":0,"5 stars":0,"comment_co":0,"id":"276","state_code":"DC","lng":-77.017296,"1 star":0,"photo_coun":0,"rating_cou":"NULL","2 stars":0,"address":"tinker and chappie james Blvd","lat":38.839829,"3 stars":0,"4 stars":0},"type":"Feature","geometry":{"type":"Point","coordinates":[-77.017296,38.839829]}},{"properties":{"name":"River Road and 46th Street","city":"Washington","descriptio":"This neighborhood park and playground area features a new playground (2006), gen","private_ac":0,"5 stars":0,"comment_co":0,"id":"277","state_code":"DC","lng":-77.090504,"1 star":0,"photo_coun":2,"rating_cou":"4","2 stars":0,"address":"River Road and 46th Street NW","lat":38.955949,"3 stars":0,"4 stars":0},"type":"Feature","geometry":{"type":"Point","coordinates":[-77.090504,38.955949]}},{"properties":{"name":"River Terrace Elementary School","city":"Washington","descriptio":"Public school: Facilities available for play during non-school hours.","private_ac":0,"5 stars":0,"comment_co":0,"id":"278","state_code":"DC","lng":-76.957478,"1 star":0,"photo_coun":0,"rating_cou":"NULL","2 stars":0,"address":"420 34th St Ne","lat":38.895691,"3 stars":0,"4 stars":0},"type":"Feature","geometry":{"type":"Point","coordinates":[-76.957478,38.895691]}},{"properties":{"name":"Rock Creek Park","city":"Washington","descriptio":null,"private_ac":0,"5 stars":0,"comment_co":0,"id":"279","state_code":"DC","lng":-77.036428,"1 star":0,"photo_coun":2,"rating_cou":"3","2 stars":0,"address":"5400 16th Street NW","lat":38.956402,"3 stars":1,"4 stars":1},"type":"Feature","geometry":{"type":"Point","coordinates":[-77.036428,38.956402]}},{"properties":{"name":"Rockburne Estates Apartments","city":"Washington","descriptio":"Kids will be passionate about this purple playground. The Pod Climbers direct th","private_ac":0,"5 stars":0,"comment_co":0,"id":"280","state_code":"DC","lng":-76.9698,"1 star":0,"photo_coun":0,"rating_cou":"NULL","2 stars":0,"address":"2616 Jasper Street., SE","lat":38.852441,"3 stars":0,"4 stars":0},"type":"Feature","geometry":{"type":"Point","coordinates":[-76.9698,38.852441]}},{"properties":{"name":"Roosevelt High School","city":"Washington","descriptio":"Public school: Facilities available for play during non-school hours.","private_ac":0,"5 stars":0,"comment_co":0,"id":"281","state_code":"DC","lng":-77.029222,"1 star":0,"photo_coun":0,"rating_cou":"NULL","2 stars":0,"address":"4301 13th St NW","lat":38.943052,"3 stars":0,"4 stars":0},"type":"Feature","geometry":{"type":"Point","coordinates":[-77.029222,38.943052]}},{"properties":{"name":"Roots Public Charter School","city":"Washington","descriptio":"Public school: Facilities available for play during non-school hours.","private_ac":0,"5 stars":0,"comment_co":0,"id":"282","state_code":"DC","lng":-77.01019,"1 star":0,"photo_coun":0,"rating_cou":"NULL","2 stars":0,"address":"15 Kenedy St NW","lat":38.95696,"3 stars":0,"4 stars":0},"type":"Feature","geometry":{"type":"Point","coordinates":[-77.01019,38.95696]}},{"properties":{"name":"Rose Park","city":"Washington","descriptio":"Great sand box within Rose Park, slide, swings, seesaw","private_ac":0,"5 stars":0,"comment_co":0,"id":"283","state_code":"DC","lng":-76.946879,"1 star":0,"photo_coun":0,"rating_cou":"NULL","2 stars":0,"address":"Dumbarton and 27th NW","lat":38.863844,"3 stars":0,"4 stars":0},"type":"Feature","geometry":{"type":"Point","coordinates":[-76.946879,38.863844]}},{"properties":{"name":"Rose Park","city":"Washington","descriptio":"My action: Flagged this Park has enormous possibilities. Choices thats what kids","private_ac":0,"5 stars":0,"comment_co":0,"id":"284","state_code":"DC","lng":-77.055821,"1 star":0,"photo_coun":0,"rating_cou":"NULL","2 stars":0,"address":"Pennsylvania Ave?","lat":38.907707,"3 stars":0,"4 stars":0},"type":"Feature","geometry":{"type":"Point","coordinates":[-77.055821,38.907707]}},{"properties":{"name":"Rose Park Recreation Center","city":"Washington","descriptio":"There are tennis courts and a great bench built around a tree. There are also tr","private_ac":0,"5 stars":0,"comment_co":0,"id":"285","state_code":"DC","lng":-77.054712,"1 star":0,"photo_coun":7,"rating_cou":"2","2 stars":1,"address":"26th and O Streets NW","lat":38.908545,"3 stars":0,"4 stars":0},"type":"Feature","geometry":{"type":"Point","coordinates":[-77.054712,38.908545]}},{"properties":{"name":"Rose School","city":"Washington","descriptio":"Public school: Facilities available for play during non-school hours..","private_ac":0,"5 stars":0,"comment_co":0,"id":"286","state_code":"DC","lng":-77.077126,"1 star":0,"photo_coun":0,"rating_cou":"NULL","2 stars":0,"address":"4820 Howard St NW","lat":38.95263,"3 stars":0,"4 stars":0},"type":"Feature","geometry":{"type":"Point","coordinates":[-77.077126,38.95263]}},{"properties":{"name":"Ross Elementary School Wieb Playground","city":"Washington","descriptio":"Very cool, brand new playground. Separate play space for 2-5 year olds (tot lot)","private_ac":0,"5 stars":1,"comment_co":0,"id":"287","state_code":"DC","lng":-77.039508,"1 star":0,"photo_coun":5,"rating_cou":"9","2 stars":0,"address":"1730 R Street, NW","lat":38.912374,"3 stars":0,"4 stars":0},"type":"Feature","geometry":{"type":"Point","coordinates":[-77.039508,38.912374]}},{"properties":{"name":"Rudolph Elementary School","city":"Washington","descriptio":"Public school: Facilities available for play during non-school hours.","private_ac":0,"5 stars":0,"comment_co":0,"id":"288","state_code":"DC","lng":-77.013474,"1 star":0,"photo_coun":0,"rating_cou":"NULL","2 stars":0,"address":"5200 2nd St NW","lat":38.953273,"3 stars":0,"4 stars":0},"type":"Feature","geometry":{"type":"Point","coordinates":[-77.013474,38.953273]}},{"properties":{"name":"SAIL PCS","city":"Washington,","descriptio":"The School for ARTs in Learning (SAIL) is a Kindergarten through 8th grade publi","private_ac":0,"5 stars":2,"comment_co":10,"id":"289","state_code":"DC","lng":-77.036712,"1 star":0,"photo_coun":6,"rating_cou":"10","2 stars":0,"address":"1100 16th Street, NW","lat":38.903808,"3 stars":0,"4 stars":0},"type":"Feature","geometry":{"type":"Point","coordinates":[-77.036712,38.903808]}},{"properties":{"name":"Sasha Bruce Public Charter School","city":"Washington","descriptio":"Public school: Facilities available for play during non-school hours.","private_ac":0,"5 stars":0,"comment_co":0,"id":"290","state_code":"DC","lng":-76.995162,"1 star":0,"photo_coun":0,"rating_cou":"NULL","2 stars":0,"address":"745 8th St Se","lat":38.879816,"3 stars":0,"4 stars":0},"type":"Feature","geometry":{"type":"Point","coordinates":[-76.995162,38.879816]}},{"properties":{"name":"Savoy Elementary School","city":"Washington","descriptio":"Public school: Facilities available for play during non-school hours.","private_ac":0,"5 stars":0,"comment_co":0,"id":"291","state_code":"DC","lng":-76.993023,"1 star":0,"photo_coun":0,"rating_cou":"NULL","2 stars":0,"address":"2400 Shannon Pl Se","lat":38.863498,"3 stars":0,"4 stars":0},"type":"Feature","geometry":{"type":"Point","coordinates":[-76.993023,38.863498]}},{"properties":{"name":"School Without Walls","city":"Washington","descriptio":"Public school: Facilities available for play during non-school hours.","private_ac":0,"5 stars":0,"comment_co":0,"id":"292","state_code":"DC","lng":-77.048015,"1 star":0,"photo_coun":0,"rating_cou":"NULL","2 stars":0,"address":"2130 G St NW","lat":38.898046,"3 stars":0,"4 stars":0},"type":"Feature","geometry":{"type":"Point","coordinates":[-77.048015,38.898046]}},{"properties":{"name":"Scott Montgomery Elementary School","city":"Washington","descriptio":"Scott Montgomery is a DC public school that serves grades preschool through 4th","private_ac":0,"5 stars":0,"comment_co":0,"id":"293","state_code":"DC","lng":-77.018934,"1 star":1,"photo_coun":6,"rating_cou":"7","2 stars":0,"address":"5th St. NW and P St. NW","lat":38.909648,"3 stars":2,"4 stars":2},"type":"Feature","geometry":{"type":"Point","coordinates":[-77.018934,38.909648]}},{"properties":{"name":"Seaton Elementary School","city":"Washington","descriptio":"Public school: Facilities available for play during non-school hours.","private_ac":0,"5 stars":0,"comment_co":0,"id":"294","state_code":"DC","lng":-77.024983,"1 star":0,"photo_coun":0,"rating_cou":"NULL","2 stars":0,"address":"1503 10th St NW","lat":38.910806,"3 stars":0,"4 stars":0},"type":"Feature","geometry":{"type":"Point","coordinates":[-77.024983,38.910806]}},{"properties":{"name":"Seed Public Charter School","city":"Washington","descriptio":"Public school: Facilities available for play during non-school hours.","private_ac":0,"5 stars":0,"comment_co":0,"id":"295","state_code":"DC","lng":-76.945272,"1 star":0,"photo_coun":0,"rating_cou":"NULL","2 stars":0,"address":"4300 C St Se","lat":38.885555,"3 stars":0,"4 stars":0},"type":"Feature","geometry":{"type":"Point","coordinates":[-76.945272,38.885555]}},{"properties":{"name":"Shadd Elementary School","city":"Washington","descriptio":"Public school: Facilities available for play during non-school hours..","private_ac":0,"5 stars":0,"comment_co":0,"id":"296","state_code":"DC","lng":-76.920691,"1 star":0,"photo_coun":0,"rating_cou":"NULL","2 stars":0,"address":"5601 E Capitol St Ne","lat":38.889797,"3 stars":0,"4 stars":0},"type":"Feature","geometry":{"type":"Point","coordinates":[-76.920691,38.889797]}},{"properties":{"name":"Shaed Elementary School","city":"Washington","descriptio":"Public school: Facilities available for play during non-school hours.","private_ac":0,"5 stars":0,"comment_co":0,"id":"297","state_code":"DC","lng":-77.002003,"1 star":0,"photo_coun":0,"rating_cou":"NULL","2 stars":0,"address":"301 Douglas St. NE","lat":38.923434,"3 stars":0,"4 stars":0},"type":"Feature","geometry":{"type":"Point","coordinates":[-77.002003,38.923434]}},{"properties":{"name":"Sharpe Health School Playground","city":"Washington","descriptio":"Located on the northwest side of the District of Columbia, the C. Melvin Sharpe","private_ac":0,"5 stars":0,"comment_co":0,"id":"298","state_code":"DC","lng":-77.03121,"1 star":0,"photo_coun":5,"rating_cou":"7","2 stars":0,"address":"4300 13th St. NW","lat":38.94344,"3 stars":1,"4 stars":1},"type":"Feature","geometry":{"type":"Point","coordinates":[-77.03121,38.94344]}},{"properties":{"name":"Shaw Junior High School","city":"Washington","descriptio":"Public school: Facilities available for play during non-school hours.","private_ac":0,"5 stars":0,"comment_co":0,"id":"299","state_code":"DC","lng":-76.993176,"1 star":0,"photo_coun":0,"rating_cou":"NULL","2 stars":0,"address":"925 Rhode Island Ave","lat":38.922136,"3 stars":0,"4 stars":0},"type":"Feature","geometry":{"type":"Point","coordinates":[-76.993176,38.922136]}},{"properties":{"name":"Shaw Skatepark","city":"Washington","descriptio":"Separate play space for 2-5 year olds (tot lot).  Outdoors, ramps, rails, above","private_ac":0,"5 stars":2,"comment_co":0,"id":"300","state_code":"DC","lng":-77.01666,"1 star":0,"photo_coun":3,"rating_cou":"14","2 stars":0,"address":"11th Street and Rhodes Island Avenue","lat":38.91074,"3 stars":0,"4 stars":0},"type":"Feature","geometry":{"type":"Point","coordinates":[-77.01666,38.91074]}},{"properties":{"name":"Shepherd Elementary School","city":"Washington","descriptio":"Public school: Facilities available for play during non-school hours.","private_ac":0,"5 stars":0,"comment_co":0,"id":"301","state_code":"DC","lng":-77.033377,"1 star":0,"photo_coun":0,"rating_cou":"4","2 stars":0,"address":"7800 14th St NW","lat":38.984184,"3 stars":0,"4 stars":0},"type":"Feature","geometry":{"type":"Point","coordinates":[-77.033377,38.984184]}},{"properties":{"name":"Sheridan School","city":"Washington","descriptio":"This is a nice private school with a very calm, welcoming public playground.  Th","private_ac":0,"5 stars":0,"comment_co":0,"id":"302","state_code":"DC","lng":-77.070489,"1 star":0,"photo_coun":3,"rating_cou":"4","2 stars":0,"address":"4400 36th Street, NW","lat":38.946683,"3 stars":0,"4 stars":0},"type":"Feature","geometry":{"type":"Point","coordinates":[-77.070489,38.946683]}},{"properties":{"name":"Sherwood Recreation Center","city":"Washington","descriptio":"This site has a basketball court, tennis court and fitness center.","private_ac":0,"5 stars":0,"comment_co":0,"id":"303","state_code":"DC","lng":-76.992668,"1 star":0,"photo_coun":0,"rating_cou":"NULL","2 stars":0,"address":"640 10th St., NE","lat":38.898091,"3 stars":0,"4 stars":0},"type":"Feature","geometry":{"type":"Point","coordinates":[-76.992668,38.898091]}},{"properties":{"name":"Simon Elementary School","city":"Washington","descriptio":"Public school: Facilities available for play during non-school hours.","private_ac":0,"5 stars":0,"comment_co":0,"id":"304","state_code":"DC","lng":-76.998884,"1 star":0,"photo_coun":0,"rating_cou":"NULL","2 stars":0,"address":"401 Mississippi Ave Se","lat":38.836545,"3 stars":0,"4 stars":0},"type":"Feature","geometry":{"type":"Point","coordinates":[-76.998884,38.836545]}},{"properties":{"name":"Sixth Presbyterian Church Playground","city":"Washington","descriptio":null,"private_ac":0,"5 stars":0,"comment_co":0,"id":"305","state_code":"DC","lng":-77.036841,"1 star":0,"photo_coun":0,"rating_cou":"3","2 stars":0,"address":"5500 16th Street NW","lat":38.956777,"3 stars":1,"4 stars":1},"type":"Feature","geometry":{"type":"Point","coordinates":[-77.036841,38.956777]}},{"properties":{"name":"Slowe Elementary School","city":"Washington","descriptio":"Public school: Facilities available for play during non-school hours.","private_ac":0,"5 stars":0,"comment_co":0,"id":"306","state_code":"DC","lng":-76.986026,"1 star":0,"photo_coun":0,"rating_cou":"NULL","2 stars":0,"address":"1404 Jackson St Ne","lat":38.929754,"3 stars":0,"4 stars":0},"type":"Feature","geometry":{"type":"Point","coordinates":[-76.986026,38.929754]}},{"properties":{"name":"Smothers Elementary School","city":"Washington","descriptio":"Public school: Facilities available for play during non-school hours.","private_ac":0,"5 stars":0,"comment_co":0,"id":"307","state_code":"DC","lng":-76.938334,"1 star":0,"photo_coun":0,"rating_cou":"NULL","2 stars":0,"address":"4400 Brooks St Ne","lat":38.893323,"3 stars":0,"4 stars":0},"type":"Feature","geometry":{"type":"Point","coordinates":[-76.938334,38.893323]}},{"properties":{"name":"Soapstone Valley Trail","city":"Washington D.C.","descriptio":"Couldn't be more fitting for the backyard of our headquarters to have a playspac","private_ac":0,"5 stars":2,"comment_co":0,"id":"308","state_code":"DC","lng":-77.06565,"1 star":0,"photo_coun":0,"rating_cou":"10","2 stars":0,"address":"Albermarle and Connecticut","lat":38.947883,"3 stars":0,"4 stars":0},"type":"Feature","geometry":{"type":"Point","coordinates":[-77.06565,38.947883]}},{"properties":{"name":"Some Independence Place","city":"Washington","descriptio":"Separate play space for 2-5 year olds (tot lot).  Transfer Station, Triple shoot","private_ac":0,"5 stars":0,"comment_co":0,"id":"309","state_code":"DC","lng":-76.967759,"1 star":0,"photo_coun":0,"rating_cou":"NULL","2 stars":0,"address":"2800 N St Se","lat":38.874593,"3 stars":0,"4 stars":0},"type":"Feature","geometry":{"type":"Point","coordinates":[-76.967759,38.874593]}},{"properties":{"name":"Sousa Middle School","city":"Washington","descriptio":"Public school: Facilities available for play during non-school hours.","private_ac":0,"5 stars":0,"comment_co":0,"id":"310","state_code":"DC","lng":-76.952349,"1 star":0,"photo_coun":0,"rating_cou":"NULL","2 stars":0,"address":"3650 Ely Pl Se","lat":38.883554,"3 stars":0,"4 stars":0},"type":"Feature","geometry":{"type":"Point","coordinates":[-76.952349,38.883554]}},{"properties":{"name":"Southeast Tennis &amp; Learning Center","city":"Washington","descriptio":"This site has four in-door and six out-door tennis courts.","private_ac":0,"5 stars":0,"comment_co":0,"id":"311","state_code":"DC","lng":-76.996463,"1 star":0,"photo_coun":0,"rating_cou":"NULL","2 stars":0,"address":"701 Mississippi Ave., SE","lat":38.838314,"3 stars":0,"4 stars":0},"type":"Feature","geometry":{"type":"Point","coordinates":[-76.996463,38.838314]}},{"properties":{"name":"Spingarn High School","city":"Washington","descriptio":"Public school: Facilities available for play during non-school hours..","private_ac":0,"5 stars":0,"comment_co":0,"id":"312","state_code":"DC","lng":-76.966609,"1 star":0,"photo_coun":0,"rating_cou":"NULL","2 stars":0,"address":"2500 Benning Rd Ne","lat":38.897544,"3 stars":0,"4 stars":0},"type":"Feature","geometry":{"type":"Point","coordinates":[-76.966609,38.897544]}},{"properties":{"name":"St. Augustine Catholic School","city":"Washington","descriptio":"home of a future playground","private_ac":0,"5 stars":0,"comment_co":0,"id":"313","state_code":"DC","lng":-77.032235,"1 star":1,"photo_coun":0,"rating_cou":"1","2 stars":0,"address":"1420 V Street NW","lat":38.91814,"3 stars":0,"4 stars":0},"type":"Feature","geometry":{"type":"Point","coordinates":[-77.032235,38.91814]}},{"properties":{"name":"St. Columba's Playground","city":"Washington","descriptio":"A creative and interactive playspace designed for  children ages 2-6.","private_ac":0,"5 stars":1,"comment_co":0,"id":"314","state_code":"DC","lng":-77.083148,"1 star":0,"photo_coun":0,"rating_cou":"5","2 stars":0,"address":"4250 Albemarle St., NW","lat":38.947898,"3 stars":0,"4 stars":0},"type":"Feature","geometry":{"type":"Point","coordinates":[-77.083148,38.947898]}},{"properties":{"name":"St. Peters Parish School","city":"Washington","descriptio":"Its a fabulous way to bring the community together and to provide kids with fun!","private_ac":0,"5 stars":0,"comment_co":0,"id":"315","state_code":"DC","lng":-77.001537,"1 star":0,"photo_coun":0,"rating_cou":"NULL","2 stars":0,"address":"422  3rd Street, SE","lat":38.883545,"3 stars":0,"4 stars":0},"type":"Feature","geometry":{"type":"Point","coordinates":[-77.001537,38.883545]}},{"properties":{"name":"Stanton Elementary School","city":"Washington","descriptio":"Public school: Facilities available for play during non-school hours.","private_ac":0,"5 stars":0,"comment_co":0,"id":"316","state_code":"DC","lng":-76.968229,"1 star":0,"photo_coun":0,"rating_cou":"NULL","2 stars":0,"address":"2701 Naylor Rd Se","lat":38.860197,"3 stars":0,"4 stars":0},"type":"Feature","geometry":{"type":"Point","coordinates":[-76.968229,38.860197]}},{"properties":{"name":"Stanton Park","city":"Washington","descriptio":"Stanton Park is a park at the intersection of Maryland Avenue and Massachusetts","private_ac":0,"5 stars":0,"comment_co":0,"id":"317","state_code":"DC","lng":-77.002036,"1 star":0,"photo_coun":4,"rating_cou":"5","2 stars":1,"address":"Massachusetts Ave. and 3rd St.","lat":38.894606,"3 stars":1,"4 stars":1},"type":"Feature","geometry":{"type":"Point","coordinates":[-77.002036,38.894606]}},{"properties":{"name":"Stead Park","city":"Washington","descriptio":"Separate play space for 2-5 year olds (tot lot). Large playground near basketbal","private_ac":0,"5 stars":1,"comment_co":3,"id":"318","state_code":"DC","lng":-77.038491,"1 star":0,"photo_coun":5,"rating_cou":"12","2 stars":0,"address":"17th and P Street","lat":38.909644,"3 stars":1,"4 stars":1},"type":"Feature","geometry":{"type":"Point","coordinates":[-77.038491,38.909644]}},{"properties":{"name":"Stevens Elementary School","city":"Washington","descriptio":"Public school: Facilities available for play during non-school hours.","private_ac":0,"5 stars":0,"comment_co":0,"id":"319","state_code":"DC","lng":-77.046641,"1 star":0,"photo_coun":0,"rating_cou":"NULL","2 stars":0,"address":"1050 21st St NW","lat":38.903553,"3 stars":0,"4 stars":0},"type":"Feature","geometry":{"type":"Point","coordinates":[-77.046641,38.903553]}},{"properties":{"name":"Stoddert Elementary School","city":"Washington","descriptio":"Public school: Facilities available for play during non-school hours.","private_ac":0,"5 stars":0,"comment_co":0,"id":"320","state_code":"DC","lng":-77.078901,"1 star":0,"photo_coun":0,"rating_cou":"NULL","2 stars":0,"address":"4001 Calvert St NW","lat":38.923054,"3 stars":0,"4 stars":0},"type":"Feature","geometry":{"type":"Point","coordinates":[-77.078901,38.923054]}},{"properties":{"name":"Stoddert Terrace","city":"Washington","descriptio":"Playground","private_ac":0,"5 stars":0,"comment_co":0,"id":"321","state_code":"DC","lng":-76.945815,"1 star":0,"photo_coun":0,"rating_cou":"NULL","2 stars":0,"address":"Ridge Rd SE","lat":38.880966,"3 stars":0,"4 stars":0},"type":"Feature","geometry":{"type":"Point","coordinates":[-76.945815,38.880966]}},{"properties":{"name":"Stuart-Hobson Middle School","city":"Washington","descriptio":"Public school: Facilities available for play during non-school hours.","private_ac":0,"5 stars":0,"comment_co":0,"id":"322","state_code":"DC","lng":-77.000347,"1 star":0,"photo_coun":0,"rating_cou":"NULL","2 stars":0,"address":"410 E St Ne","lat":38.896074,"3 stars":0,"4 stars":0},"type":"Feature","geometry":{"type":"Point","coordinates":[-77.000347,38.896074]}},{"properties":{"name":"Sursum Corda","city":"Washington","descriptio":"Playground","private_ac":0,"5 stars":0,"comment_co":0,"id":"323","state_code":"DC","lng":-77.011558,"1 star":0,"photo_coun":0,"rating_cou":"NULL","2 stars":0,"address":"McKenna Walk NW and L St. NW","lat":38.903942,"3 stars":0,"4 stars":0},"type":"Feature","geometry":{"type":"Point","coordinates":[-77.011558,38.903942]}},{"properties":{"name":"Taft Recreation Center","city":"Washington","descriptio":"Sports field and recreation center.","private_ac":0,"5 stars":0,"comment_co":0,"id":"324","state_code":"DC","lng":-76.97983,"1 star":0,"photo_coun":0,"rating_cou":"NULL","2 stars":0,"address":"1800 Perry Street NE","lat":38.936171,"3 stars":0,"4 stars":0},"type":"Feature","geometry":{"type":"Point","coordinates":[-76.97983,38.936171]}},{"properties":{"name":"Takoma Elementary School","city":"Washington","descriptio":"Public school: Facilities available for play during non-school hours.","private_ac":0,"5 stars":0,"comment_co":0,"id":"325","state_code":"DC","lng":-77.022697,"1 star":0,"photo_coun":0,"rating_cou":"NULL","2 stars":0,"address":"7010 Piney Branch Rd NW","lat":38.9755,"3 stars":0,"4 stars":0},"type":"Feature","geometry":{"type":"Point","coordinates":[-77.022697,38.9755]}},{"properties":{"name":"Takoma Playground","city":"Washington","descriptio":null,"private_ac":0,"5 stars":0,"comment_co":0,"id":"326","state_code":"DC","lng":-77.01546,"1 star":0,"photo_coun":0,"rating_cou":"NULL","2 stars":0,"address":"Aspen St NW and Willow St NW","lat":38.972278,"3 stars":0,"4 stars":0},"type":"Feature","geometry":{"type":"Point","coordinates":[-77.01546,38.972278]}},{"properties":{"name":"Terrell Elementary School","city":"Washington","descriptio":"Public school: Facilities available for play during non-school hours.","private_ac":0,"5 stars":0,"comment_co":0,"id":"327","state_code":"DC","lng":-76.993984,"1 star":0,"photo_coun":0,"rating_cou":"NULL","2 stars":0,"address":"3301 Wheeler Rd Se","lat":38.842234,"3 stars":0,"4 stars":0},"type":"Feature","geometry":{"type":"Point","coordinates":[-76.993984,38.842234]}},{"properties":{"name":"Terrell Junior High School","city":"Washington","descriptio":"Public school: Facilities available for play during non-school hours.","private_ac":0,"5 stars":0,"comment_co":0,"id":"328","state_code":"DC","lng":-77.012575,"1 star":0,"photo_coun":0,"rating_cou":"NULL","2 stars":0,"address":"1000 1st St NW","lat":38.903112,"3 stars":0,"4 stars":0},"type":"Feature","geometry":{"type":"Point","coordinates":[-77.012575,38.903112]}},{"properties":{"name":"Test","city":"Washington","descriptio":"Test","private_ac":0,"5 stars":0,"comment_co":0,"id":"329","state_code":"DC","lng":-77.051872,"1 star":0,"photo_coun":0,"rating_cou":"NULL","2 stars":0,"address":"Connecticut Ave Nw","lat":38.940719,"3 stars":0,"4 stars":0},"type":"Feature","geometry":{"type":"Point","coordinates":[-77.051872,38.940719]}},{"properties":{"name":"Test","city":"Washington","descriptio":"Test","private_ac":0,"5 stars":0,"comment_co":0,"id":"330","state_code":"DC","lng":-77.051872,"1 star":0,"photo_coun":0,"rating_cou":"NULL","2 stars":0,"address":"Connecticut Ave Nw","lat":38.940719,"3 stars":0,"4 stars":0},"type":"Feature","geometry":{"type":"Point","coordinates":[-77.051872,38.940719]}},{"properties":{"name":"Test","city":"Washington","descriptio":"Test","private_ac":0,"5 stars":0,"comment_co":0,"id":"331","state_code":"DC","lng":-77.051872,"1 star":0,"photo_coun":0,"rating_cou":"NULL","2 stars":0,"address":"Connecticut Ave Nw","lat":38.940719,"3 stars":0,"4 stars":0},"type":"Feature","geometry":{"type":"Point","coordinates":[-77.051872,38.940719]}},{"properties":{"name":"Test","city":"Washington","descriptio":"Test","private_ac":0,"5 stars":0,"comment_co":0,"id":"332","state_code":"DC","lng":-77.051872,"1 star":0,"photo_coun":0,"rating_cou":"NULL","2 stars":0,"address":"Connecticut Ave Nw","lat":38.940719,"3 stars":0,"4 stars":0},"type":"Feature","geometry":{"type":"Point","coordinates":[-77.051872,38.940719]}},{"properties":{"name":"Test","city":"Washington","descriptio":"Test","private_ac":0,"5 stars":0,"comment_co":0,"id":"333","state_code":"DC","lng":-77.051872,"1 star":0,"photo_coun":0,"rating_cou":"NULL","2 stars":0,"address":"Connecticut Ave Nw","lat":38.940719,"3 stars":0,"4 stars":0},"type":"Feature","geometry":{"type":"Point","coordinates":[-77.051872,38.940719]}},{"properties":{"name":"Test","city":"Washington","descriptio":"Test","private_ac":0,"5 stars":0,"comment_co":0,"id":"334","state_code":"DC","lng":-77.066222,"1 star":0,"photo_coun":0,"rating_cou":"NULL","2 stars":0,"address":"4545 Connecticut Ave Nw","lat":38.949069,"3 stars":0,"4 stars":0},"type":"Feature","geometry":{"type":"Point","coordinates":[-77.066222,38.949069]}},{"properties":{"name":"The Hopkins Playground","city":"Washington","descriptio":"Multi-age community playground serving an apartment community and a Boys and Gir","private_ac":0,"5 stars":0,"comment_co":0,"id":"335","state_code":"DC","lng":-76.990158,"1 star":0,"photo_coun":10,"rating_cou":"NULL","2 stars":0,"address":"12th Street &amp; K Street SE","lat":38.878393,"3 stars":0,"4 stars":0},"type":"Feature","geometry":{"type":"Point","coordinates":[-76.990158,38.878393]}},{"properties":{"name":"The Perry School","city":"Washington","descriptio":"Heres a wide open space for your child to experiment physically with her surroun","private_ac":0,"5 stars":0,"comment_co":0,"id":"336","state_code":"DC","lng":-77.013005,"1 star":0,"photo_coun":0,"rating_cou":"NULL","2 stars":0,"address":"128 M  Street NW","lat":38.905387,"3 stars":0,"4 stars":0},"type":"Feature","geometry":{"type":"Point","coordinates":[-77.013005,38.905387]}},{"properties":{"name":"The River School","city":"Washington","descriptio":"This is the playground for preschoolers at The River School but it is open for n","private_ac":0,"5 stars":0,"comment_co":0,"id":"337","state_code":"DC","lng":-77.098118,"1 star":0,"photo_coun":0,"rating_cou":"NULL","2 stars":0,"address":"4880 MacArthur Blvd, NW","lat":38.917668,"3 stars":0,"4 stars":0},"type":"Feature","geometry":{"type":"Point","coordinates":[-77.098118,38.917668]}},{"properties":{"name":"The White House Playground","city":"Washington","descriptio":"Hooray for the First Family for valuing the importance of play! According to Yah","private_ac":1,"5 stars":0,"comment_co":3,"id":"338","state_code":"DC","lng":-77.035667,"1 star":1,"photo_coun":13,"rating_cou":"11","2 stars":1,"address":"1600 Pennsylvania Ave NW","lat":38.89765,"3 stars":0,"4 stars":0},"type":"Feature","geometry":{"type":"Point","coordinates":[-77.035667,38.89765]}},{"properties":{"name":"Theodore R, Hagans, Jr. Cultural Center","city":"Washington","descriptio":"Site includes an outdoor swimming pool and tennis court.","private_ac":0,"5 stars":0,"comment_co":0,"id":"339","state_code":"DC","lng":-76.959257,"1 star":0,"photo_coun":0,"rating_cou":"NULL","2 stars":0,"address":"3201 Fort Lincoln Dr NE","lat":38.926619,"3 stars":0,"4 stars":0},"type":"Feature","geometry":{"type":"Point","coordinates":[-76.959257,38.926619]}},{"properties":{"name":"Thomas Elementary School","city":"Washington","descriptio":"The glow of the Yellow Arch Roofs adds even more beauty to this structure. Locat","private_ac":0,"5 stars":0,"comment_co":0,"id":"340","state_code":"DC","lng":-76.951424,"1 star":0,"photo_coun":0,"rating_cou":"NULL","2 stars":0,"address":"650 Anacostia Ave., NE","lat":38.901309,"3 stars":0,"4 stars":0},"type":"Feature","geometry":{"type":"Point","coordinates":[-76.951424,38.901309]}},{"properties":{"name":"Thomson Elementary School","city":"Washington","descriptio":"Playground not accessible to the public.","private_ac":0,"5 stars":0,"comment_co":0,"id":"341","state_code":"DC","lng":-77.028515,"1 star":1,"photo_coun":0,"rating_cou":"3","2 stars":1,"address":"1200 L St NW","lat":38.903384,"3 stars":0,"4 stars":0},"type":"Feature","geometry":{"type":"Point","coordinates":[-77.028515,38.903384]}},{"properties":{"name":"Thurgood Marshall Elementary School","city":"Washington","descriptio":"Public school: Facilities available for play during non-school hours..","private_ac":0,"5 stars":0,"comment_co":0,"id":"342","state_code":"DC","lng":-76.959257,"1 star":0,"photo_coun":0,"rating_cou":"NULL","2 stars":0,"address":"3100 Fort Lincoln Dr Ne","lat":38.926619,"3 stars":0,"4 stars":0},"type":"Feature","geometry":{"type":"Point","coordinates":[-76.959257,38.926619]}},{"properties":{"name":"Tidal Basin","city":"Washington D.C.","descriptio":"paddleboats, boating, picnics...","private_ac":0,"5 stars":0,"comment_co":0,"id":"343","state_code":"DC","lng":-77.037816,"1 star":0,"photo_coun":2,"rating_cou":"6","2 stars":0,"address":"Maine Ave. and Independence Ave.","lat":38.887723,"3 stars":2,"4 stars":2},"type":"Feature","geometry":{"type":"Point","coordinates":[-77.037816,38.887723]}},{"properties":{"name":"Tri-Community Public Charter School","city":"Washington","descriptio":"Public school: Facilities available for play during non-school hours.","private_ac":0,"5 stars":0,"comment_co":0,"id":"344","state_code":"DC","lng":-77.026259,"1 star":0,"photo_coun":0,"rating_cou":"NULL","2 stars":0,"address":"4324 Georgia Ave NW","lat":38.943644,"3 stars":0,"4 stars":0},"type":"Feature","geometry":{"type":"Point","coordinates":[-77.026259,38.943644]}},{"properties":{"name":"Trinidad Recreation Center","city":"Washington D.C.","descriptio":null,"private_ac":0,"5 stars":0,"comment_co":1,"id":"345","state_code":"DC","lng":-76.982666,"1 star":0,"photo_coun":0,"rating_cou":"3","2 stars":0,"address":"1310 Childress Street","lat":38.906327,"3 stars":1,"4 stars":1},"type":"Feature","geometry":{"type":"Point","coordinates":[-76.982666,38.906327]}},{"properties":{"name":"Truesdell Elementary School","city":"Washington","descriptio":"Public school: Facilities available for play during non-school hours.","private_ac":0,"5 stars":0,"comment_co":0,"id":"346","state_code":"DC","lng":-77.023931,"1 star":0,"photo_coun":0,"rating_cou":"NULL","2 stars":0,"address":"800 Ingraham St NW","lat":38.954137,"3 stars":0,"4 stars":0},"type":"Feature","geometry":{"type":"Point","coordinates":[-77.023931,38.954137]}},{"properties":{"name":"Turkey Thicket","city":"Washington D.C.","descriptio":null,"private_ac":0,"5 stars":1,"comment_co":0,"id":"347","state_code":"DC","lng":-76.99269,"1 star":1,"photo_coun":0,"rating_cou":"6","2 stars":0,"address":"1100 Michigan Avenue NE","lat":38.935903,"3 stars":0,"4 stars":0},"type":"Feature","geometry":{"type":"Point","coordinates":[-76.99269,38.935903]}},{"properties":{"name":"Turner Elementary School","city":"Washington","descriptio":"Public school: Facilities available for play during non-school hours.","private_ac":0,"5 stars":0,"comment_co":0,"id":"348","state_code":"DC","lng":-76.980442,"1 star":0,"photo_coun":0,"rating_cou":"NULL","2 stars":0,"address":"3264 Stanton Rd Se","lat":38.847324,"3 stars":0,"4 stars":0},"type":"Feature","geometry":{"type":"Point","coordinates":[-76.980442,38.847324]}},{"properties":{"name":"Turtle Park","city":"d.c","descriptio":"NULL","private_ac":0,"5 stars":1,"comment_co":1,"id":"349","state_code":"DC","lng":-77.08864,"1 star":0,"photo_coun":0,"rating_cou":"12","2 stars":0,"address":"45th and Van Ness Streets NW","lat":38.943133,"3 stars":1,"4 stars":1},"type":"Feature","geometry":{"type":"Point","coordinates":[-77.08864,38.943133]}},{"properties":{"name":"Twin Oaks Community Garden","city":"Washington","descriptio":"Twin Oaks Community Garden is located on the corner of 14th Street NW and Taylor","private_ac":0,"5 stars":0,"comment_co":0,"id":"350","state_code":"DC","lng":-77.032723,"1 star":0,"photo_coun":0,"rating_cou":"NULL","2 stars":0,"address":"14th NW and Taylor Street NW","lat":38.940813,"3 stars":0,"4 stars":0},"type":"Feature","geometry":{"type":"Point","coordinates":[-77.032723,38.940813]}},{"properties":{"name":"Two Rivers Public Charter School","city":"Washington","descriptio":"Public charter school with playground in good condition, rubberized surfacing. H","private_ac":0,"5 stars":0,"comment_co":0,"id":"351","state_code":"DC","lng":-77.000497,"1 star":0,"photo_coun":0,"rating_cou":"4","2 stars":0,"address":"4th St. NE and Florida Ave. NE","lat":38.90716,"3 stars":0,"4 stars":0},"type":"Feature","geometry":{"type":"Point","coordinates":[-77.000497,38.90716]}},{"properties":{"name":"Tyler Elementary School","city":"Washington","descriptio":"Public school: Facilities available for play during non-school hours.","private_ac":0,"5 stars":0,"comment_co":0,"id":"352","state_code":"DC","lng":-76.992617,"1 star":0,"photo_coun":0,"rating_cou":"NULL","2 stars":0,"address":"1001 G St Se","lat":38.881276,"3 stars":0,"4 stars":0},"type":"Feature","geometry":{"type":"Point","coordinates":[-76.992617,38.881276]}},{"properties":{"name":"U.S. Botanic Garden","city":"Washington","descriptio":"The newly renovated Conservatory offers the citizens of Washington and visitors","private_ac":0,"5 stars":1,"comment_co":0,"id":"353","state_code":"DC","lng":-77.013055,"1 star":0,"photo_coun":13,"rating_cou":"5","2 stars":0,"address":"100 Maryland Avenue, SW","lat":38.888313,"3 stars":0,"4 stars":0},"type":"Feature","geometry":{"type":"Point","coordinates":[-77.013055,38.888313]}},{"properties":{"name":"UDC field","city":"Washington","descriptio":"There is a small set of bleachers nearby. The ground is not well-kept and is cov","private_ac":0,"5 stars":0,"comment_co":0,"id":"354","state_code":"DC","lng":-77.067694,"1 star":0,"photo_coun":1,"rating_cou":"2","2 stars":1,"address":"Van Ness St NW and International Ct NW","lat":38.943096,"3 stars":0,"4 stars":0},"type":"Feature","geometry":{"type":"Point","coordinates":[-77.067694,38.943096]}},{"properties":{"name":"UDC Playground","city":"Washington","descriptio":"This is a small playground which is connected to the UDC Child Care Center.","private_ac":0,"5 stars":0,"comment_co":0,"id":"355","state_code":"DC","lng":-77.0658,"1 star":0,"photo_coun":1,"rating_cou":"3","2 stars":0,"address":"University of the District of Columbia","lat":38.944928,"3 stars":1,"4 stars":1},"type":"Feature","geometry":{"type":"Point","coordinates":[-77.0658,38.944928]}},{"properties":{"name":"UDC Tennis Courts","city":"Washington","descriptio":"Tennis open to public use during certain hours.","private_ac":0,"5 stars":2,"comment_co":0,"id":"356","state_code":"DC","lng":-77.065742,"1 star":0,"photo_coun":0,"rating_cou":"10","2 stars":0,"address":"2999 Windom Pl NW","lat":38.945245,"3 stars":0,"4 stars":0},"type":"Feature","geometry":{"type":"Point","coordinates":[-77.065742,38.945245]}},{"properties":{"name":"Unity Park","city":"Washington","descriptio":"This is a gathering space rather than a play space u2013 it has a statue and par","private_ac":0,"5 stars":0,"comment_co":0,"id":"357","state_code":"DC","lng":-77.038564,"1 star":0,"photo_coun":0,"rating_cou":"NULL","2 stars":0,"address":"NULL","lat":38.920392,"3 stars":0,"4 stars":0},"type":"Feature","geometry":{"type":"Point","coordinates":[-77.038564,38.920392]}},{"properties":{"name":"Upshur Recreation Center","city":"Washington","descriptio":"NULL","private_ac":0,"5 stars":0,"comment_co":0,"id":"358","state_code":"DC","lng":-77.032987,"1 star":0,"photo_coun":2,"rating_cou":"3","2 stars":0,"address":"4300 Arkansas Ave NW","lat":38.94289,"3 stars":1,"4 stars":1},"type":"Feature","geometry":{"type":"Point","coordinates":[-77.032987,38.94289]}},{"properties":{"name":"Van Ness Elementary School","city":"Washington","descriptio":"Public school: Facilities available for play during non-school hours..","private_ac":0,"5 stars":0,"comment_co":0,"id":"359","state_code":"DC","lng":-76.999494,"1 star":0,"photo_coun":0,"rating_cou":"NULL","2 stars":0,"address":"1150 5th St Se","lat":38.87676,"3 stars":0,"4 stars":0},"type":"Feature","geometry":{"type":"Point","coordinates":[-76.999494,38.87676]}},{"properties":{"name":"Verizon Center","city":"District of Columbia","descriptio":"Washington Wizards', and Washington Mystics' Arena","private_ac":0,"5 stars":1,"comment_co":0,"id":"360","state_code":"DC","lng":-77.021114,"1 star":1,"photo_coun":0,"rating_cou":"6","2 stars":0,"address":"601 F St NW","lat":38.898039,"3 stars":0,"4 stars":0},"type":"Feature","geometry":{"type":"Point","coordinates":[-77.021114,38.898039]}},{"properties":{"name":"Village Leaning Center Public Charter School","city":"Washington","descriptio":"Public school: Facilities available for play during non-school hours.","private_ac":0,"5 stars":0,"comment_co":0,"id":"361","state_code":"DC","lng":-76.983958,"1 star":0,"photo_coun":0,"rating_cou":"NULL","2 stars":0,"address":"702 15th St Ne","lat":38.899114,"3 stars":0,"4 stars":0},"type":"Feature","geometry":{"type":"Point","coordinates":[-76.983958,38.899114]}},{"properties":{"name":"Volta Park","city":"Washington D.C.","descriptio":null,"private_ac":0,"5 stars":0,"comment_co":0,"id":"362","state_code":"DC","lng":-77.066239,"1 star":0,"photo_coun":0,"rating_cou":"NULL","2 stars":0,"address":"3300 Q. Street NW","lat":38.910644,"3 stars":0,"4 stars":0},"type":"Feature","geometry":{"type":"Point","coordinates":[-77.066239,38.910644]}},{"properties":{"name":"Volta Park (Georgetown Recreation Center)","city":"Washington","descriptio":"Playground with two climbing structures, swings, monkey bars.  Due for renovatio","private_ac":0,"5 stars":0,"comment_co":0,"id":"363","state_code":"DC","lng":-77.066105,"1 star":0,"photo_coun":0,"rating_cou":"NULL","2 stars":0,"address":"33rd St NW and Q St NW","lat":38.910759,"3 stars":0,"4 stars":0},"type":"Feature","geometry":{"type":"Point","coordinates":[-77.066105,38.910759]}},{"properties":{"name":"Walker-Jones Elementary","city":"Washington D.C.","descriptio":null,"private_ac":0,"5 stars":0,"comment_co":0,"id":"364","state_code":"DC","lng":-122.846617,"1 star":0,"photo_coun":0,"rating_cou":"NULL","2 stars":0,"address":"K st., 1st st.","lat":45.932502,"3 stars":0,"4 stars":0},"type":"Feature","geometry":{"type":"Point","coordinates":[-122.846617,45.932502]}},{"properties":{"name":"Walker-Jones Elementary School","city":"Washington","descriptio":"Public school: Facilities available for play during non-school hours.","private_ac":0,"5 stars":0,"comment_co":0,"id":"365","state_code":"DC","lng":-77.013377,"1 star":0,"photo_coun":0,"rating_cou":"NULL","2 stars":0,"address":"100 L St NW","lat":38.903758,"3 stars":0,"4 stars":0},"type":"Feature","geometry":{"type":"Point","coordinates":[-77.013377,38.903758]}},{"properties":{"name":"Walter Pierce Community Park","city":"Washington","descriptio":null,"private_ac":0,"5 stars":0,"comment_co":2,"id":"366","state_code":"DC","lng":-77.044637,"1 star":0,"photo_coun":3,"rating_cou":"3","2 stars":0,"address":"Adams Mill Rd NW and Ontario Pl NW","lat":38.924002,"3 stars":1,"4 stars":1},"type":"Feature","geometry":{"type":"Point","coordinates":[-77.044637,38.924002]}},{"properties":{"name":"Walter Reed Army Medical Center","city":"Washington","descriptio":"This playground is on the property of Walter Reed which is the Medical Center fo","private_ac":0,"5 stars":0,"comment_co":0,"id":"367","state_code":"DC","lng":-77.02853,"1 star":0,"photo_coun":2,"rating_cou":"3","2 stars":0,"address":"13th &amp; Elder Streets, NW","lat":38.97827,"3 stars":1,"4 stars":1},"type":"Feature","geometry":{"type":"Point","coordinates":[-77.02853,38.97827]}},{"properties":{"name":"Washington Highlands Recreation Center","city":"Washington","descriptio":"Sports field and recreation center.","private_ac":0,"5 stars":0,"comment_co":0,"id":"368","state_code":"DC","lng":-76.998905,"1 star":0,"photo_coun":0,"rating_cou":"NULL","2 stars":0,"address":"Xenia St SE","lat":38.833017,"3 stars":0,"4 stars":0},"type":"Feature","geometry":{"type":"Point","coordinates":[-76.998905,38.833017]}},{"properties":{"name":"Washington International School Playground","city":"DC","descriptio":"NULL","private_ac":0,"5 stars":0,"comment_co":0,"id":"369","state_code":"DC","lng":-77.071095,"1 star":0,"photo_coun":0,"rating_cou":"NULL","2 stars":0,"address":"36th and R streets","lat":38.913583,"3 stars":0,"4 stars":0},"type":"Feature","geometry":{"type":"Point","coordinates":[-77.071095,38.913583]}},{"properties":{"name":"Washington, M.M. Shs","city":"Washington","descriptio":"Public school: Facilities available for play during non-school hours.","private_ac":0,"5 stars":0,"comment_co":0,"id":"370","state_code":"DC","lng":-77.00961,"1 star":0,"photo_coun":0,"rating_cou":"NULL","2 stars":0,"address":"27 O St NW","lat":38.908572,"3 stars":0,"4 stars":0},"type":"Feature","geometry":{"type":"Point","coordinates":[-77.00961,38.908572]}},{"properties":{"name":"Watkins Recreation Center","city":"Washington","descriptio":"The park is older, but well maintained.  It is next to a school and is run by DC","private_ac":0,"5 stars":0,"comment_co":0,"id":"371","state_code":"DC","lng":-76.99023,"1 star":0,"photo_coun":1,"rating_cou":"2","2 stars":1,"address":"420 12th Street, SE","lat":38.883304,"3 stars":0,"4 stars":0},"type":"Feature","geometry":{"type":"Point","coordinates":[-76.99023,38.883304]}},{"properties":{"name":"Webb Elementary School","city":"Washington","descriptio":"Public school: Facilities available for play during non-school hours.","private_ac":0,"5 stars":0,"comment_co":0,"id":"372","state_code":"DC","lng":-76.981556,"1 star":0,"photo_coun":0,"rating_cou":"NULL","2 stars":0,"address":"1375 Mount Olivet Rd Ne","lat":38.907258,"3 stars":0,"4 stars":0},"type":"Feature","geometry":{"type":"Point","coordinates":[-76.981556,38.907258]}},{"properties":{"name":"Wellington Park","city":"Washington","descriptio":"Separate play space for 2-5 year olds (tot lot).  S tube slide, 360 spiral slide","private_ac":0,"5 stars":0,"comment_co":0,"id":"373","state_code":"DC","lng":-76.99103,"1 star":0,"photo_coun":0,"rating_cou":"NULL","2 stars":0,"address":"2514 Pomeroy Rd Se","lat":38.855528,"3 stars":0,"4 stars":0},"type":"Feature","geometry":{"type":"Point","coordinates":[-76.99103,38.855528]}},{"properties":{"name":"Wellington Park Playground","city":"Washington","descriptio":"This neighborhood playground provides the community with a space to keep kids ac","private_ac":0,"5 stars":0,"comment_co":0,"id":"374","state_code":"DC","lng":-76.99069,"1 star":0,"photo_coun":0,"rating_cou":"NULL","2 stars":0,"address":"2500 Pomeroy Rd, SE","lat":38.854866,"3 stars":0,"4 stars":0},"type":"Feature","geometry":{"type":"Point","coordinates":[-76.99069,38.854866]}},{"properties":{"name":"West Elementary School","city":"Washington","descriptio":"Separate play space for 2-5 year olds (tot lot.)  3 seperate playgrounds seperat","private_ac":0,"5 stars":0,"comment_co":0,"id":"375","state_code":"DC","lng":-77.019714,"1 star":0,"photo_coun":2,"rating_cou":"4","2 stars":0,"address":"NULL","lat":38.950224,"3 stars":0,"4 stars":0},"type":"Feature","geometry":{"type":"Point","coordinates":[-77.019714,38.950224]}},{"properties":{"name":"Westminster Neighborhood Park","city":"North West","descriptio":"NULL","private_ac":0,"5 stars":0,"comment_co":0,"id":"376","state_code":"DC","lng":-77.02416,"1 star":0,"photo_coun":1,"rating_cou":"NULL","2 stars":0,"address":"913 Westminster Street","lat":38.91487,"3 stars":0,"4 stars":0},"type":"Feature","geometry":{"type":"Point","coordinates":[-77.02416,38.91487]}},{"properties":{"name":"Westminster Playground","city":"Washington","descriptio":"The Westminster Playground was completed in 2002, and has quickly become a favor","private_ac":0,"5 stars":1,"comment_co":0,"id":"377","state_code":"DC","lng":-77.024583,"1 star":0,"photo_coun":0,"rating_cou":"9","2 stars":0,"address":"911 Westminster Street NW","lat":38.914845,"3 stars":0,"4 stars":0},"type":"Feature","geometry":{"type":"Point","coordinates":[-77.024583,38.914845]}},{"properties":{"name":"Wheatley Elementary School","city":"Washington","descriptio":"Public school: Facilities available for play during non-school hours.","private_ac":0,"5 stars":0,"comment_co":0,"id":"378","state_code":"DC","lng":-76.986144,"1 star":0,"photo_coun":0,"rating_cou":"NULL","2 stars":0,"address":"1299 Neal St Ne","lat":38.903386,"3 stars":0,"4 stars":0},"type":"Feature","geometry":{"type":"Point","coordinates":[-76.986144,38.903386]}},{"properties":{"name":"Wheeler Terrace Playground","city":"Washington","descriptio":"This community's new playground was built by volunteers on April 10th, 2010!","private_ac":0,"5 stars":1,"comment_co":0,"id":"379","state_code":"DC","lng":-76.989643,"1 star":0,"photo_coun":7,"rating_cou":"5","2 stars":0,"address":"1217 Valley Ave SE","lat":38.837221,"3 stars":0,"4 stars":0},"type":"Feature","geometry":{"type":"Point","coordinates":[-76.989643,38.837221]}},{"properties":{"name":"Whittier Education Campus","city":"Washington","descriptio":"Public School Playground","private_ac":0,"5 stars":0,"comment_co":0,"id":"380","state_code":"DC","lng":-77.019878,"1 star":0,"photo_coun":0,"rating_cou":"NULL","2 stars":0,"address":"6201 5th Street NW","lat":38.965024,"3 stars":0,"4 stars":0},"type":"Feature","geometry":{"type":"Point","coordinates":[-77.019878,38.965024]}},{"properties":{"name":"Wilkenson Elementary School Playground","city":"South East","descriptio":"NULL","private_ac":0,"5 stars":0,"comment_co":0,"id":"381","state_code":"DC","lng":-76.990946,"1 star":0,"photo_coun":0,"rating_cou":"NULL","2 stars":0,"address":"233 Pomeroy Road","lat":38.855509,"3 stars":0,"4 stars":0},"type":"Feature","geometry":{"type":"Point","coordinates":[-76.990946,38.855509]}},{"properties":{"name":"Wilkinson Elementary School","city":"Washington","descriptio":"Public school: Facilities available for play during non-school hours.","private_ac":0,"5 stars":0,"comment_co":0,"id":"382","state_code":"DC","lng":-76.985212,"1 star":0,"photo_coun":0,"rating_cou":"NULL","2 stars":0,"address":"2330 Pomeroy Rd Se","lat":38.857321,"3 stars":0,"4 stars":0},"type":"Feature","geometry":{"type":"Point","coordinates":[-76.985212,38.857321]}},{"properties":{"name":"Wilson High School","city":"Washington","descriptio":"Public school: Facilities available for play during non-school hours.","private_ac":0,"5 stars":0,"comment_co":0,"id":"383","state_code":"DC","lng":-77.077541,"1 star":0,"photo_coun":0,"rating_cou":"NULL","2 stars":0,"address":"3950 Chesapeake St NW","lat":38.94904,"3 stars":0,"4 stars":0},"type":"Feature","geometry":{"type":"Point","coordinates":[-77.077541,38.94904]}},{"properties":{"name":"Winston Elementary School","city":"Washington","descriptio":"Public school: Facilities available for play during non-school hours.","private_ac":0,"5 stars":0,"comment_co":0,"id":"384","state_code":"DC","lng":-76.96249,"1 star":0,"photo_coun":0,"rating_cou":"NULL","2 stars":0,"address":"3100 Erie St Se","lat":38.857292,"3 stars":0,"4 stars":0},"type":"Feature","geometry":{"type":"Point","coordinates":[-76.96249,38.857292]}},{"properties":{"name":"Woodland Terrace","city":"Washington","descriptio":"Playground","private_ac":0,"5 stars":0,"comment_co":0,"id":"385","state_code":"DC","lng":-76.971759,"1 star":0,"photo_coun":0,"rating_cou":"NULL","2 stars":0,"address":"Ainger Place SE","lat":38.856919,"3 stars":0,"4 stars":0},"type":"Feature","geometry":{"type":"Point","coordinates":[-76.971759,38.856919]}},{"properties":{"name":"Woodley Playground","city":"District of Columbia","descriptio":null,"private_ac":0,"5 stars":0,"comment_co":0,"id":"386","state_code":"DC","lng":-77.058397,"1 star":0,"photo_coun":0,"rating_cou":"7","2 stars":0,"address":"Cortland Pl NW and Devonshire Pl NW","lat":38.929689,"3 stars":1,"4 stars":1},"type":"Feature","geometry":{"type":"Point","coordinates":[-77.058397,38.929689]}},{"properties":{"name":"Woodson High School","city":"Washington","descriptio":"Public school: Facilities available for play during non-school hours.","private_ac":0,"5 stars":0,"comment_co":0,"id":"387","state_code":"DC","lng":-76.921853,"1 star":0,"photo_coun":0,"rating_cou":"NULL","2 stars":0,"address":"5500 Eads St Ne","lat":38.895806,"3 stars":0,"4 stars":0},"type":"Feature","geometry":{"type":"Point","coordinates":[-76.921853,38.895806]}},{"properties":{"name":"YMCA Capital View","city":"Washington","descriptio":"Please let us know if this is not a valid playspace: webmaster@kaboom.org","private_ac":0,"5 stars":0,"comment_co":0,"id":"388","state_code":"DC","lng":-76.973715,"1 star":0,"photo_coun":0,"rating_cou":"NULL","2 stars":0,"address":"2118 Ridgecrest Ct Se","lat":38.848186,"3 stars":0,"4 stars":0},"type":"Feature","geometry":{"type":"Point","coordinates":[-76.973715,38.848186]}},{"properties":{"name":"Young Elementary School","city":"Washington","descriptio":"Public school: Facilities available for play during non-school hours.","private_ac":0,"5 stars":0,"comment_co":0,"id":"389","state_code":"DC","lng":-76.970159,"1 star":0,"photo_coun":0,"rating_cou":"NULL","2 stars":0,"address":"820 26th St Ne","lat":38.901042,"3 stars":0,"4 stars":0},"type":"Feature","geometry":{"type":"Point","coordinates":[-76.970159,38.901042]}},{"properties":{"name":"Zagami House Playspace","city":"Washington DC","descriptio":"tic-tac-toe, multiple triple shooters, ADA transfer station, storefront panel, a","private_ac":0,"5 stars":1,"comment_co":0,"id":"390","state_code":"DC","lng":-76.977353,"1 star":0,"photo_coun":2,"rating_cou":"5","2 stars":0,"address":"1701 19th Street SE","lat":38.869316,"3 stars":0,"4 stars":0},"type":"Feature","geometry":{"type":"Point","coordinates":[-76.977353,38.869316]}},{"properties":{"name":"Zion Baptist Church playground","city":"Washington","descriptio":"Playground at Zion Baptist Church","private_ac":0,"5 stars":0,"comment_co":0,"id":"391","state_code":"DC","lng":-77.037638,"1 star":0,"photo_coun":0,"rating_cou":"NULL","2 stars":0,"address":"4850 Blagden Avenue NW","lat":38.950186,"3 stars":0,"4 stars":0},"type":"Feature","geometry":{"type":"Point","coordinates":[-77.037638,38.950186]}}],"is_temporal":false,"author":{"url":"","metadata":"","contact_name":"","contact_address":"","source":"","contact_phone":""},"source":"","pagination":{"sort":null,"start":0,"total":392,"limit":1000000},"state":"complete","tags":"kaboom","published":"2014-08-13T07:56:22-04:00","id":187006}