{"type":"FeatureCollection","data_type":"Dataset","url_type":null,"permissions":[{"permissions":{"download":true,"view":true},"group_id":"everyone"}],"classification":null,"title":"California Places - centroids","count":1066,"stream_id":190402,"contributor":{"url":"http://geocommons.com/users/19759","name":"mcgeoff"},"data_attributes":null,"calculation_params":null,"icon_link":null,"link":"http://geocommons.com/overlays/190402.json","extent":[-124.262,32.569,-114.264,41.9644],"geometry_types":["point"],"unique_name":null,"name":"California Places - centroids","feature_count":1066,"description":"Incorporated town names for all of California, represented by dots indicating the center of their polygon. Taken from Tiger Line File from Census Bureau.","next_feature":null,"is_raster":false,"short_classification":"Y","stats":{"ALAND":{"max":1213776924.0,"mean":29413015.1688555,"variance":4.05149907829758e+15,"stdev":63651387.088559,"min":152301.0,"median":13023915.0},"LSAD":{"max":57,"mean":42.9455909943715,"variance":247.482482889828,"stdev":15.7315759823938,"min":25,"median":57},"AWATER":{"max":479208758.0,"mean":2311215.78330206,"variance":324035933910261.0,"stdev":18000998.1364996,"min":0.0,"median":14595.0},"INTPTLAT":{"max":41.9649654,"mean":36.5907101793621,"variance":5.50739999577963,"stdev":2.3467850339943,"min":32.5653536,"median":36.9402733},"INTPTLON":{"max":-114.2671895,"mean":-120.023480918762,"variance":4.35962691835125,"stdev":2.08797196301848,"min":-124.2619086,"median":-120.4338345}},"features":[{"properties":{"NAME":"Antioch","ALAND":73388885.0,"PLACENS":"02409715","FUNCSTAT":"A","MTFCC":"G4110","CLASSFP":"C1","PCICBSA":"N","LSAD":25,"AWATER":1935327.0,"INTPTLAT":37.977541,"PLCIDFP":"0602252","STATEFP":"06","INTPTLON":-121.7976176,"CPI":"Y","PLACEFP":"02252","PCINECTA":"N","id":"a6khrlas7jsg","NAMELSAD":"Antioch city"},"type":"Feature","geometry":{"type":"Point","coordinates":[-121.796606969205,37.9777043367517]}},{"properties":{"NAME":"Brentwood","ALAND":38299157.0,"PLACENS":"02409902","FUNCSTAT":"A","MTFCC":"G4110","CLASSFP":"C1","PCICBSA":"N","LSAD":25,"AWATER":49218.0,"INTPTLAT":37.9359047,"PLCIDFP":"0608142","STATEFP":"06","INTPTLON":-121.7185472,"CPI":"N","PLACEFP":"08142","PCINECTA":"N","id":"a6khrl9pyekf","NAMELSAD":"Brentwood city"},"type":"Feature","geometry":{"type":"Point","coordinates":[-121.718867836632,37.9354839622209]}},{"properties":{"NAME":"Clayton","ALAND":9934726.0,"PLACENS":"02409474","FUNCSTAT":"A","MTFCC":"G4110","CLASSFP":"C1","PCICBSA":"N","LSAD":25,"AWATER":0.0,"INTPTLAT":37.9402978,"PLCIDFP":"0613882","STATEFP":"06","INTPTLON":-121.9301048,"CPI":"N","PLACEFP":"13882","PCINECTA":"N","id":"a6khrliufnkb","NAMELSAD":"Clayton city"},"type":"Feature","geometry":{"type":"Point","coordinates":[-121.930105685337,37.9402985440452]}},{"properties":{"NAME":"Concord","ALAND":79086658.0,"PLACENS":"02410214","FUNCSTAT":"A","MTFCC":"G4110","CLASSFP":"C1","PCICBSA":"N","LSAD":25,"AWATER":0.0,"INTPTLAT":37.9721909,"PLCIDFP":"0616000","STATEFP":"06","INTPTLON":-122.0015895,"CPI":"Y","PLACEFP":"16000","PCINECTA":"N","id":"a6khrlkim1s0","NAMELSAD":"Concord city"},"type":"Feature","geometry":{"type":"Point","coordinates":[-122.001593320507,37.9721934023183]}},{"properties":{"NAME":"Danville","ALAND":46672451.0,"PLACENS":"02412403","FUNCSTAT":"A","MTFCC":"G4110","CLASSFP":"C1","PCICBSA":"N","LSAD":43,"AWATER":0.0,"INTPTLAT":37.8121999,"PLCIDFP":"0617988","STATEFP":"06","INTPTLON":-121.9699589,"CPI":"N","PLACEFP":"17988","PCINECTA":"N","id":"a6khrlfy7s45","NAMELSAD":"Danville town"},"type":"Feature","geometry":{"type":"Point","coordinates":[-121.969964864154,37.8121992013015]}},{"properties":{"NAME":"El Cerrito","ALAND":9564908.0,"PLACENS":"02410410","FUNCSTAT":"A","MTFCC":"G4110","CLASSFP":"C1","PCICBSA":"N","LSAD":25,"AWATER":0.0,"INTPTLAT":37.9196363,"PLCIDFP":"0621796","STATEFP":"06","INTPTLON":-122.3024124,"CPI":"N","PLACEFP":"21796","PCINECTA":"N","id":"a6khrl98vyp4","NAMELSAD":"El Cerrito city"},"type":"Feature","geometry":{"type":"Point","coordinates":[-122.30241362291,37.9196374127621]}},{"properties":{"NAME":"Hercules","ALAND":16071818.0,"PLACENS":"02410746","FUNCSTAT":"A","MTFCC":"G4110","CLASSFP":"C1","PCICBSA":"N","LSAD":25,"AWATER":31011805.0,"INTPTLAT":38.0214248,"PLCIDFP":"0633308","STATEFP":"06","INTPTLON":-122.2889241,"CPI":"N","PLACEFP":"33308","PCINECTA":"N","id":"a6khrld37tlp","NAMELSAD":"Hercules city"},"type":"Feature","geometry":{"type":"Point","coordinates":[-122.294667245072,38.0335116469004]}},{"properties":{"NAME":"Lafayette","ALAND":39411141.0,"PLACENS":"02411591","FUNCSTAT":"A","MTFCC":"G4110","CLASSFP":"C1","PCICBSA":"N","LSAD":25,"AWATER":431202.0,"INTPTLAT":37.891004,"PLCIDFP":"0639122","STATEFP":"06","INTPTLON":-122.1195292,"CPI":"N","PLACEFP":"39122","PCINECTA":"N","id":"a6khrlew8vda","NAMELSAD":"Lafayette city"},"type":"Feature","geometry":{"type":"Point","coordinates":[-122.119007768349,37.89169382989]}},{"properties":{"NAME":"Martinez","ALAND":31404751.0,"PLACENS":"02411045","FUNCSTAT":"A","MTFCC":"G4110","CLASSFP":"C1","PCICBSA":"N","LSAD":25,"AWATER":2604017.0,"INTPTLAT":37.999635,"PLCIDFP":"0646114","STATEFP":"06","INTPTLON":-122.1139025,"CPI":"N","PLACEFP":"46114","PCINECTA":"N","id":"a6khrlamwvc6","NAMELSAD":"Martinez city"},"type":"Feature","geometry":{"type":"Point","coordinates":[-122.115112856384,37.999534332965]}},{"properties":{"NAME":"Moraga","ALAND":24431648.0,"PLACENS":"02413013","FUNCSTAT":"A","MTFCC":"G4110","CLASSFP":"C1","PCICBSA":"N","LSAD":43,"AWATER":22901.0,"INTPTLAT":37.8456927,"PLCIDFP":"0649187","STATEFP":"06","INTPTLON":-122.1232169,"CPI":"N","PLACEFP":"49187","PCINECTA":"N","id":"a6khrl9mydb2","NAMELSAD":"Moraga town"},"type":"Feature","geometry":{"type":"Point","coordinates":[-122.12308772295,37.8438263609941]}},{"properties":{"NAME":"Oakley","ALAND":41055165.0,"PLACENS":"02411294","FUNCSTAT":"A","MTFCC":"G4110","CLASSFP":"C1","PCICBSA":"N","LSAD":25,"AWATER":786989.0,"INTPTLAT":37.9939787,"PLCIDFP":"0653070","STATEFP":"06","INTPTLON":-121.6873832,"CPI":"N","PLACEFP":"53070","PCINECTA":"N","id":"a6khrlflnhel","NAMELSAD":"Oakley city"},"type":"Feature","geometry":{"type":"Point","coordinates":[-121.695084648309,37.9929725030728]}},{"properties":{"NAME":"Orinda","ALAND":32848174.0,"PLACENS":"02411334","FUNCSTAT":"A","MTFCC":"G4110","CLASSFP":"C1","PCICBSA":"N","LSAD":25,"AWATER":38563.0,"INTPTLAT":37.8827637,"PLCIDFP":"0654232","STATEFP":"06","INTPTLON":-122.174543,"CPI":"N","PLACEFP":"54232","PCINECTA":"N","id":"a6khrl99qwl1","NAMELSAD":"Orinda city"},"type":"Feature","geometry":{"type":"Point","coordinates":[-122.179332869004,37.8808751262002]}},{"properties":{"NAME":"Pinole","ALAND":13787167.0,"PLACENS":"02411428","FUNCSTAT":"A","MTFCC":"G4110","CLASSFP":"C1","PCICBSA":"N","LSAD":25,"AWATER":21372003.0,"INTPTLAT":38.0017019,"PLCIDFP":"0657288","STATEFP":"06","INTPTLON":-122.3184879,"CPI":"N","PLACEFP":"57288","PCINECTA":"N","id":"a6khrljdims0","NAMELSAD":"Pinole city"},"type":"Feature","geometry":{"type":"Point","coordinates":[-122.322693521965,38.0139123484092]}},{"properties":{"NAME":"Pittsburg","ALAND":44553093.0,"PLACENS":"02411430","FUNCSTAT":"A","MTFCC":"G4110","CLASSFP":"C1","PCICBSA":"N","LSAD":25,"AWATER":5015364.0,"INTPTLAT":38.0198993,"PLCIDFP":"0657456","STATEFP":"06","INTPTLON":-121.9036056,"CPI":"Y","PLACEFP":"57456","PCINECTA":"N","id":"a6khrledz2jq","NAMELSAD":"Pittsburg city"},"type":"Feature","geometry":{"type":"Point","coordinates":[-121.896999137935,38.0189798484556]}},{"properties":{"NAME":"Pleasant Hill","ALAND":18375520.0,"PLACENS":"02411439","FUNCSTAT":"A","MTFCC":"G4110","CLASSFP":"C1","PCICBSA":"N","LSAD":25,"AWATER":0.0,"INTPTLAT":37.9540531,"PLCIDFP":"0657764","STATEFP":"06","INTPTLON":-122.0758775,"CPI":"N","PLACEFP":"57764","PCINECTA":"N","id":"a6khrlg4yvav","NAMELSAD":"Pleasant Hill city"},"type":"Feature","geometry":{"type":"Point","coordinates":[-122.075878321557,37.9540549645291]}},{"properties":{"NAME":"Richmond","ALAND":77649721.0,"PLACENS":"02410939","FUNCSTAT":"A","MTFCC":"G4110","CLASSFP":"C1","PCICBSA":"N","LSAD":25,"AWATER":58030566.0,"INTPTLAT":37.9522778,"PLCIDFP":"0660620","STATEFP":"06","INTPTLON":-122.3606089,"CPI":"Y","PLACEFP":"60620","PCINECTA":"N","id":"a6khrldp01l5","NAMELSAD":"Richmond city"},"type":"Feature","geometry":{"type":"Point","coordinates":[-122.360242790883,37.9517091038359]}},{"properties":{"NAME":"San Pablo","ALAND":6803273.0,"PLACENS":"02411801","FUNCSTAT":"A","MTFCC":"G4110","CLASSFP":"C1","PCICBSA":"N","LSAD":25,"AWATER":0.0,"INTPTLAT":37.9627516,"PLCIDFP":"0668294","STATEFP":"06","INTPTLON":-122.342367,"CPI":"N","PLACEFP":"68294","PCINECTA":"N","id":"a6khrl8ixoh0","NAMELSAD":"San Pablo city"},"type":"Feature","geometry":{"type":"Point","coordinates":[-122.342367680605,37.9627520733174]}},{"properties":{"NAME":"San Ramon","ALAND":44584697.0,"PLACENS":"02411805","FUNCSTAT":"A","MTFCC":"G4110","CLASSFP":"C1","PCICBSA":"N","LSAD":25,"AWATER":86600.0,"INTPTLAT":37.7615422,"PLCIDFP":"0668378","STATEFP":"06","INTPTLON":-121.9376935,"CPI":"N","PLACEFP":"68378","PCINECTA":"N","id":"a6khrlgudnl7","NAMELSAD":"San Ramon city"},"type":"Feature","geometry":{"type":"Point","coordinates":[-121.937839723584,37.7621976599072]}},{"properties":{"NAME":"Walnut Creek","ALAND":51179547.0,"PLACENS":"02412174","FUNCSTAT":"A","MTFCC":"G4110","CLASSFP":"C1","PCICBSA":"Y","LSAD":25,"AWATER":31275.0,"INTPTLAT":37.902666,"PLCIDFP":"0683346","STATEFP":"06","INTPTLON":-122.040479,"CPI":"Y","PLACEFP":"83346","PCINECTA":"N","id":"a6khrliigqp1","NAMELSAD":"Walnut Creek city"},"type":"Feature","geometry":{"type":"Point","coordinates":[-122.039861301962,37.9024169816745]}},{"properties":{"NAME":"Carlsbad","ALAND":97686991.0,"PLACENS":"02409984","FUNCSTAT":"A","MTFCC":"G4110","CLASSFP":"C1","PCICBSA":"Y","LSAD":25,"AWATER":3595630.0,"INTPTLAT":33.1239089,"PLCIDFP":"0611194","STATEFP":"06","INTPTLON":-117.2828349,"CPI":"Y","PLACEFP":"11194","PCINECTA":"N","id":"a6khrl6vfhvv","NAMELSAD":"Carlsbad city"},"type":"Feature","geometry":{"type":"Point","coordinates":[-117.283547548613,33.1245537161032]}},{"properties":{"NAME":"Chula Vista","ALAND":129308091.0,"PLACENS":"02409461","FUNCSTAT":"A","MTFCC":"G4110","CLASSFP":"C1","PCICBSA":"N","LSAD":25,"AWATER":6387344.0,"INTPTLAT":32.62767,"PLCIDFP":"0613392","STATEFP":"06","INTPTLON":-117.0151695,"CPI":"Y","PLACEFP":"13392","PCINECTA":"N","id":"a6khrl7gwgxq","NAMELSAD":"Chula Vista city"},"type":"Feature","geometry":{"type":"Point","coordinates":[-117.014103383784,32.6286329512289]}},{"properties":{"NAME":"Coronado","ALAND":20541568.0,"PLACENS":"02410233","FUNCSTAT":"A","MTFCC":"G4110","CLASSFP":"C1","PCICBSA":"N","LSAD":25,"AWATER":64113267.0,"INTPTLAT":32.6344659,"PLCIDFP":"0616378","STATEFP":"06","INTPTLON":-117.1412315,"CPI":"N","PLACEFP":"16378","PCINECTA":"N","id":"a6khrlcj86o2","NAMELSAD":"Coronado city"},"type":"Feature","geometry":{"type":"Point","coordinates":[-117.165817698605,32.6420349947773]}},{"properties":{"NAME":"Del Mar","ALAND":4510172.0,"PLACENS":"02410314","FUNCSTAT":"A","MTFCC":"G4110","CLASSFP":"C1","PCICBSA":"N","LSAD":25,"AWATER":187485.0,"INTPTLAT":32.9628313,"PLCIDFP":"0618506","STATEFP":"06","INTPTLON":-117.2623925,"CPI":"N","PLACEFP":"18506","PCINECTA":"N","id":"a6khrlckwfan","NAMELSAD":"Del Mar city"},"type":"Feature","geometry":{"type":"Point","coordinates":[-117.262368802917,32.9631489606271]}},{"properties":{"NAME":"El Cajon","ALAND":37485563.0,"PLACENS":"02410406","FUNCSTAT":"A","MTFCC":"G4110","CLASSFP":"C1","PCICBSA":"N","LSAD":25,"AWATER":0.0,"INTPTLAT":32.801675,"PLCIDFP":"0621712","STATEFP":"06","INTPTLON":-116.9604357,"CPI":"Y","PLACEFP":"21712","PCINECTA":"N","id":"a6khrlhmfdf0","NAMELSAD":"El Cajon city"},"type":"Feature","geometry":{"type":"Point","coordinates":[-116.960437544263,32.8016742658553]}},{"properties":{"NAME":"Encinitas","ALAND":48511952.0,"PLACENS":"02410440","FUNCSTAT":"A","MTFCC":"G4110","CLASSFP":"C1","PCICBSA":"N","LSAD":25,"AWATER":3050173.0,"INTPTLAT":33.0506323,"PLCIDFP":"0622678","STATEFP":"06","INTPTLON":-117.2636163,"CPI":"Y","PLACEFP":"22678","PCINECTA":"N","id":"a6khrlgqmzqo","NAMELSAD":"Encinitas city"},"type":"Feature","geometry":{"type":"Point","coordinates":[-117.262397981376,33.0488659819112]}},{"properties":{"NAME":"Escondido","ALAND":96266748.0,"PLACENS":"02410455","FUNCSTAT":"A","MTFCC":"G4110","CLASSFP":"C1","PCICBSA":"N","LSAD":25,"AWATER":455887.0,"INTPTLAT":33.1336477,"PLCIDFP":"0622804","STATEFP":"06","INTPTLON":-117.073223,"CPI":"Y","PLACEFP":"22804","PCINECTA":"N","id":"a6khrlcb22tu","NAMELSAD":"Escondido city"},"type":"Feature","geometry":{"type":"Point","coordinates":[-117.072127509749,33.1348458218612]}},{"properties":{"NAME":"Imperial Beach","ALAND":10426344.0,"PLACENS":"02410098","FUNCSTAT":"A","MTFCC":"G4110","CLASSFP":"C1","PCICBSA":"N","LSAD":25,"AWATER":776879.0,"INTPTLAT":32.5653536,"PLCIDFP":"0636294","STATEFP":"06","INTPTLON":-117.1145672,"CPI":"N","PLACEFP":"36294","PCINECTA":"N","id":"a6khrlfnbg6v","NAMELSAD":"Imperial Beach city"},"type":"Feature","geometry":{"type":"Point","coordinates":[-117.118674845191,32.5690032483843]}},{"properties":{"NAME":"La Mesa","ALAND":23716713.0,"PLACENS":"02411576","FUNCSTAT":"A","MTFCC":"G4110","CLASSFP":"C1","PCICBSA":"N","LSAD":25,"AWATER":104098.0,"INTPTLAT":32.7694946,"PLCIDFP":"0640004","STATEFP":"06","INTPTLON":-117.0219232,"CPI":"Y","PLACEFP":"40004","PCINECTA":"N","id":"a6khrlix1t7w","NAMELSAD":"La Mesa city"},"type":"Feature","geometry":{"type":"Point","coordinates":[-117.020400237404,32.7705334384484]}},{"properties":{"NAME":"Lemon Grove","ALAND":9946769.0,"PLACENS":"02410818","FUNCSTAT":"A","MTFCC":"G4110","CLASSFP":"C1","PCICBSA":"N","LSAD":25,"AWATER":0.0,"INTPTLAT":32.7330856,"PLCIDFP":"0641124","STATEFP":"06","INTPTLON":-117.0343478,"CPI":"N","PLACEFP":"41124","PCINECTA":"N","id":"a6khrl77ttxy","NAMELSAD":"Lemon Grove city"},"type":"Feature","geometry":{"type":"Point","coordinates":[-117.034347541772,32.7330858551195]}},{"properties":{"NAME":"National City","ALAND":18905244.0,"PLACENS":"02411216","FUNCSTAT":"A","MTFCC":"G4110","CLASSFP":"C1","PCICBSA":"Y","LSAD":25,"AWATER":4758981.0,"INTPTLAT":32.6658617,"PLCIDFP":"0650398","STATEFP":"06","INTPTLON":-117.097361,"CPI":"Y","PLACEFP":"50398","PCINECTA":"N","id":"a6khrla1rjki","NAMELSAD":"National City city"},"type":"Feature","geometry":{"type":"Point","coordinates":[-117.098233624203,32.6652775593433]}},{"properties":{"NAME":"Oceanside","ALAND":105554163.0,"PLACENS":"02411301","FUNCSTAT":"A","MTFCC":"G4110","CLASSFP":"C1","PCICBSA":"N","LSAD":25,"AWATER":2424230.0,"INTPTLAT":33.2241449,"PLCIDFP":"0653322","STATEFP":"06","INTPTLON":-117.3111693,"CPI":"Y","PLACEFP":"53322","PCINECTA":"N","id":"a6khrlal5zc8","NAMELSAD":"Oceanside city"},"type":"Feature","geometry":{"type":"Point","coordinates":[-117.30903083454,33.2242277190267]}},{"properties":{"NAME":"Poway","ALAND":101325290.0,"PLACENS":"02411480","FUNCSTAT":"A","MTFCC":"G4110","CLASSFP":"C1","PCICBSA":"N","LSAD":25,"AWATER":223435.0,"INTPTLAT":32.9877018,"PLCIDFP":"0658520","STATEFP":"06","INTPTLON":-117.0218426,"CPI":"N","PLACEFP":"58520","PCINECTA":"N","id":"a6khrlfcze9c","NAMELSAD":"Poway city"},"type":"Feature","geometry":{"type":"Point","coordinates":[-117.020352663255,32.9871245613038]}},{"properties":{"NAME":"San Diego","ALAND":842167242.0,"PLACENS":"02411782","FUNCSTAT":"A","MTFCC":"G4110","CLASSFP":"C1","PCICBSA":"Y","LSAD":25,"AWATER":122235258.0,"INTPTLAT":32.8152995,"PLCIDFP":"0666000","STATEFP":"06","INTPTLON":-117.134993,"CPI":"Y","PLACEFP":"66000","PCINECTA":"N","id":"a6khrlcmxo33","NAMELSAD":"San Diego city"},"type":"Feature","geometry":{"type":"Point","coordinates":[-117.1334623583,32.8170176083489]}},{"properties":{"NAME":"San Marcos","ALAND":63092101.0,"PLACENS":"02411797","FUNCSTAT":"A","MTFCC":"G4110","CLASSFP":"C1","PCICBSA":"Y","LSAD":25,"AWATER":52507.0,"INTPTLAT":33.1338931,"PLCIDFP":"0668196","STATEFP":"06","INTPTLON":-117.1693669,"CPI":"Y","PLACEFP":"68196","PCINECTA":"N","id":"a6khrlm310o0","NAMELSAD":"San Marcos city"},"type":"Feature","geometry":{"type":"Point","coordinates":[-117.174336625174,33.1350333324513]}},{"properties":{"NAME":"Santee","ALAND":41985581.0,"PLACENS":"02411830","FUNCSTAT":"A","MTFCC":"G4110","CLASSFP":"C1","PCICBSA":"N","LSAD":25,"AWATER":755640.0,"INTPTLAT":32.8549902,"PLCIDFP":"0670224","STATEFP":"06","INTPTLON":-116.9860556,"CPI":"Y","PLACEFP":"70224","PCINECTA":"N","id":"a6khrl9y521n","NAMELSAD":"Santee city"},"type":"Feature","geometry":{"type":"Point","coordinates":[-116.984880028582,32.8554531310355]}},{"properties":{"NAME":"Solana Beach","ALAND":9115716.0,"PLACENS":"02411923","FUNCSTAT":"A","MTFCC":"G4110","CLASSFP":"C1","PCICBSA":"N","LSAD":25,"AWATER":270081.0,"INTPTLAT":32.9914967,"PLCIDFP":"0672506","STATEFP":"06","INTPTLON":-117.2580416,"CPI":"N","PLACEFP":"72506","PCINECTA":"N","id":"a6khrllg5d86","NAMELSAD":"Solana Beach city"},"type":"Feature","geometry":{"type":"Point","coordinates":[-117.257796034593,32.9947655700402]}},{"properties":{"NAME":"Vista","ALAND":48524992.0,"PLACENS":"02412161","FUNCSTAT":"A","MTFCC":"G4110","CLASSFP":"C1","PCICBSA":"N","LSAD":25,"AWATER":0.0,"INTPTLAT":33.1895991,"PLCIDFP":"0682996","STATEFP":"06","INTPTLON":-117.2385443,"CPI":"Y","PLACEFP":"82996","PCINECTA":"N","id":"a6khrlccmdp5","NAMELSAD":"Vista city"},"type":"Feature","geometry":{"type":"Point","coordinates":[-117.238544763348,33.1896057604077]}},{"properties":{"NAME":"Colusa","ALAND":4737198.0,"PLACENS":"02410204","FUNCSTAT":"A","MTFCC":"G4110","CLASSFP":"C1","PCICBSA":"N","LSAD":25,"AWATER":0.0,"INTPTLAT":39.2049353,"PLCIDFP":"0614946","STATEFP":"06","INTPTLON":-122.0095923,"CPI":"Y","PLACEFP":"14946","PCINECTA":"N","id":"a6khrlfpgzf2","NAMELSAD":"Colusa city"},"type":"Feature","geometry":{"type":"Point","coordinates":[-122.009592166555,39.2049357459742]}},{"properties":{"NAME":"Williams","ALAND":14101137.0,"PLACENS":"02412268","FUNCSTAT":"A","MTFCC":"G4110","CLASSFP":"C1","PCICBSA":"N","LSAD":25,"AWATER":0.0,"INTPTLAT":39.1486776,"PLCIDFP":"0685586","STATEFP":"06","INTPTLON":-122.1372495,"CPI":"Y","PLACEFP":"85586","PCINECTA":"N","id":"a6khrlaj5eob","NAMELSAD":"Williams city"},"type":"Feature","geometry":{"type":"Point","coordinates":[-122.13725377092,39.1486794718643]}},{"properties":{"NAME":"Brawley","ALAND":19895042.0,"PLACENS":"02409893","FUNCSTAT":"A","MTFCC":"G4110","CLASSFP":"C1","PCICBSA":"N","LSAD":25,"AWATER":0.0,"INTPTLAT":32.9787021,"PLCIDFP":"0608058","STATEFP":"06","INTPTLON":-115.5299143,"CPI":"Y","PLACEFP":"08058","PCINECTA":"N","id":"a6khrldxo4jw","NAMELSAD":"Brawley city"},"type":"Feature","geometry":{"type":"Point","coordinates":[-115.529911959643,32.9787029163819]}},{"properties":{"NAME":"Calexico","ALAND":21733153.0,"PLACENS":"02409958","FUNCSTAT":"A","MTFCC":"G4110","CLASSFP":"C1","PCICBSA":"N","LSAD":25,"AWATER":0.0,"INTPTLAT":32.6843207,"PLCIDFP":"0609710","STATEFP":"06","INTPTLON":-115.4945793,"CPI":"Y","PLACEFP":"09710","PCINECTA":"N","id":"a6khrlmp078r","NAMELSAD":"Calexico city"},"type":"Feature","geometry":{"type":"Point","coordinates":[-115.494578345621,32.6843211853986]}},{"properties":{"NAME":"Calipatria","ALAND":9623997.0,"PLACENS":"02409962","FUNCSTAT":"A","MTFCC":"G4110","CLASSFP":"C1","PCICBSA":"N","LSAD":25,"AWATER":0.0,"INTPTLAT":33.1688053,"PLCIDFP":"0609878","STATEFP":"06","INTPTLON":-115.4857095,"CPI":"Y","PLACEFP":"09878","PCINECTA":"N","id":"a6khrlkue1ki","NAMELSAD":"Calipatria city"},"type":"Feature","geometry":{"type":"Point","coordinates":[-115.505813604672,33.1488260585356]}},{"properties":{"NAME":"El Centro","ALAND":29182865.0,"PLACENS":"02410409","FUNCSTAT":"A","MTFCC":"G4110","CLASSFP":"C1","PCICBSA":"Y","LSAD":25,"AWATER":45581.0,"INTPTLAT":32.78635,"PLCIDFP":"0621782","STATEFP":"06","INTPTLON":-115.5580033,"CPI":"Y","PLACEFP":"21782","PCINECTA":"N","id":"a6khrlba9trw","NAMELSAD":"El Centro city"},"type":"Feature","geometry":{"type":"Point","coordinates":[-115.55767624034,32.7867221433437]}},{"properties":{"NAME":"Holtville","ALAND":2973728.0,"PLACENS":"02410780","FUNCSTAT":"A","MTFCC":"G4110","CLASSFP":"C1","PCICBSA":"N","LSAD":25,"AWATER":11902.0,"INTPTLAT":32.8137811,"PLCIDFP":"0634246","STATEFP":"06","INTPTLON":-115.3783188,"CPI":"Y","PLACEFP":"34246","PCINECTA":"N","id":"a6khrllffqxx","NAMELSAD":"Holtville city"},"type":"Feature","geometry":{"type":"Point","coordinates":[-115.378062249011,32.8129360794983]}},{"properties":{"NAME":"Imperial","ALAND":14122270.0,"PLACENS":"02410097","FUNCSTAT":"A","MTFCC":"G4110","CLASSFP":"C1","PCICBSA":"N","LSAD":25,"AWATER":0.0,"INTPTLAT":32.8355156,"PLCIDFP":"0636280","STATEFP":"06","INTPTLON":-115.5715321,"CPI":"N","PLACEFP":"36280","PCINECTA":"N","id":"a6khrlflqdgr","NAMELSAD":"Imperial city"},"type":"Feature","geometry":{"type":"Point","coordinates":[-115.571532353282,32.8355166337073]}},{"properties":{"NAME":"Westmorland","ALAND":1097708.0,"PLACENS":"02412239","FUNCSTAT":"A","MTFCC":"G4110","CLASSFP":"C1","PCICBSA":"N","LSAD":25,"AWATER":0.0,"INTPTLAT":33.0375695,"PLCIDFP":"0684606","STATEFP":"06","INTPTLON":-115.6228747,"CPI":"N","PLACEFP":"84606","PCINECTA":"N","id":"a6khrl7w1oam","NAMELSAD":"Westmorland city"},"type":"Feature","geometry":{"type":"Point","coordinates":[-115.6228748672,33.0375696036039]}},{"properties":{"NAME":"Marysville","ALAND":8974949.0,"PLACENS":"02411046","FUNCSTAT":"A","MTFCC":"G4110","CLASSFP":"C1","PCICBSA":"N","LSAD":25,"AWATER":308763.0,"INTPTLAT":39.1515353,"PLCIDFP":"0646170","STATEFP":"06","INTPTLON":-121.5833737,"CPI":"N","PLACEFP":"46170","PCINECTA":"N","id":"a6khrlcp2w1c","NAMELSAD":"Marysville city"},"type":"Feature","geometry":{"type":"Point","coordinates":[-121.58349134772,39.1517785776483]}},{"properties":{"NAME":"Wheatland","ALAND":3862830.0,"PLACENS":"02412249","FUNCSTAT":"A","MTFCC":"G4110","CLASSFP":"C1","PCICBSA":"N","LSAD":25,"AWATER":17382.0,"INTPTLAT":39.007566,"PLCIDFP":"0685012","STATEFP":"06","INTPTLON":-121.4287917,"CPI":"N","PLACEFP":"85012","PCINECTA":"N","id":"a6khrlbyhaor","NAMELSAD":"Wheatland city"},"type":"Feature","geometry":{"type":"Point","coordinates":[-121.428563246512,39.0079430025379]}},{"properties":{"NAME":"Sonora","ALAND":7936061.0,"PLACENS":"02411930","FUNCSTAT":"A","MTFCC":"G4110","CLASSFP":"C1","PCICBSA":"N","LSAD":25,"AWATER":35506.0,"INTPTLAT":37.9816918,"PLCIDFP":"0672674","STATEFP":"06","INTPTLON":-120.3826626,"CPI":"Y","PLACEFP":"72674","PCINECTA":"N","id":"a6khrle134vi","NAMELSAD":"Sonora city"},"type":"Feature","geometry":{"type":"Point","coordinates":[-120.38230292204,37.9816852686143]}},{"properties":{"NAME":"Calistoga","ALAND":6722507.0,"PLACENS":"02409963","FUNCSTAT":"A","MTFCC":"G4110","CLASSFP":"C1","PCICBSA":"N","LSAD":25,"AWATER":48110.0,"INTPTLAT":38.5814084,"PLCIDFP":"0609892","STATEFP":"06","INTPTLON":-122.5826961,"CPI":"Y","PLACEFP":"09892","PCINECTA":"N","id":"a6khrlczc7gf","NAMELSAD":"Calistoga city"},"type":"Feature","geometry":{"type":"Point","coordinates":[-122.582367238053,38.5817067592599]}},{"properties":{"NAME":"Napa","ALAND":46005456.0,"PLACENS":"02411209","FUNCSTAT":"A","MTFCC":"G4110","CLASSFP":"C1","PCICBSA":"Y","LSAD":25,"AWATER":796607.0,"INTPTLAT":38.2972195,"PLCIDFP":"0650258","STATEFP":"06","INTPTLON":-122.3011697,"CPI":"Y","PLACEFP":"50258","PCINECTA":"N","id":"a6khrlk5xyol","NAMELSAD":"Napa city"},"type":"Feature","geometry":{"type":"Point","coordinates":[-122.301177278027,38.2979988104189]}},{"properties":{"NAME":"St. Helena","ALAND":12994531.0,"PLACENS":"02411758","FUNCSTAT":"A","MTFCC":"G4110","CLASSFP":"C1","PCICBSA":"N","LSAD":25,"AWATER":105962.0,"INTPTLAT":38.504045,"PLCIDFP":"0664140","STATEFP":"06","INTPTLON":-122.4677324,"CPI":"Y","PLACEFP":"64140","PCINECTA":"N","id":"a6khrl80ozy3","NAMELSAD":"St. Helena city"},"type":"Feature","geometry":{"type":"Point","coordinates":[-122.468063131991,38.5042940554212]}},{"properties":{"NAME":"Yountville","ALAND":3966207.0,"PLACENS":"02412323","FUNCSTAT":"A","MTFCC":"G4110","CLASSFP":"C1","PCICBSA":"N","LSAD":25,"AWATER":0.0,"INTPTLAT":38.3955283,"PLCIDFP":"0686930","STATEFP":"06","INTPTLON":-122.3669157,"CPI":"Y","PLACEFP":"86930","PCINECTA":"N","id":"a6khrl9adm5o","NAMELSAD":"Yountville city"},"type":"Feature","geometry":{"type":"Point","coordinates":[-122.366914526936,38.3955289185371]}},{"properties":{"NAME":"Grass Valley","ALAND":12280700.0,"PLACENS":"02410651","FUNCSTAT":"A","MTFCC":"G4110","CLASSFP":"C1","PCICBSA":"Y","LSAD":25,"AWATER":0.0,"INTPTLAT":39.2236994,"PLCIDFP":"0630798","STATEFP":"06","INTPTLON":-121.0550019,"CPI":"Y","PLACEFP":"30798","PCINECTA":"N","id":"a6khrl6lhudy","NAMELSAD":"Grass Valley city"},"type":"Feature","geometry":{"type":"Point","coordinates":[-121.055000015232,39.2237005542317]}},{"properties":{"NAME":"Nevada City","ALAND":5433715.0,"PLACENS":"02411225","FUNCSTAT":"A","MTFCC":"G4110","CLASSFP":"C1","PCICBSA":"N","LSAD":25,"AWATER":9642.0,"INTPTLAT":39.2601749,"PLCIDFP":"0650874","STATEFP":"06","INTPTLON":-121.0232518,"CPI":"N","PLACEFP":"50874","PCINECTA":"N","id":"a6khrlloq4nh","NAMELSAD":"Nevada City city"},"type":"Feature","geometry":{"type":"Point","coordinates":[-121.022975120556,39.2602418755198]}},{"properties":{"NAME":"Truckee","ALAND":83711208.0,"PLACENS":"02413403","FUNCSTAT":"A","MTFCC":"G4110","CLASSFP":"C1","PCICBSA":"Y","LSAD":43,"AWATER":3448657.0,"INTPTLAT":39.3534264,"PLCIDFP":"0680588","STATEFP":"06","INTPTLON":-120.1933635,"CPI":"Y","PLACEFP":"80588","PCINECTA":"N","id":"a6khrl9iakah","NAMELSAD":"Truckee town"},"type":"Feature","geometry":{"type":"Point","coordinates":[-120.184884769881,39.3454488687585]}},{"properties":{"NAME":"Angels","ALAND":8422512.0,"PLACENS":"02409709","FUNCSTAT":"A","MTFCC":"G4110","CLASSFP":"C1","PCICBSA":"N","LSAD":25,"AWATER":23589.0,"INTPTLAT":38.073231,"PLCIDFP":"0602112","STATEFP":"06","INTPTLON":-120.5515208,"CPI":"Y","PLACEFP":"02112","PCINECTA":"N","id":"a6khrlbq3c0u","NAMELSAD":"Angels city"},"type":"Feature","geometry":{"type":"Point","coordinates":[-120.551665127999,38.0731363785889]}},{"properties":{"NAME":"Portola","ALAND":14003468.0,"PLACENS":"02411473","FUNCSTAT":"A","MTFCC":"G4110","CLASSFP":"C1","PCICBSA":"N","LSAD":25,"AWATER":0.0,"INTPTLAT":39.820799,"PLCIDFP":"0658352","STATEFP":"06","INTPTLON":-120.474293,"CPI":"Y","PLACEFP":"58352","PCINECTA":"N","id":"a6khrlg82sq9","NAMELSAD":"Portola city"},"type":"Feature","geometry":{"type":"Point","coordinates":[-120.473249557391,39.8241404707409]}},{"properties":{"NAME":"Chowchilla","ALAND":19701990.0,"PLACENS":"02409459","FUNCSTAT":"A","MTFCC":"G4110","CLASSFP":"C1","PCICBSA":"Y","LSAD":25,"AWATER":0.0,"INTPTLAT":37.1131849,"PLCIDFP":"0613294","STATEFP":"06","INTPTLON":-120.2300213,"CPI":"Y","PLACEFP":"13294","PCINECTA":"N","id":"a6khrlfe0ihy","NAMELSAD":"Chowchilla city"},"type":"Feature","geometry":{"type":"Point","coordinates":[-120.230028424139,37.1131793327383]}},{"properties":{"NAME":"Madera","ALAND":36805158.0,"PLACENS":"02410906","FUNCSTAT":"A","MTFCC":"G4110","CLASSFP":"C1","PCICBSA":"Y","LSAD":25,"AWATER":0.0,"INTPTLAT":36.9639678,"PLCIDFP":"0645022","STATEFP":"06","INTPTLON":-120.0810573,"CPI":"Y","PLACEFP":"45022","PCINECTA":"N","id":"a6khrljz46si","NAMELSAD":"Madera city"},"type":"Feature","geometry":{"type":"Point","coordinates":[-120.081059391531,36.9639675512577]}},{"properties":{"NAME":"Biggs","ALAND":1363832.0,"PLACENS":"02409848","FUNCSTAT":"A","MTFCC":"G4110","CLASSFP":"C1","PCICBSA":"N","LSAD":25,"AWATER":0.0,"INTPTLAT":39.4135402,"PLCIDFP":"0606560","STATEFP":"06","INTPTLON":-121.7098686,"CPI":"N","PLACEFP":"06560","PCINECTA":"N","id":"a6khrlh7fkdd","NAMELSAD":"Biggs city"},"type":"Feature","geometry":{"type":"Point","coordinates":[-121.709868533999,39.413540288998]}},{"properties":{"NAME":"Chico","ALAND":85257085.0,"PLACENS":"02409447","FUNCSTAT":"A","MTFCC":"G4110","CLASSFP":"C1","PCICBSA":"Y","LSAD":25,"AWATER":445536.0,"INTPTLAT":39.7551591,"PLCIDFP":"0613014","STATEFP":"06","INTPTLON":-121.818797,"CPI":"Y","PLACEFP":"13014","PCINECTA":"N","id":"a6khrlkevnoh","NAMELSAD":"Chico city"},"type":"Feature","geometry":{"type":"Point","coordinates":[-121.815986330355,39.7568543259884]}},{"properties":{"NAME":"Gridley","ALAND":5337964.0,"PLACENS":"02410665","FUNCSTAT":"A","MTFCC":"G4110","CLASSFP":"C1","PCICBSA":"N","LSAD":25,"AWATER":0.0,"INTPTLAT":39.3621681,"PLCIDFP":"0631260","STATEFP":"06","INTPTLON":-121.6969592,"CPI":"Y","PLACEFP":"31260","PCINECTA":"N","id":"a6khrlmvbew1","NAMELSAD":"Gridley city"},"type":"Feature","geometry":{"type":"Point","coordinates":[-121.696959196726,39.3621682923864]}},{"properties":{"NAME":"Oroville","ALAND":33671818.0,"PLACENS":"02411337","FUNCSTAT":"A","MTFCC":"G4110","CLASSFP":"C1","PCICBSA":"N","LSAD":25,"AWATER":47844.0,"INTPTLAT":39.5030152,"PLCIDFP":"0654386","STATEFP":"06","INTPTLON":-121.5664727,"CPI":"Y","PLACEFP":"54386","PCINECTA":"N","id":"a6khrl9bh6lj","NAMELSAD":"Oroville city"},"type":"Feature","geometry":{"type":"Point","coordinates":[-121.565338570422,39.4998217975765]}},{"properties":{"NAME":"Paradise","ALAND":47387758.0,"PLACENS":"02413111","FUNCSTAT":"A","MTFCC":"G4110","CLASSFP":"C1","PCICBSA":"N","LSAD":43,"AWATER":37493.0,"INTPTLAT":39.7541919,"PLCIDFP":"0655520","STATEFP":"06","INTPTLON":-121.6063999,"CPI":"Y","PLACEFP":"55520","PCINECTA":"N","id":"a6khrlmfyqv2","NAMELSAD":"Paradise town"},"type":"Feature","geometry":{"type":"Point","coordinates":[-121.606350850458,39.7557832411113]}},{"properties":{"NAME":"Crescent City","ALAND":5085101.0,"PLACENS":"02410262","FUNCSTAT":"A","MTFCC":"G4110","CLASSFP":"C1","PCICBSA":"Y","LSAD":25,"AWATER":1169598.0,"INTPTLAT":41.7665078,"PLCIDFP":"0617022","STATEFP":"06","INTPTLON":-124.1989453,"CPI":"Y","PLACEFP":"17022","PCINECTA":"N","id":"a6khrlcbz9wz","NAMELSAD":"Crescent City city"},"type":"Feature","geometry":{"type":"Point","coordinates":[-124.190800976635,41.7717102227398]}},{"properties":{"NAME":"Clearlake","ALAND":26229692.0,"PLACENS":"02409479","FUNCSTAT":"A","MTFCC":"G4110","CLASSFP":"C1","PCICBSA":"Y","LSAD":25,"AWATER":1180584.0,"INTPTLAT":38.960087,"PLCIDFP":"0613945","STATEFP":"06","INTPTLON":-122.6332791,"CPI":"Y","PLACEFP":"13945","PCINECTA":"N","id":"a6khrlett7l3","NAMELSAD":"Clearlake city"},"type":"Feature","geometry":{"type":"Point","coordinates":[-122.63305363282,38.958931587173]}},{"properties":{"NAME":"Lakeport","ALAND":7914380.0,"PLACENS":"02411609","FUNCSTAT":"A","MTFCC":"G4110","CLASSFP":"C1","PCICBSA":"N","LSAD":25,"AWATER":366566.0,"INTPTLAT":39.0396328,"PLCIDFP":"0639710","STATEFP":"06","INTPTLON":-122.9214218,"CPI":"Y","PLACEFP":"39710","PCINECTA":"N","id":"a6khrlbr4wr3","NAMELSAD":"Lakeport city"},"type":"Feature","geometry":{"type":"Point","coordinates":[-122.921795183252,39.0391994592614]}},{"properties":{"NAME":"Loyalton","ALAND":920712.0,"PLACENS":"02410891","FUNCSTAT":"A","MTFCC":"G4110","CLASSFP":"C1","PCICBSA":"N","LSAD":25,"AWATER":0.0,"INTPTLAT":39.6768545,"PLCIDFP":"0644364","STATEFP":"06","INTPTLON":-120.244811,"CPI":"N","PLACEFP":"44364","PCINECTA":"N","id":"a6khrllpwb51","NAMELSAD":"Loyalton city"},"type":"Feature","geometry":{"type":"Point","coordinates":[-120.244811110569,39.6768545578467]}},{"properties":{"NAME":"San Francisco","ALAND":121399662.0,"PLACENS":"02411786","FUNCSTAT":"A","MTFCC":"G4110","CLASSFP":"C1","PCICBSA":"Y","LSAD":25,"AWATER":479208758.0,"INTPTLAT":37.727239,"PLCIDFP":"0667000","STATEFP":"06","INTPTLON":-123.0322293,"CPI":"Y","PLACEFP":"67000","PCINECTA":"N","id":"a6khrlm114ta","NAMELSAD":"San Francisco city"},"type":"Feature","geometry":{"type":"Point","coordinates":[-122.693970602177,37.7597165410192]}},{"properties":{"NAME":"Belvedere","ALAND":1338336.0,"PLACENS":"02409829","FUNCSTAT":"A","MTFCC":"G4110","CLASSFP":"C1","PCICBSA":"N","LSAD":25,"AWATER":4888516.0,"INTPTLAT":37.8720756,"PLCIDFP":"0605164","STATEFP":"06","INTPTLON":-122.4706086,"CPI":"N","PLACEFP":"05164","PCINECTA":"N","id":"a6khrle0ad8q","NAMELSAD":"Belvedere city"},"type":"Feature","geometry":{"type":"Point","coordinates":[-122.470206267139,37.8705214749253]}},{"properties":{"NAME":"Corte Madera","ALAND":8186277.0,"PLACENS":"02413247","FUNCSTAT":"A","MTFCC":"G4110","CLASSFP":"C1","PCICBSA":"N","LSAD":43,"AWATER":3216354.0,"INTPTLAT":37.9321613,"PLCIDFP":"0616462","STATEFP":"06","INTPTLON":-122.5077444,"CPI":"N","PLACEFP":"16462","PCINECTA":"N","id":"a6khrl7c2j8u","NAMELSAD":"Corte Madera town"},"type":"Feature","geometry":{"type":"Point","coordinates":[-122.507544462917,37.9255882149262]}},{"properties":{"NAME":"Fairfax","ALAND":5540222.0,"PLACENS":"02412609","FUNCSTAT":"A","MTFCC":"G4110","CLASSFP":"C1","PCICBSA":"N","LSAD":43,"AWATER":0.0,"INTPTLAT":37.9880555,"PLCIDFP":"0623168","STATEFP":"06","INTPTLON":-122.5951424,"CPI":"N","PLACEFP":"23168","PCINECTA":"N","id":"a6khrlg0ud4d","NAMELSAD":"Fairfax town"},"type":"Feature","geometry":{"type":"Point","coordinates":[-122.59514251664,37.9880563359098]}},{"properties":{"NAME":"Larkspur","ALAND":7927620.0,"PLACENS":"02411627","FUNCSTAT":"A","MTFCC":"G4110","CLASSFP":"C1","PCICBSA":"N","LSAD":25,"AWATER":559535.0,"INTPTLAT":37.9409868,"PLCIDFP":"0640438","STATEFP":"06","INTPTLON":-122.5299208,"CPI":"N","PLACEFP":"40438","PCINECTA":"N","id":"a6khrlkgkcb7","NAMELSAD":"Larkspur city"},"type":"Feature","geometry":{"type":"Point","coordinates":[-122.531209689091,37.9391783527709]}},{"properties":{"NAME":"Mill Valley","ALAND":12295547.0,"PLACENS":"02411109","FUNCSTAT":"A","MTFCC":"G4110","CLASSFP":"C1","PCICBSA":"N","LSAD":25,"AWATER":311176.0,"INTPTLAT":37.9083695,"PLCIDFP":"0647710","STATEFP":"06","INTPTLON":-122.5420887,"CPI":"N","PLACEFP":"47710","PCINECTA":"N","id":"a6khrlhuhqa5","NAMELSAD":"Mill Valley city"},"type":"Feature","geometry":{"type":"Point","coordinates":[-122.541737997161,37.9081726242597]}},{"properties":{"NAME":"Novato","ALAND":72381160.0,"PLACENS":"02411283","FUNCSTAT":"A","MTFCC":"G4110","CLASSFP":"C1","PCICBSA":"N","LSAD":25,"AWATER":1360866.0,"INTPTLAT":38.084925,"PLCIDFP":"0652582","STATEFP":"06","INTPTLON":-122.54873,"CPI":"N","PLACEFP":"52582","PCINECTA":"N","id":"a6khrlm2r6nb","NAMELSAD":"Novato city"},"type":"Feature","geometry":{"type":"Point","coordinates":[-122.556986181862,38.0915555483454]}},{"properties":{"NAME":"Ross","ALAND":4052264.0,"PLACENS":"02412578","FUNCSTAT":"A","MTFCC":"G4110","CLASSFP":"C1","PCICBSA":"N","LSAD":43,"AWATER":0.0,"INTPTLAT":37.963594,"PLCIDFP":"0662980","STATEFP":"06","INTPTLON":-122.5612936,"CPI":"N","PLACEFP":"62980","PCINECTA":"N","id":"a6khrldp0lpz","NAMELSAD":"Ross town"},"type":"Feature","geometry":{"type":"Point","coordinates":[-122.561293452018,37.9635938968888]}},{"properties":{"NAME":"San Anselmo","ALAND":7143354.0,"PLACENS":"02413251","FUNCSTAT":"A","MTFCC":"G4110","CLASSFP":"C1","PCICBSA":"N","LSAD":43,"AWATER":0.0,"INTPTLAT":37.9822917,"PLCIDFP":"0664434","STATEFP":"06","INTPTLON":-122.5698728,"CPI":"N","PLACEFP":"64434","PCINECTA":"N","id":"a6khrllov31p","NAMELSAD":"San Anselmo town"},"type":"Feature","geometry":{"type":"Point","coordinates":[-122.569873503389,37.9822923894381]}},{"properties":{"NAME":"San Rafael","ALAND":42550065.0,"PLACENS":"02411804","FUNCSTAT":"A","MTFCC":"G4110","CLASSFP":"C1","PCICBSA":"Y","LSAD":25,"AWATER":15414805.0,"INTPTLAT":37.9810032,"PLCIDFP":"0668364","STATEFP":"06","INTPTLON":-122.5069296,"CPI":"Y","PLACEFP":"68364","PCINECTA":"N","id":"a6khrlm09knh","NAMELSAD":"San Rafael city"},"type":"Feature","geometry":{"type":"Point","coordinates":[-122.507589678664,37.9818566198279]}},{"properties":{"NAME":"Sausalito","ALAND":4773925.0,"PLACENS":"02411834","FUNCSTAT":"A","MTFCC":"G4110","CLASSFP":"C1","PCICBSA":"N","LSAD":25,"AWATER":1260143.0,"INTPTLAT":37.8583694,"PLCIDFP":"0670364","STATEFP":"06","INTPTLON":-122.4918435,"CPI":"N","PLACEFP":"70364","PCINECTA":"N","id":"a6khrla7qjee","NAMELSAD":"Sausalito city"},"type":"Feature","geometry":{"type":"Point","coordinates":[-122.491967751007,37.8581245249207]}},{"properties":{"NAME":"Tiburon","ALAND":11533162.0,"PLACENS":"02413389","FUNCSTAT":"A","MTFCC":"G4110","CLASSFP":"C1","PCICBSA":"N","LSAD":43,"AWATER":22624733.0,"INTPTLAT":37.887166,"PLCIDFP":"0678666","STATEFP":"06","INTPTLON":-122.458291,"CPI":"N","PLACEFP":"78666","PCINECTA":"N","id":"a6khrlcsnnmc","NAMELSAD":"Tiburon town"},"type":"Feature","geometry":{"type":"Point","coordinates":[-122.454317399535,37.8878289004014]}},{"properties":{"NAME":"American Canyon","ALAND":12565432.0,"PLACENS":"02409695","FUNCSTAT":"A","MTFCC":"G4110","CLASSFP":"C1","PCICBSA":"N","LSAD":25,"AWATER":21663.0,"INTPTLAT":38.1769857,"PLCIDFP":"0601640","STATEFP":"06","INTPTLON":-122.258326,"CPI":"N","PLACEFP":"01640","PCINECTA":"N","id":"a6khrlfltzdl","NAMELSAD":"American Canyon city"},"type":"Feature","geometry":{"type":"Point","coordinates":[-122.258529200562,38.1772703621317]}},{"properties":{"NAME":"Alturas","ALAND":5646323.0,"PLACENS":"02409688","FUNCSTAT":"A","MTFCC":"G4110","CLASSFP":"C1","PCICBSA":"N","LSAD":25,"AWATER":28459.0,"INTPTLAT":41.4891826,"PLCIDFP":"0601444","STATEFP":"06","INTPTLON":-120.5462869,"CPI":"Y","PLACEFP":"01444","PCINECTA":"N","id":"a6khrlamg6gn","NAMELSAD":"Alturas city"},"type":"Feature","geometry":{"type":"Point","coordinates":[-120.548473408342,41.4899301007952]}},{"properties":{"NAME":"Clovis","ALAND":60095069.0,"PLACENS":"02409488","FUNCSTAT":"A","MTFCC":"G4110","CLASSFP":"C1","PCICBSA":"N","LSAD":25,"AWATER":0.0,"INTPTLAT":36.8289254,"PLCIDFP":"0614218","STATEFP":"06","INTPTLON":-119.6867505,"CPI":"Y","PLACEFP":"14218","PCINECTA":"N","id":"a6khrldgvoey","NAMELSAD":"Clovis city"},"type":"Feature","geometry":{"type":"Point","coordinates":[-119.686751054143,36.8289320182329]}},{"properties":{"NAME":"Coalinga","ALAND":15875179.0,"PLACENS":"02409495","FUNCSTAT":"A","MTFCC":"G4110","CLASSFP":"C1","PCICBSA":"N","LSAD":25,"AWATER":79727.0,"INTPTLAT":36.1330564,"PLCIDFP":"0614274","STATEFP":"06","INTPTLON":-120.339028,"CPI":"Y","PLACEFP":"14274","PCINECTA":"N","id":"a6khrl7p642y","NAMELSAD":"Coalinga city"},"type":"Feature","geometry":{"type":"Point","coordinates":[-120.330617728763,36.1444995706914]}},{"properties":{"NAME":"Firebaugh","ALAND":8966885.0,"PLACENS":"02410507","FUNCSTAT":"A","MTFCC":"G4110","CLASSFP":"C1","PCICBSA":"N","LSAD":25,"AWATER":147542.0,"INTPTLAT":36.8537144,"PLCIDFP":"0624134","STATEFP":"06","INTPTLON":-120.4535912,"CPI":"Y","PLACEFP":"24134","PCINECTA":"N","id":"a6khrlckec7r","NAMELSAD":"Firebaugh city"},"type":"Feature","geometry":{"type":"Point","coordinates":[-120.453335035239,36.8531756891395]}},{"properties":{"NAME":"Fowler","ALAND":6523971.0,"PLACENS":"02410538","FUNCSTAT":"A","MTFCC":"G4110","CLASSFP":"C1","PCICBSA":"N","LSAD":25,"AWATER":0.0,"INTPTLAT":36.6247224,"PLCIDFP":"0625436","STATEFP":"06","INTPTLON":-119.6735997,"CPI":"N","PLACEFP":"25436","PCINECTA":"N","id":"a6khrlifam5x","NAMELSAD":"Fowler city"},"type":"Feature","geometry":{"type":"Point","coordinates":[-119.673601209239,36.6247233726801]}},{"properties":{"NAME":"Fresno","ALAND":286065821.0,"PLACENS":"02410546","FUNCSTAT":"A","MTFCC":"G4110","CLASSFP":"C1","PCICBSA":"Y","LSAD":25,"AWATER":916492.0,"INTPTLAT":36.7826736,"PLCIDFP":"0627000","STATEFP":"06","INTPTLON":-119.794492,"CPI":"Y","PLACEFP":"27000","PCINECTA":"N","id":"a6khrl764c0n","NAMELSAD":"Fresno city"},"type":"Feature","geometry":{"type":"Point","coordinates":[-119.794587520952,36.7826674347757]}},{"properties":{"NAME":"Huron","ALAND":4120759.0,"PLACENS":"02410081","FUNCSTAT":"A","MTFCC":"G4110","CLASSFP":"C1","PCICBSA":"N","LSAD":25,"AWATER":0.0,"INTPTLAT":36.2039784,"PLCIDFP":"0636084","STATEFP":"06","INTPTLON":-120.0961775,"CPI":"Y","PLACEFP":"36084","PCINECTA":"N","id":"a6khrler5qy7","NAMELSAD":"Huron city"},"type":"Feature","geometry":{"type":"Point","coordinates":[-120.096177070169,36.2039783564733]}},{"properties":{"NAME":"Kerman","ALAND":8372199.0,"PLACENS":"02411536","FUNCSTAT":"A","MTFCC":"G4110","CLASSFP":"C1","PCICBSA":"N","LSAD":25,"AWATER":0.0,"INTPTLAT":36.7250072,"PLCIDFP":"0638226","STATEFP":"06","INTPTLON":-120.0623966,"CPI":"Y","PLACEFP":"38226","PCINECTA":"N","id":"a6khrl7i0xr6","NAMELSAD":"Kerman city"},"type":"Feature","geometry":{"type":"Point","coordinates":[-120.06239652502,36.7250074387572]}},{"properties":{"NAME":"Kingsburg","ALAND":7325455.0,"PLACENS":"02411548","FUNCSTAT":"A","MTFCC":"G4110","CLASSFP":"C1","PCICBSA":"N","LSAD":25,"AWATER":0.0,"INTPTLAT":36.5199216,"PLCIDFP":"0638562","STATEFP":"06","INTPTLON":-119.5556753,"CPI":"N","PLACEFP":"38562","PCINECTA":"N","id":"a6khrldpp0ys","NAMELSAD":"Kingsburg city"},"type":"Feature","geometry":{"type":"Point","coordinates":[-119.555675044842,36.5199219305555]}},{"properties":{"NAME":"Mendota","ALAND":8490984.0,"PLACENS":"02411078","FUNCSTAT":"A","MTFCC":"G4110","CLASSFP":"C1","PCICBSA":"N","LSAD":25,"AWATER":8333.0,"INTPTLAT":36.7559903,"PLCIDFP":"0646828","STATEFP":"06","INTPTLON":-120.3782365,"CPI":"Y","PLACEFP":"46828","PCINECTA":"N","id":"a6khrlerp9ej","NAMELSAD":"Mendota city"},"type":"Feature","geometry":{"type":"Point","coordinates":[-120.377691018438,36.7554871465554]}},{"properties":{"NAME":"Orange Cove","ALAND":4640752.0,"PLACENS":"02411327","FUNCSTAT":"A","MTFCC":"G4110","CLASSFP":"C1","PCICBSA":"N","LSAD":25,"AWATER":0.0,"INTPTLAT":36.6211449,"PLCIDFP":"0654008","STATEFP":"06","INTPTLON":-119.3187498,"CPI":"Y","PLACEFP":"54008","PCINECTA":"N","id":"a6khrleh3b5k","NAMELSAD":"Orange Cove city"},"type":"Feature","geometry":{"type":"Point","coordinates":[-119.318748803236,36.6211453083941]}},{"properties":{"NAME":"Parlier","ALAND":5681810.0,"PLACENS":"02411376","FUNCSTAT":"A","MTFCC":"G4110","CLASSFP":"C1","PCICBSA":"N","LSAD":25,"AWATER":0.0,"INTPTLAT":36.6078037,"PLCIDFP":"0655856","STATEFP":"06","INTPTLON":-119.5436479,"CPI":"Y","PLACEFP":"55856","PCINECTA":"N","id":"a6khrljcd9b3","NAMELSAD":"Parlier city"},"type":"Feature","geometry":{"type":"Point","coordinates":[-119.543646508535,36.6078033047126]}},{"properties":{"NAME":"Reedley","ALAND":13166428.0,"PLACENS":"02410920","FUNCSTAT":"A","MTFCC":"G4110","CLASSFP":"C1","PCICBSA":"N","LSAD":25,"AWATER":185387.0,"INTPTLAT":36.599207,"PLCIDFP":"0660242","STATEFP":"06","INTPTLON":-119.4480354,"CPI":"Y","PLACEFP":"60242","PCINECTA":"N","id":"a6khrlb529om","NAMELSAD":"Reedley city"},"type":"Feature","geometry":{"type":"Point","coordinates":[-119.44765530784,36.5992349134876]}},{"properties":{"NAME":"Sanger","ALAND":14304380.0,"PLACENS":"02411811","FUNCSTAT":"A","MTFCC":"G4110","CLASSFP":"C1","PCICBSA":"N","LSAD":25,"AWATER":0.0,"INTPTLAT":36.7008986,"PLCIDFP":"0667056","STATEFP":"06","INTPTLON":-119.5580237,"CPI":"Y","PLACEFP":"67056","PCINECTA":"N","id":"a6khrlhk7d8b","NAMELSAD":"Sanger city"},"type":"Feature","geometry":{"type":"Point","coordinates":[-119.558025697911,36.700899579253]}},{"properties":{"NAME":"San Joaquin","ALAND":2952149.0,"PLACENS":"02411789","FUNCSTAT":"A","MTFCC":"G4110","CLASSFP":"C1","PCICBSA":"N","LSAD":25,"AWATER":0.0,"INTPTLAT":36.6061496,"PLCIDFP":"0667126","STATEFP":"06","INTPTLON":-120.1889177,"CPI":"Y","PLACEFP":"67126","PCINECTA":"N","id":"a6khrlastr4m","NAMELSAD":"San Joaquin city"},"type":"Feature","geometry":{"type":"Point","coordinates":[-120.188917619219,36.6061496165172]}},{"properties":{"NAME":"Selma","ALAND":12893149.0,"PLACENS":"02411863","FUNCSTAT":"A","MTFCC":"G4110","CLASSFP":"C1","PCICBSA":"N","LSAD":25,"AWATER":0.0,"INTPTLAT":36.5745633,"PLCIDFP":"0670882","STATEFP":"06","INTPTLON":-119.6152043,"CPI":"Y","PLACEFP":"70882","PCINECTA":"N","id":"a6khrlfz4rif","NAMELSAD":"Selma city"},"type":"Feature","geometry":{"type":"Point","coordinates":[-119.615205253625,36.5745643646329]}},{"properties":{"NAME":"Capitola","ALAND":4164821.0,"PLACENS":"02409981","FUNCSTAT":"A","MTFCC":"G4110","CLASSFP":"C1","PCICBSA":"N","LSAD":25,"AWATER":214021.0,"INTPTLAT":36.9761483,"PLCIDFP":"0611040","STATEFP":"06","INTPTLON":-121.9540214,"CPI":"N","PLACEFP":"11040","PCINECTA":"N","id":"a6khrlb01pgj","NAMELSAD":"Capitola city"},"type":"Feature","geometry":{"type":"Point","coordinates":[-121.954107415854,36.9768181550156]}},{"properties":{"NAME":"Santa Cruz","ALAND":33140536.0,"PLACENS":"02411820","FUNCSTAT":"A","MTFCC":"G4110","CLASSFP":"C1","PCICBSA":"Y","LSAD":25,"AWATER":7998562.0,"INTPTLAT":36.974385,"PLCIDFP":"0669112","STATEFP":"06","INTPTLON":-122.0352679,"CPI":"Y","PLACEFP":"69112","PCINECTA":"N","id":"a6khrlf39hnw","NAMELSAD":"Santa Cruz city"},"type":"Feature","geometry":{"type":"Point","coordinates":[-122.035596131569,36.9733768514319]}},{"properties":{"NAME":"Scotts Valley","ALAND":11738303.0,"PLACENS":"02411844","FUNCSTAT":"A","MTFCC":"G4110","CLASSFP":"C1","PCICBSA":"N","LSAD":25,"AWATER":0.0,"INTPTLAT":37.0556985,"PLCIDFP":"0670588","STATEFP":"06","INTPTLON":-122.0118697,"CPI":"N","PLACEFP":"70588","PCINECTA":"N","id":"a6khrlebmu7w","NAMELSAD":"Scotts Valley city"},"type":"Feature","geometry":{"type":"Point","coordinates":[-122.011866269329,37.0556995752795]}},{"properties":{"NAME":"Watsonville","ALAND":17561299.0,"PLACENS":"02412194","FUNCSTAT":"A","MTFCC":"G4110","CLASSFP":"C1","PCICBSA":"Y","LSAD":25,"AWATER":238474.0,"INTPTLAT":36.9196077,"PLCIDFP":"0683668","STATEFP":"06","INTPTLON":-121.7702497,"CPI":"Y","PLACEFP":"83668","PCINECTA":"N","id":"a6khrl9yl0ae","NAMELSAD":"Watsonville city"},"type":"Feature","geometry":{"type":"Point","coordinates":[-121.771115993435,36.9204997856025]}},{"properties":{"NAME":"Alameda","ALAND":27481744.0,"PLACENS":"02409669","FUNCSTAT":"A","MTFCC":"G4110","CLASSFP":"C1","PCICBSA":"N","LSAD":25,"AWATER":31983339.0,"INTPTLAT":37.7644706,"PLCIDFP":"0600562","STATEFP":"06","INTPTLON":-122.2832728,"CPI":"Y","PLACEFP":"00562","PCINECTA":"N","id":"a6khrlhj9nns","NAMELSAD":"Alameda city"},"type":"Feature","geometry":{"type":"Point","coordinates":[-122.274338504477,37.7560057472275]}},{"properties":{"NAME":"Albany","ALAND":4631500.0,"PLACENS":"02409674","FUNCSTAT":"A","MTFCC":"G4110","CLASSFP":"C1","PCICBSA":"N","LSAD":25,"AWATER":9523683.0,"INTPTLAT":37.8886212,"PLCIDFP":"0600674","STATEFP":"06","INTPTLON":-122.3256617,"CPI":"N","PLACEFP":"00674","PCINECTA":"N","id":"a6khrlj4psyk","NAMELSAD":"Albany city"},"type":"Feature","geometry":{"type":"Point","coordinates":[-122.329079313278,37.884670484961]}},{"properties":{"NAME":"Berkeley","ALAND":27115247.0,"PLACENS":"02409837","FUNCSTAT":"A","MTFCC":"G4110","CLASSFP":"C1","PCICBSA":"Y","LSAD":25,"AWATER":18715630.0,"INTPTLAT":37.8667016,"PLCIDFP":"0606000","STATEFP":"06","INTPTLON":-122.2990661,"CPI":"Y","PLACEFP":"06000","PCINECTA":"N","id":"a6khrljzo6x1","NAMELSAD":"Berkeley city"},"type":"Feature","geometry":{"type":"Point","coordinates":[-122.29885959754,37.8664682435808]}},{"properties":{"NAME":"Dublin","ALAND":38585132.0,"PLACENS":"02410362","FUNCSTAT":"A","MTFCC":"G4110","CLASSFP":"C1","PCICBSA":"N","LSAD":25,"AWATER":11403.0,"INTPTLAT":37.7142912,"PLCIDFP":"0620018","STATEFP":"06","INTPTLON":-121.9013173,"CPI":"N","PLACEFP":"20018","PCINECTA":"N","id":"a6khrldmyj60","NAMELSAD":"Dublin city"},"type":"Feature","geometry":{"type":"Point","coordinates":[-121.898391393709,37.7152642128273]}},{"properties":{"NAME":"Emeryville","ALAND":3186753.0,"PLACENS":"02410436","FUNCSTAT":"A","MTFCC":"G4110","CLASSFP":"C1","PCICBSA":"N","LSAD":25,"AWATER":1976452.0,"INTPTLAT":37.8388746,"PLCIDFP":"0622594","STATEFP":"06","INTPTLON":-122.2978563,"CPI":"N","PLACEFP":"22594","PCINECTA":"N","id":"a6khrli4n9iy","NAMELSAD":"Emeryville city"},"type":"Feature","geometry":{"type":"Point","coordinates":[-122.29818758686,37.8392016614806]}},{"properties":{"NAME":"Fremont","ALAND":200527032.0,"PLACENS":"02410545","FUNCSTAT":"A","MTFCC":"G4110","CLASSFP":"C1","PCICBSA":"Y","LSAD":25,"AWATER":26291816.0,"INTPTLAT":37.4943734,"PLCIDFP":"0626000","STATEFP":"06","INTPTLON":-121.9411172,"CPI":"Y","PLACEFP":"26000","PCINECTA":"N","id":"a6khrlakbu36","NAMELSAD":"Fremont city"},"type":"Feature","geometry":{"type":"Point","coordinates":[-121.996204527392,37.5246512962683]}},{"properties":{"NAME":"Hayward","ALAND":117275326.0,"PLACENS":"02410724","FUNCSTAT":"A","MTFCC":"G4110","CLASSFP":"C1","PCICBSA":"Y","LSAD":25,"AWATER":47859579.0,"INTPTLAT":37.6281391,"PLCIDFP":"0633000","STATEFP":"06","INTPTLON":-122.1063407,"CPI":"Y","PLACEFP":"33000","PCINECTA":"N","id":"a6khrl9j8t6i","NAMELSAD":"Hayward city"},"type":"Feature","geometry":{"type":"Point","coordinates":[-122.105159699268,37.6273515520478]}},{"properties":{"NAME":"Livermore","ALAND":65220237.0,"PLACENS":"02410848","FUNCSTAT":"A","MTFCC":"G4110","CLASSFP":"C1","PCICBSA":"N","LSAD":25,"AWATER":6919.0,"INTPTLAT":37.6868233,"PLCIDFP":"0641992","STATEFP":"06","INTPTLON":-121.7626211,"CPI":"Y","PLACEFP":"41992","PCINECTA":"N","id":"a6khrlgehwk1","NAMELSAD":"Livermore city"},"type":"Feature","geometry":{"type":"Point","coordinates":[-121.764397839569,37.6864844876906]}},{"properties":{"NAME":"Newark","ALAND":35951702.0,"PLACENS":"02411238","FUNCSTAT":"A","MTFCC":"G4110","CLASSFP":"C1","PCICBSA":"N","LSAD":25,"AWATER":60530.0,"INTPTLAT":37.5041326,"PLCIDFP":"0650916","STATEFP":"06","INTPTLON":-122.032347,"CPI":"N","PLACEFP":"50916","PCINECTA":"N","id":"a6khrldtmugb","NAMELSAD":"Newark city"},"type":"Feature","geometry":{"type":"Point","coordinates":[-122.031179690566,37.5203958773705]}},{"properties":{"NAME":"Oakland","ALAND":144666164.0,"PLACENS":"02411292","FUNCSTAT":"A","MTFCC":"G4110","CLASSFP":"C1","PCICBSA":"Y","LSAD":25,"AWATER":57167503.0,"INTPTLAT":37.7698572,"PLCIDFP":"0653000","STATEFP":"06","INTPTLON":-122.22564,"CPI":"Y","PLACEFP":"53000","PCINECTA":"N","id":"a6khrljlses6","NAMELSAD":"Oakland city"},"type":"Feature","geometry":{"type":"Point","coordinates":[-122.224889068776,37.7700948195238]}},{"properties":{"NAME":"Piedmont","ALAND":4349753.0,"PLACENS":"02411418","FUNCSTAT":"A","MTFCC":"G4110","CLASSFP":"C1","PCICBSA":"N","LSAD":25,"AWATER":0.0,"INTPTLAT":37.822565,"PLCIDFP":"0656938","STATEFP":"06","INTPTLON":-122.2301094,"CPI":"N","PLACEFP":"56938","PCINECTA":"N","id":"a6khrle9scd0","NAMELSAD":"Piedmont city"},"type":"Feature","geometry":{"type":"Point","coordinates":[-122.230109912564,37.8225649787529]}},{"properties":{"NAME":"Pleasanton","ALAND":62479895.0,"PLACENS":"02411441","FUNCSTAT":"A","MTFCC":"G4110","CLASSFP":"C1","PCICBSA":"Y","LSAD":25,"AWATER":386763.0,"INTPTLAT":37.6661505,"PLCIDFP":"0657792","STATEFP":"06","INTPTLON":-121.8782802,"CPI":"Y","PLACEFP":"57792","PCINECTA":"N","id":"a6khrlc5rfk6","NAMELSAD":"Pleasanton city"},"type":"Feature","geometry":{"type":"Point","coordinates":[-121.880814768754,37.6656260958592]}},{"properties":{"NAME":"San Leandro","ALAND":34307074.0,"PLACENS":"02411794","FUNCSTAT":"A","MTFCC":"G4110","CLASSFP":"C1","PCICBSA":"Y","LSAD":25,"AWATER":6243736.0,"INTPTLAT":37.702767,"PLCIDFP":"0668084","STATEFP":"06","INTPTLON":-122.1637197,"CPI":"Y","PLACEFP":"68084","PCINECTA":"N","id":"a6khrlm7w15v","NAMELSAD":"San Leandro city"},"type":"Feature","geometry":{"type":"Point","coordinates":[-122.16353431836,37.7043511450134]}},{"properties":{"NAME":"Union City","ALAND":50476898.0,"PLACENS":"02412130","FUNCSTAT":"A","MTFCC":"G4110","CLASSFP":"C1","PCICBSA":"N","LSAD":25,"AWATER":0.0,"INTPTLAT":37.6028426,"PLCIDFP":"0681204","STATEFP":"06","INTPTLON":-122.0189436,"CPI":"Y","PLACEFP":"81204","PCINECTA":"N","id":"a6khrlh2p0bo","NAMELSAD":"Union City city"},"type":"Feature","geometry":{"type":"Point","coordinates":[-122.018931603405,37.6028382642308]}},{"properties":{"NAME":"Susanville","ALAND":20552954.0,"PLACENS":"02412017","FUNCSTAT":"A","MTFCC":"G4110","CLASSFP":"C1","PCICBSA":"Y","LSAD":25,"AWATER":217358.0,"INTPTLAT":40.4309655,"PLCIDFP":"0677364","STATEFP":"06","INTPTLON":-120.630333,"CPI":"Y","PLACEFP":"77364","PCINECTA":"N","id":"a6khrlhw7gi9","NAMELSAD":"Susanville city"},"type":"Feature","geometry":{"type":"Point","coordinates":[-120.612499762282,40.4204858054469]}},{"properties":{"NAME":"Orland","ALAND":7687256.0,"PLACENS":"02411335","FUNCSTAT":"A","MTFCC":"G4110","CLASSFP":"C1","PCICBSA":"N","LSAD":25,"AWATER":0.0,"INTPTLAT":39.7462905,"PLCIDFP":"0654274","STATEFP":"06","INTPTLON":-122.1853617,"CPI":"Y","PLACEFP":"54274","PCINECTA":"N","id":"a6khrlgjqf3v","NAMELSAD":"Orland city"},"type":"Feature","geometry":{"type":"Point","coordinates":[-122.185362640837,39.7462903218665]}},{"properties":{"NAME":"Willows","ALAND":7368337.0,"PLACENS":"02412272","FUNCSTAT":"A","MTFCC":"G4110","CLASSFP":"C1","PCICBSA":"N","LSAD":25,"AWATER":68359.0,"INTPTLAT":39.5147524,"PLCIDFP":"0685684","STATEFP":"06","INTPTLON":-122.1991777,"CPI":"Y","PLACEFP":"85684","PCINECTA":"N","id":"a6khrlgfji22","NAMELSAD":"Willows city"},"type":"Feature","geometry":{"type":"Point","coordinates":[-122.199148899933,39.514715079154]}},{"properties":{"NAME":"Adelanto","ALAND":145067083.0,"PLACENS":"02409663","FUNCSTAT":"A","MTFCC":"G4110","CLASSFP":"C1","PCICBSA":"N","LSAD":25,"AWATER":45844.0,"INTPTLAT":34.5859751,"PLCIDFP":"0600296","STATEFP":"06","INTPTLON":-117.4428633,"CPI":"Y","PLACEFP":"00296","PCINECTA":"N","id":"a6khrlkccl8h","NAMELSAD":"Adelanto city"},"type":"Feature","geometry":{"type":"Point","coordinates":[-117.441071762588,34.586817536757]}},{"properties":{"NAME":"Apple Valley","ALAND":189570251.0,"PLACENS":"02412372","FUNCSTAT":"A","MTFCC":"G4110","CLASSFP":"C1","PCICBSA":"N","LSAD":43,"AWATER":855893.0,"INTPTLAT":34.5333761,"PLCIDFP":"0602364","STATEFP":"06","INTPTLON":-117.2103584,"CPI":"Y","PLACEFP":"02364","PCINECTA":"N","id":"a6khrlbgf2hw","NAMELSAD":"Apple Valley town"},"type":"Feature","geometry":{"type":"Point","coordinates":[-117.211012671674,34.5315985024708]}},{"properties":{"NAME":"Barstow","ALAND":107190550.0,"PLACENS":"02409790","FUNCSTAT":"A","MTFCC":"G4110","CLASSFP":"C1","PCICBSA":"N","LSAD":25,"AWATER":23114.0,"INTPTLAT":34.8667882,"PLCIDFP":"0604030","STATEFP":"06","INTPTLON":-117.0430057,"CPI":"Y","PLACEFP":"04030","PCINECTA":"N","id":"a6khrl9jjxmm","NAMELSAD":"Barstow city"},"type":"Feature","geometry":{"type":"Point","coordinates":[-117.046389412802,34.8655116009258]}},{"properties":{"NAME":"Big Bear Lake","ALAND":16452007.0,"PLACENS":"02409843","FUNCSTAT":"A","MTFCC":"G4110","CLASSFP":"C1","PCICBSA":"N","LSAD":25,"AWATER":487678.0,"INTPTLAT":34.2429021,"PLCIDFP":"0606434","STATEFP":"06","INTPTLON":-116.8942886,"CPI":"Y","PLACEFP":"06434","PCINECTA":"N","id":"a6khrlitunsm","NAMELSAD":"Big Bear Lake city"},"type":"Feature","geometry":{"type":"Point","coordinates":[-116.895809687015,34.2429189658494]}},{"properties":{"NAME":"Chino","ALAND":76776926.0,"PLACENS":"02409453","FUNCSTAT":"A","MTFCC":"G4110","CLASSFP":"C1","PCICBSA":"Y","LSAD":25,"AWATER":33348.0,"INTPTLAT":33.9774321,"PLCIDFP":"0613210","STATEFP":"06","INTPTLON":-117.6574647,"CPI":"Y","PLACEFP":"13210","PCINECTA":"N","id":"a6khrldkz842","NAMELSAD":"Chino city"},"type":"Feature","geometry":{"type":"Point","coordinates":[-117.665310463587,33.9835924583678]}},{"properties":{"NAME":"Chino Hills","ALAND":115943171.0,"PLACENS":"02409454","FUNCSTAT":"A","MTFCC":"G4110","CLASSFP":"C1","PCICBSA":"N","LSAD":25,"AWATER":175460.0,"INTPTLAT":33.9428948,"PLCIDFP":"0613214","STATEFP":"06","INTPTLON":-117.7256441,"CPI":"Y","PLACEFP":"13214","PCINECTA":"N","id":"a6khrljnrmt7","NAMELSAD":"Chino Hills city"},"type":"Feature","geometry":{"type":"Point","coordinates":[-117.725437956612,33.9508521313315]}},{"properties":{"NAME":"Colton","ALAND":39486981.0,"PLACENS":"02410200","FUNCSTAT":"A","MTFCC":"G4110","CLASSFP":"C1","PCICBSA":"Y","LSAD":25,"AWATER":1681399.0,"INTPTLAT":34.0545525,"PLCIDFP":"0614890","STATEFP":"06","INTPTLON":-117.3250312,"CPI":"N","PLACEFP":"14890","PCINECTA":"N","id":"a6khrlj4polr","NAMELSAD":"Colton city"},"type":"Feature","geometry":{"type":"Point","coordinates":[-117.32532678031,34.0540058325691]}},{"properties":{"NAME":"Fontana","ALAND":109966491.0,"PLACENS":"02410517","FUNCSTAT":"A","MTFCC":"G4110","CLASSFP":"C1","PCICBSA":"N","LSAD":25,"AWATER":0.0,"INTPTLAT":34.108793,"PLCIDFP":"0624680","STATEFP":"06","INTPTLON":-117.4626845,"CPI":"Y","PLACEFP":"24680","PCINECTA":"N","id":"a6khrlc832tk","NAMELSAD":"Fontana city"},"type":"Feature","geometry":{"type":"Point","coordinates":[-117.459267428072,34.0974272511971]}},{"properties":{"NAME":"Grand Terrace","ALAND":9036749.0,"PLACENS":"02410634","FUNCSTAT":"A","MTFCC":"G4110","CLASSFP":"C1","PCICBSA":"N","LSAD":25,"AWATER":0.0,"INTPTLAT":34.031091,"PLCIDFP":"0630658","STATEFP":"06","INTPTLON":-117.3133871,"CPI":"N","PLACEFP":"30658","PCINECTA":"N","id":"a6khrlha1b1m","NAMELSAD":"Grand Terrace city"},"type":"Feature","geometry":{"type":"Point","coordinates":[-117.313386993556,34.0310911020105]}},{"properties":{"NAME":"Hesperia","ALAND":189312194.0,"PLACENS":"02410751","FUNCSTAT":"A","MTFCC":"G4110","CLASSFP":"C1","PCICBSA":"N","LSAD":25,"AWATER":293823.0,"INTPTLAT":34.3970383,"PLCIDFP":"0633434","STATEFP":"06","INTPTLON":-117.3151975,"CPI":"Y","PLACEFP":"33434","PCINECTA":"N","id":"a6khrlj2n5tl","NAMELSAD":"Hesperia city"},"type":"Feature","geometry":{"type":"Point","coordinates":[-117.314390207637,34.3973477101749]}},{"properties":{"NAME":"Highland","ALAND":48600854.0,"PLACENS":"02410759","FUNCSTAT":"A","MTFCC":"G4110","CLASSFP":"C1","PCICBSA":"N","LSAD":25,"AWATER":348918.0,"INTPTLAT":34.1112424,"PLCIDFP":"0633588","STATEFP":"06","INTPTLON":-117.1647459,"CPI":"N","PLACEFP":"33588","PCINECTA":"N","id":"a6khrlbdosin","NAMELSAD":"Highland city"},"type":"Feature","geometry":{"type":"Point","coordinates":[-117.165295579822,34.1113063278015]}},{"properties":{"NAME":"Loma Linda","ALAND":19423556.0,"PLACENS":"02410857","FUNCSTAT":"A","MTFCC":"G4110","CLASSFP":"C1","PCICBSA":"N","LSAD":25,"AWATER":2372.0,"INTPTLAT":34.0439367,"PLCIDFP":"0642370","STATEFP":"06","INTPTLON":-117.2495415,"CPI":"N","PLACEFP":"42370","PCINECTA":"N","id":"a6khrl9v5gn1","NAMELSAD":"Loma Linda city"},"type":"Feature","geometry":{"type":"Point","coordinates":[-117.250324606888,34.0448192149748]}},{"properties":{"NAME":"Montclair","ALAND":14289402.0,"PLACENS":"02411141","FUNCSTAT":"A","MTFCC":"G4110","CLASSFP":"C1","PCICBSA":"N","LSAD":25,"AWATER":0.0,"INTPTLAT":34.0714521,"PLCIDFP":"0648788","STATEFP":"06","INTPTLON":-117.698054,"CPI":"N","PLACEFP":"48788","PCINECTA":"N","id":"a6khrl6tq1xq","NAMELSAD":"Montclair city"},"type":"Feature","geometry":{"type":"Point","coordinates":[-117.698053165582,34.0714536089976]}},{"properties":{"NAME":"Needles","ALAND":79789298.0,"PLACENS":"02411220","FUNCSTAT":"A","MTFCC":"G4110","CLASSFP":"C1","PCICBSA":"N","LSAD":25,"AWATER":1209347.0,"INTPTLAT":34.8165218,"PLCIDFP":"0650734","STATEFP":"06","INTPTLON":-114.6147406,"CPI":"Y","PLACEFP":"50734","PCINECTA":"N","id":"a6khrlbm481g","NAMELSAD":"Needles city"},"type":"Feature","geometry":{"type":"Point","coordinates":[-114.619183651493,34.8159955682667]}},{"properties":{"NAME":"Ontario","ALAND":129352123.0,"PLACENS":"02411323","FUNCSTAT":"A","MTFCC":"G4110","CLASSFP":"C1","PCICBSA":"Y","LSAD":25,"AWATER":169607.0,"INTPTLAT":34.0395243,"PLCIDFP":"0653896","STATEFP":"06","INTPTLON":-117.6087688,"CPI":"Y","PLACEFP":"53896","PCINECTA":"N","id":"a6khrl6wegwl","NAMELSAD":"Ontario city"},"type":"Feature","geometry":{"type":"Point","coordinates":[-117.606431927465,34.0392644773617]}},{"properties":{"NAME":"Rancho Cucamonga","ALAND":103183687.0,"PLACENS":"02411514","FUNCSTAT":"A","MTFCC":"G4110","CLASSFP":"C1","PCICBSA":"N","LSAD":25,"AWATER":50997.0,"INTPTLAT":34.1233151,"PLCIDFP":"0659451","STATEFP":"06","INTPTLON":-117.5642069,"CPI":"Y","PLACEFP":"59451","PCINECTA":"N","id":"a6khrlggh3m4","NAMELSAD":"Rancho Cucamonga city"},"type":"Feature","geometry":{"type":"Point","coordinates":[-117.566160541708,34.1245891169096]}},{"properties":{"NAME":"Redlands","ALAND":93517850.0,"PLACENS":"02411532","FUNCSTAT":"A","MTFCC":"G4110","CLASSFP":"C1","PCICBSA":"Y","LSAD":25,"AWATER":779123.0,"INTPTLAT":34.0516421,"PLCIDFP":"0659962","STATEFP":"06","INTPTLON":-117.170862,"CPI":"Y","PLACEFP":"59962","PCINECTA":"N","id":"a6khrlg5zl99","NAMELSAD":"Redlands city"},"type":"Feature","geometry":{"type":"Point","coordinates":[-117.170907717043,34.0511466296985]}},{"properties":{"NAME":"Rialto","ALAND":58015981.0,"PLACENS":"02410931","FUNCSTAT":"A","MTFCC":"G4110","CLASSFP":"C1","PCICBSA":"N","LSAD":25,"AWATER":36884.0,"INTPTLAT":34.1117839,"PLCIDFP":"0660466","STATEFP":"06","INTPTLON":-117.3882874,"CPI":"Y","PLACEFP":"60466","PCINECTA":"N","id":"a6khrlmsygyi","NAMELSAD":"Rialto city"},"type":"Feature","geometry":{"type":"Point","coordinates":[-117.388479019577,34.112703921528]}},{"properties":{"NAME":"San Bernardino","ALAND":153299552.0,"PLACENS":"02411777","FUNCSTAT":"A","MTFCC":"G4110","CLASSFP":"C1","PCICBSA":"Y","LSAD":25,"AWATER":1150071.0,"INTPTLAT":34.139261,"PLCIDFP":"0665000","STATEFP":"06","INTPTLON":-117.2953165,"CPI":"Y","PLACEFP":"65000","PCINECTA":"N","id":"a6khrljb4avk","NAMELSAD":"San Bernardino city"},"type":"Feature","geometry":{"type":"Point","coordinates":[-117.295263499275,34.1392272537616]}},{"properties":{"NAME":"Twentynine Palms","ALAND":153179085.0,"PLACENS":"02412119","FUNCSTAT":"A","MTFCC":"G4110","CLASSFP":"C1","PCICBSA":"N","LSAD":25,"AWATER":0.0,"INTPTLAT":34.1483128,"PLCIDFP":"0680994","STATEFP":"06","INTPTLON":-116.0655261,"CPI":"Y","PLACEFP":"80994","PCINECTA":"N","id":"a6khrld72xu8","NAMELSAD":"Twentynine Palms city"},"type":"Feature","geometry":{"type":"Point","coordinates":[-116.065530172344,34.1483150263953]}},{"properties":{"NAME":"Upland","ALAND":40613151.0,"PLACENS":"02412137","FUNCSTAT":"A","MTFCC":"G4110","CLASSFP":"C1","PCICBSA":"N","LSAD":25,"AWATER":106453.0,"INTPTLAT":34.1190748,"PLCIDFP":"0681344","STATEFP":"06","INTPTLON":-117.6580292,"CPI":"Y","PLACEFP":"81344","PCINECTA":"N","id":"a6khrlcf66z3","NAMELSAD":"Upland city"},"type":"Feature","geometry":{"type":"Point","coordinates":[-117.66036392494,34.1179368470638]}},{"properties":{"NAME":"Victorville","ALAND":189528326.0,"PLACENS":"02412156","FUNCSTAT":"A","MTFCC":"G4110","CLASSFP":"C1","PCICBSA":"Y","LSAD":25,"AWATER":1459026.0,"INTPTLAT":34.5277346,"PLCIDFP":"0682590","STATEFP":"06","INTPTLON":-117.3535789,"CPI":"Y","PLACEFP":"82590","PCINECTA":"N","id":"a6khrlaaljhj","NAMELSAD":"Victorville city"},"type":"Feature","geometry":{"type":"Point","coordinates":[-117.353854878696,34.5277693371122]}},{"properties":{"NAME":"Yucaipa","ALAND":72186354.0,"PLACENS":"02412326","FUNCSTAT":"A","MTFCC":"G4110","CLASSFP":"C1","PCICBSA":"N","LSAD":25,"AWATER":13329.0,"INTPTLAT":34.0325122,"PLCIDFP":"0687042","STATEFP":"06","INTPTLON":-117.0449128,"CPI":"N","PLACEFP":"87042","PCINECTA":"N","id":"a6khrlcguxwz","NAMELSAD":"Yucaipa city"},"type":"Feature","geometry":{"type":"Point","coordinates":[-117.043492494553,34.0330608377806]}},{"properties":{"NAME":"Yucca Valley","ALAND":103643478.0,"PLACENS":"02413524","FUNCSTAT":"A","MTFCC":"G4110","CLASSFP":"C1","PCICBSA":"N","LSAD":43,"AWATER":0.0,"INTPTLAT":34.1230893,"PLCIDFP":"0687056","STATEFP":"06","INTPTLON":-116.4214814,"CPI":"Y","PLACEFP":"87056","PCINECTA":"N","id":"a6khrlett6b3","NAMELSAD":"Yucca Valley town"},"type":"Feature","geometry":{"type":"Point","coordinates":[-116.42147850788,34.1230941549155]}},{"properties":{"NAME":"Cloverdale","ALAND":6886926.0,"PLACENS":"02409487","FUNCSTAT":"A","MTFCC":"G4110","CLASSFP":"C1","PCICBSA":"N","LSAD":25,"AWATER":0.0,"INTPTLAT":38.7981771,"PLCIDFP":"0614190","STATEFP":"06","INTPTLON":-123.0176458,"CPI":"Y","PLACEFP":"14190","PCINECTA":"N","id":"a6khrldd1p84","NAMELSAD":"Cloverdale city"},"type":"Feature","geometry":{"type":"Point","coordinates":[-123.017646436887,38.7981786676229]}},{"properties":{"NAME":"Cotati","ALAND":4952938.0,"PLACENS":"02410240","FUNCSTAT":"A","MTFCC":"G4110","CLASSFP":"C1","PCICBSA":"N","LSAD":25,"AWATER":29020.0,"INTPTLAT":38.3284919,"PLCIDFP":"0616560","STATEFP":"06","INTPTLON":-122.710049,"CPI":"N","PLACEFP":"16560","PCINECTA":"N","id":"a6khrlkf6z3o","NAMELSAD":"Cotati city"},"type":"Feature","geometry":{"type":"Point","coordinates":[-122.709131947953,38.3277350297496]}},{"properties":{"NAME":"Healdsburg","ALAND":10222437.0,"PLACENS":"02410726","FUNCSTAT":"A","MTFCC":"G4110","CLASSFP":"C1","PCICBSA":"N","LSAD":25,"AWATER":25487.0,"INTPTLAT":38.6199802,"PLCIDFP":"0633056","STATEFP":"06","INTPTLON":-122.8658762,"CPI":"N","PLACEFP":"33056","PCINECTA":"N","id":"a6khrler5ulp","NAMELSAD":"Healdsburg city"},"type":"Feature","geometry":{"type":"Point","coordinates":[-122.865045215338,38.6199088855487]}},{"properties":{"NAME":"Petaluma","ALAND":37971961.0,"PLACENS":"02411407","FUNCSTAT":"A","MTFCC":"G4110","CLASSFP":"C1","PCICBSA":"Y","LSAD":25,"AWATER":290883.0,"INTPTLAT":38.2426177,"PLCIDFP":"0656784","STATEFP":"06","INTPTLON":-122.6284341,"CPI":"Y","PLACEFP":"56784","PCINECTA":"N","id":"a6khrl7p8xgd","NAMELSAD":"Petaluma city"},"type":"Feature","geometry":{"type":"Point","coordinates":[-122.626417987492,38.2419188036061]}},{"properties":{"NAME":"Rohnert Park","ALAND":18343014.0,"PLACENS":"02410985","FUNCSTAT":"A","MTFCC":"G4110","CLASSFP":"C1","PCICBSA":"N","LSAD":25,"AWATER":0.0,"INTPTLAT":38.3480285,"PLCIDFP":"0662546","STATEFP":"06","INTPTLON":-122.6961487,"CPI":"N","PLACEFP":"62546","PCINECTA":"N","id":"a6khrlkyhlk5","NAMELSAD":"Rohnert Park city"},"type":"Feature","geometry":{"type":"Point","coordinates":[-122.6961500476,38.3480301974554]}},{"properties":{"NAME":"Santa Rosa","ALAND":106739607.0,"PLACENS":"02411827","FUNCSTAT":"A","MTFCC":"G4110","CLASSFP":"C1","PCICBSA":"Y","LSAD":25,"AWATER":565480.0,"INTPTLAT":38.4468158,"PLCIDFP":"0670098","STATEFP":"06","INTPTLON":-122.7061361,"CPI":"Y","PLACEFP":"70098","PCINECTA":"N","id":"a6khrlgibcwp","NAMELSAD":"Santa Rosa city"},"type":"Feature","geometry":{"type":"Point","coordinates":[-122.706233741085,38.4465656119639]}},{"properties":{"NAME":"Sebastopol","ALAND":4853855.0,"PLACENS":"02411857","FUNCSTAT":"A","MTFCC":"G4110","CLASSFP":"C1","PCICBSA":"N","LSAD":25,"AWATER":0.0,"INTPTLAT":38.3997815,"PLCIDFP":"0670770","STATEFP":"06","INTPTLON":-122.8279823,"CPI":"N","PLACEFP":"70770","PCINECTA":"N","id":"a6khrlek1vj1","NAMELSAD":"Sebastopol city"},"type":"Feature","geometry":{"type":"Point","coordinates":[-122.827982734631,38.3997816696538]}},{"properties":{"NAME":"Sonoma","ALAND":7189836.0,"PLACENS":"02411929","FUNCSTAT":"A","MTFCC":"G4110","CLASSFP":"C1","PCICBSA":"N","LSAD":25,"AWATER":0.0,"INTPTLAT":38.2903202,"PLCIDFP":"0672646","STATEFP":"06","INTPTLON":-122.4596695,"CPI":"Y","PLACEFP":"72646","PCINECTA":"N","id":"a6khrl90fwy3","NAMELSAD":"Sonoma city"},"type":"Feature","geometry":{"type":"Point","coordinates":[-122.459669845138,38.2903205847113]}},{"properties":{"NAME":"Windsor","ALAND":19047636.0,"PLACENS":"02413495","FUNCSTAT":"A","MTFCC":"G4110","CLASSFP":"C1","PCICBSA":"N","LSAD":43,"AWATER":58254.0,"INTPTLAT":38.5420992,"PLCIDFP":"0685922","STATEFP":"06","INTPTLON":-122.8086132,"CPI":"N","PLACEFP":"85922","PCINECTA":"N","id":"a6khrlbnd53v","NAMELSAD":"Windsor town"},"type":"Feature","geometry":{"type":"Point","coordinates":[-122.808541848114,38.5416392434015]}},{"properties":{"NAME":"Mammoth Lakes","ALAND":64371457.0,"PLACENS":"02412936","FUNCSTAT":"A","MTFCC":"G4110","CLASSFP":"C1","PCICBSA":"N","LSAD":43,"AWATER":1139030.0,"INTPTLAT":37.6088009,"PLCIDFP":"0645358","STATEFP":"06","INTPTLON":-118.9711142,"CPI":"Y","PLACEFP":"45358","PCINECTA":"N","id":"a6khrlg73x7v","NAMELSAD":"Mammoth Lakes town"},"type":"Feature","geometry":{"type":"Point","coordinates":[-118.989950805891,37.627247543331]}},{"properties":{"NAME":"Mission Viejo","ALAND":45955836.0,"PLACENS":"02411123","FUNCSTAT":"A","MTFCC":"G4110","CLASSFP":"C1","PCICBSA":"N","LSAD":25,"AWATER":994766.0,"INTPTLAT":33.6093352,"PLCIDFP":"0648256","STATEFP":"06","INTPTLON":-117.656471,"CPI":"Y","PLACEFP":"48256","PCINECTA":"N","id":"a6khrllzkkkz","NAMELSAD":"Mission Viejo city"},"type":"Feature","geometry":{"type":"Point","coordinates":[-117.655034038576,33.6095852257159]}},{"properties":{"NAME":"Newport Beach","ALAND":61652619.0,"PLACENS":"02411250","FUNCSTAT":"A","MTFCC":"G4110","CLASSFP":"C1","PCICBSA":"Y","LSAD":25,"AWATER":75558599.0,"INTPTLAT":33.5966086,"PLCIDFP":"0651182","STATEFP":"06","INTPTLON":-117.887793,"CPI":"Y","PLACEFP":"51182","PCINECTA":"N","id":"a6khrli22omm","NAMELSAD":"Newport Beach city"},"type":"Feature","geometry":{"type":"Point","coordinates":[-117.89332770638,33.5966817617487]}},{"properties":{"NAME":"Orange","ALAND":64321310.0,"PLACENS":"02411325","FUNCSTAT":"A","MTFCC":"G4110","CLASSFP":"C1","PCICBSA":"Y","LSAD":25,"AWATER":963761.0,"INTPTLAT":33.8048433,"PLCIDFP":"0653980","STATEFP":"06","INTPTLON":-117.8248761,"CPI":"Y","PLACEFP":"53980","PCINECTA":"N","id":"a6khrlmqf9rw","NAMELSAD":"Orange city"},"type":"Feature","geometry":{"type":"Point","coordinates":[-117.822897997789,33.8046658575953]}},{"properties":{"NAME":"Placentia","ALAND":16998879.0,"PLACENS":"02411432","FUNCSTAT":"A","MTFCC":"G4110","CLASSFP":"C1","PCICBSA":"N","LSAD":25,"AWATER":37381.0,"INTPTLAT":33.881158,"PLCIDFP":"0657526","STATEFP":"06","INTPTLON":-117.8547826,"CPI":"N","PLACEFP":"57526","PCINECTA":"N","id":"a6khrlapj7ut","NAMELSAD":"Placentia city"},"type":"Feature","geometry":{"type":"Point","coordinates":[-117.855441789309,33.8806553264758]}},{"properties":{"NAME":"Rancho Santa Margarita","ALAND":33564700.0,"PLACENS":"02411517","FUNCSTAT":"A","MTFCC":"G4110","CLASSFP":"C1","PCICBSA":"N","LSAD":25,"AWATER":91275.0,"INTPTLAT":33.6325472,"PLCIDFP":"0659587","STATEFP":"06","INTPTLON":-117.5987368,"CPI":"N","PLACEFP":"59587","PCINECTA":"N","id":"a6khrl7j4zjp","NAMELSAD":"Rancho Santa Margarita city"},"type":"Feature","geometry":{"type":"Point","coordinates":[-117.598758723235,33.6318519819599]}},{"properties":{"NAME":"San Clemente","ALAND":47394550.0,"PLACENS":"02411781","FUNCSTAT":"A","MTFCC":"G4110","CLASSFP":"C1","PCICBSA":"N","LSAD":25,"AWATER":1961156.0,"INTPTLAT":33.4491444,"PLCIDFP":"0665084","STATEFP":"06","INTPTLON":-117.6131193,"CPI":"N","PLACEFP":"65084","PCINECTA":"N","id":"a6khrl75et9e","NAMELSAD":"San Clemente city"},"type":"Feature","geometry":{"type":"Point","coordinates":[-117.611063041143,33.4479949401785]}},{"properties":{"NAME":"San Juan Capistrano","ALAND":36731261.0,"PLACENS":"02411793","FUNCSTAT":"A","MTFCC":"G4110","CLASSFP":"C1","PCICBSA":"N","LSAD":25,"AWATER":465765.0,"INTPTLAT":33.50154,"PLCIDFP":"0668028","STATEFP":"06","INTPTLON":-117.65419,"CPI":"N","PLACEFP":"68028","PCINECTA":"N","id":"a6khrlgnj9gg","NAMELSAD":"San Juan Capistrano city"},"type":"Feature","geometry":{"type":"Point","coordinates":[-117.654526870105,33.5014444718974]}},{"properties":{"NAME":"Santa Ana","ALAND":70594048.0,"PLACENS":"02411814","FUNCSTAT":"A","MTFCC":"G4110","CLASSFP":"C1","PCICBSA":"Y","LSAD":25,"AWATER":643480.0,"INTPTLAT":33.736478,"PLCIDFP":"0669000","STATEFP":"06","INTPTLON":-117.8825931,"CPI":"Y","PLACEFP":"69000","PCINECTA":"N","id":"a6khrlb0zr0u","NAMELSAD":"Santa Ana city"},"type":"Feature","geometry":{"type":"Point","coordinates":[-117.881908186514,33.7366891357383]}},{"properties":{"NAME":"Seal Beach","ALAND":29283042.0,"PLACENS":"02411851","FUNCSTAT":"A","MTFCC":"G4110","CLASSFP":"C1","PCICBSA":"N","LSAD":25,"AWATER":4653506.0,"INTPTLAT":33.7519182,"PLCIDFP":"0670686","STATEFP":"06","INTPTLON":-118.0732506,"CPI":"N","PLACEFP":"70686","PCINECTA":"N","id":"a6khrlfs5lv1","NAMELSAD":"Seal Beach city"},"type":"Feature","geometry":{"type":"Point","coordinates":[-118.074421772209,33.7519827661564]}},{"properties":{"NAME":"Stanton","ALAND":8162181.0,"PLACENS":"02411969","FUNCSTAT":"A","MTFCC":"G4110","CLASSFP":"C1","PCICBSA":"N","LSAD":25,"AWATER":0.0,"INTPTLAT":33.8001714,"PLCIDFP":"0673962","STATEFP":"06","INTPTLON":-117.9934036,"CPI":"N","PLACEFP":"73962","PCINECTA":"N","id":"a6khrlczouhk","NAMELSAD":"Stanton city"},"type":"Feature","geometry":{"type":"Point","coordinates":[-117.993403441323,33.8001725540323]}},{"properties":{"NAME":"Tustin","ALAND":28678134.0,"PLACENS":"02412117","FUNCSTAT":"A","MTFCC":"G4110","CLASSFP":"C1","PCICBSA":"Y","LSAD":25,"AWATER":0.0,"INTPTLAT":33.7309105,"PLCIDFP":"0680854","STATEFP":"06","INTPTLON":-117.8107554,"CPI":"Y","PLACEFP":"80854","PCINECTA":"N","id":"a6khrlll1sum","NAMELSAD":"Tustin city"},"type":"Feature","geometry":{"type":"Point","coordinates":[-117.810751588308,33.7309126796001]}},{"properties":{"NAME":"Villa Park","ALAND":5329886.0,"PLACENS":"02412158","FUNCSTAT":"A","MTFCC":"G4110","CLASSFP":"C1","PCICBSA":"N","LSAD":25,"AWATER":0.0,"INTPTLAT":33.8181194,"PLCIDFP":"0682744","STATEFP":"06","INTPTLON":-117.8102209,"CPI":"N","PLACEFP":"82744","PCINECTA":"N","id":"a6khrljkdq3p","NAMELSAD":"Villa Park city"},"type":"Feature","geometry":{"type":"Point","coordinates":[-117.810220474453,33.8181197558351]}},{"properties":{"NAME":"Westminster","ALAND":26022257.0,"PLACENS":"02412236","FUNCSTAT":"A","MTFCC":"G4110","CLASSFP":"C1","PCICBSA":"N","LSAD":25,"AWATER":0.0,"INTPTLAT":33.7521496,"PLCIDFP":"0684550","STATEFP":"06","INTPTLON":-117.9937542,"CPI":"Y","PLACEFP":"84550","PCINECTA":"N","id":"a6khrlmxrl9y","NAMELSAD":"Westminster city"},"type":"Feature","geometry":{"type":"Point","coordinates":[-117.993759032211,33.7521487958272]}},{"properties":{"NAME":"Yorba Linda","ALAND":50197047.0,"PLACENS":"02412321","FUNCSTAT":"A","MTFCC":"G4110","CLASSFP":"C1","PCICBSA":"N","LSAD":25,"AWATER":1252431.0,"INTPTLAT":33.8900098,"PLCIDFP":"0686832","STATEFP":"06","INTPTLON":-117.770239,"CPI":"Y","PLACEFP":"86832","PCINECTA":"N","id":"a6khrladick1","NAMELSAD":"Yorba Linda city"},"type":"Feature","geometry":{"type":"Point","coordinates":[-117.772053316447,33.8894369633964]}},{"properties":{"NAME":"Davis","ALAND":27219601.0,"PLACENS":"02410296","FUNCSTAT":"A","MTFCC":"G4110","CLASSFP":"C1","PCICBSA":"N","LSAD":25,"AWATER":82067.0,"INTPTLAT":38.5561469,"PLCIDFP":"0618100","STATEFP":"06","INTPTLON":-121.7377925,"CPI":"Y","PLACEFP":"18100","PCINECTA":"N","id":"a6khrlklsb7n","NAMELSAD":"Davis city"},"type":"Feature","geometry":{"type":"Point","coordinates":[-121.735217083332,38.5564383869627]}},{"properties":{"NAME":"West Sacramento","ALAND":55478783.0,"PLACENS":"02412228","FUNCSTAT":"A","MTFCC":"G4110","CLASSFP":"C1","PCICBSA":"N","LSAD":25,"AWATER":3693480.0,"INTPTLAT":38.554507,"PLCIDFP":"0684816","STATEFP":"06","INTPTLON":-121.5488516,"CPI":"N","PLACEFP":"84816","PCINECTA":"N","id":"a6khrlmi5rqc","NAMELSAD":"West Sacramento city"},"type":"Feature","geometry":{"type":"Point","coordinates":[-121.550436853026,38.5555901364922]}},{"properties":{"NAME":"Winters","ALAND":7455377.0,"PLACENS":"02412288","FUNCSTAT":"A","MTFCC":"G4110","CLASSFP":"C1","PCICBSA":"N","LSAD":25,"AWATER":64542.0,"INTPTLAT":38.5278747,"PLCIDFP":"0686034","STATEFP":"06","INTPTLON":-121.9834201,"CPI":"Y","PLACEFP":"86034","PCINECTA":"N","id":"a6khrl9rw6b1","NAMELSAD":"Winters city"},"type":"Feature","geometry":{"type":"Point","coordinates":[-121.978607957228,38.5319389570985]}},{"properties":{"NAME":"Woodland","ALAND":39611386.0,"PLACENS":"02412300","FUNCSTAT":"A","MTFCC":"G4110","CLASSFP":"C1","PCICBSA":"Y","LSAD":25,"AWATER":0.0,"INTPTLAT":38.6711543,"PLCIDFP":"0686328","STATEFP":"06","INTPTLON":-121.7500086,"CPI":"Y","PLACEFP":"86328","PCINECTA":"N","id":"a6khrlmif1ii","NAMELSAD":"Woodland city"},"type":"Feature","geometry":{"type":"Point","coordinates":[-121.750012586461,38.6711527137731]}},{"properties":{"NAME":"Arvin","ALAND":12406064.0,"PLACENS":"02409738","FUNCSTAT":"A","MTFCC":"G4110","CLASSFP":"C1","PCICBSA":"N","LSAD":25,"AWATER":0.0,"INTPTLAT":35.1942309,"PLCIDFP":"0602924","STATEFP":"06","INTPTLON":-118.8305917,"CPI":"Y","PLACEFP":"02924","PCINECTA":"N","id":"a6khrlerfjz7","NAMELSAD":"Arvin city"},"type":"Feature","geometry":{"type":"Point","coordinates":[-118.830591805234,35.1942320418343]}},{"properties":{"NAME":"Bakersfield","ALAND":335216207.0,"PLACENS":"02409774","FUNCSTAT":"A","MTFCC":"G4110","CLASSFP":"C1","PCICBSA":"Y","LSAD":25,"AWATER":3718977.0,"INTPTLAT":35.3212128,"PLCIDFP":"0603526","STATEFP":"06","INTPTLON":-119.0182914,"CPI":"Y","PLACEFP":"03526","PCINECTA":"N","id":"a6khrlleyn4f","NAMELSAD":"Bakersfield city"},"type":"Feature","geometry":{"type":"Point","coordinates":[-119.023861969493,35.3503358184065]}},{"properties":{"NAME":"California City","ALAND":527121603.0,"PLACENS":"02409960","FUNCSTAT":"A","MTFCC":"G4110","CLASSFP":"C1","PCICBSA":"N","LSAD":25,"AWATER":279277.0,"INTPTLAT":35.1545736,"PLCIDFP":"0609780","STATEFP":"06","INTPTLON":-117.8588538,"CPI":"Y","PLACEFP":"09780","PCINECTA":"N","id":"a6khrlb2co9o","NAMELSAD":"California City city"},"type":"Feature","geometry":{"type":"Point","coordinates":[-117.871993523834,35.1577813392825]}},{"properties":{"NAME":"Delano","ALAND":37044417.0,"PLACENS":"02410317","FUNCSTAT":"A","MTFCC":"G4110","CLASSFP":"C1","PCICBSA":"N","LSAD":25,"AWATER":135325.0,"INTPTLAT":35.7631832,"PLCIDFP":"0618394","STATEFP":"06","INTPTLON":-119.2635597,"CPI":"Y","PLACEFP":"18394","PCINECTA":"N","id":"a6khrlgh9f5q","NAMELSAD":"Delano city"},"type":"Feature","geometry":{"type":"Point","coordinates":[-119.263709046542,35.7670454460746]}},{"properties":{"NAME":"McFarland","ALAND":6910216.0,"PLACENS":"02411062","FUNCSTAT":"A","MTFCC":"G4110","CLASSFP":"C1","PCICBSA":"N","LSAD":25,"AWATER":0.0,"INTPTLAT":35.6705642,"PLCIDFP":"0644826","STATEFP":"06","INTPTLON":-119.2327287,"CPI":"Y","PLACEFP":"44826","PCINECTA":"N","id":"a6khrl6wolc5","NAMELSAD":"McFarland city"},"type":"Feature","geometry":{"type":"Point","coordinates":[-119.241467666251,35.678140791971]}},{"properties":{"NAME":"Maricopa","ALAND":3889611.0,"PLACENS":"02411033","FUNCSTAT":"A","MTFCC":"G4110","CLASSFP":"C1","PCICBSA":"N","LSAD":25,"AWATER":0.0,"INTPTLAT":35.0581842,"PLCIDFP":"0645736","STATEFP":"06","INTPTLON":-119.3994952,"CPI":"N","PLACEFP":"45736","PCINECTA":"N","id":"a6khrlexgvow","NAMELSAD":"Maricopa city"},"type":"Feature","geometry":{"type":"Point","coordinates":[-119.405290052627,35.0516899946898]}},{"properties":{"NAME":"Ridgecrest","ALAND":53739086.0,"PLACENS":"02410944","FUNCSTAT":"A","MTFCC":"G4110","CLASSFP":"C1","PCICBSA":"N","LSAD":25,"AWATER":1685211.0,"INTPTLAT":35.6285421,"PLCIDFP":"0660704","STATEFP":"06","INTPTLON":-117.6639922,"CPI":"Y","PLACEFP":"60704","PCINECTA":"N","id":"a6khrld2cg34","NAMELSAD":"Ridgecrest city"},"type":"Feature","geometry":{"type":"Point","coordinates":[-117.661949204126,35.6309051315538]}},{"properties":{"NAME":"Shafter","ALAND":72376100.0,"PLACENS":"02411873","FUNCSTAT":"A","MTFCC":"G4110","CLASSFP":"C1","PCICBSA":"N","LSAD":25,"AWATER":0.0,"INTPTLAT":35.4780002,"PLCIDFP":"0671106","STATEFP":"06","INTPTLON":-119.1991905,"CPI":"Y","PLACEFP":"71106","PCINECTA":"N","id":"a6khrlhs0p0t","NAMELSAD":"Shafter city"},"type":"Feature","geometry":{"type":"Point","coordinates":[-119.19920577493,35.4779949042572]}},{"properties":{"NAME":"Taft","ALAND":39142662.0,"PLACENS":"02412026","FUNCSTAT":"A","MTFCC":"G4110","CLASSFP":"C1","PCICBSA":"N","LSAD":25,"AWATER":0.0,"INTPTLAT":35.1265039,"PLCIDFP":"0677574","STATEFP":"06","INTPTLON":-119.4238582,"CPI":"Y","PLACEFP":"77574","PCINECTA":"N","id":"a6khrljfwm21","NAMELSAD":"Taft city"},"type":"Feature","geometry":{"type":"Point","coordinates":[-119.423865719031,35.1265030271693]}},{"properties":{"NAME":"Tehachapi","ALAND":25406527.0,"PLACENS":"02412041","FUNCSTAT":"A","MTFCC":"G4110","CLASSFP":"C1","PCICBSA":"N","LSAD":25,"AWATER":249943.0,"INTPTLAT":35.1429585,"PLCIDFP":"0678092","STATEFP":"06","INTPTLON":-118.4460355,"CPI":"Y","PLACEFP":"78092","PCINECTA":"N","id":"a6khrledvxg3","NAMELSAD":"Tehachapi city"},"type":"Feature","geometry":{"type":"Point","coordinates":[-118.475278629884,35.1271094371331]}},{"properties":{"NAME":"Wasco","ALAND":24412779.0,"PLACENS":"02412185","FUNCSTAT":"A","MTFCC":"G4110","CLASSFP":"C1","PCICBSA":"N","LSAD":25,"AWATER":0.0,"INTPTLAT":35.5937751,"PLCIDFP":"0683542","STATEFP":"06","INTPTLON":-119.3673065,"CPI":"Y","PLACEFP":"83542","PCINECTA":"N","id":"a6khrlbs695t","NAMELSAD":"Wasco city"},"type":"Feature","geometry":{"type":"Point","coordinates":[-119.367307874701,35.5937730562833]}},{"properties":{"NAME":"Aliso Viejo","ALAND":19437096.0,"PLACENS":"02409683","FUNCSTAT":"A","MTFCC":"G4110","CLASSFP":"C1","PCICBSA":"N","LSAD":25,"AWATER":0.0,"INTPTLAT":33.577848,"PLCIDFP":"0600947","STATEFP":"06","INTPTLON":-117.7298939,"CPI":"N","PLACEFP":"00947","PCINECTA":"N","id":"a6khrlijkb7j","NAMELSAD":"Aliso Viejo city"},"type":"Feature","geometry":{"type":"Point","coordinates":[-117.729894200202,33.5778502291107]}},{"properties":{"NAME":"Anaheim","ALAND":129190311.0,"PLACENS":"02409704","FUNCSTAT":"A","MTFCC":"G4110","CLASSFP":"C1","PCICBSA":"Y","LSAD":25,"AWATER":2718129.0,"INTPTLAT":33.8608242,"PLCIDFP":"0602000","STATEFP":"06","INTPTLON":-117.7593476,"CPI":"Y","PLACEFP":"02000","PCINECTA":"N","id":"a6khrlm7plil","NAMELSAD":"Anaheim city"},"type":"Feature","geometry":{"type":"Point","coordinates":[-117.857452851044,33.8389145275199]}},{"properties":{"NAME":"Brea","ALAND":31559897.0,"PLACENS":"02409897","FUNCSTAT":"A","MTFCC":"G4110","CLASSFP":"C1","PCICBSA":"N","LSAD":25,"AWATER":64009.0,"INTPTLAT":33.9245215,"PLCIDFP":"0608100","STATEFP":"06","INTPTLON":-117.865201,"CPI":"N","PLACEFP":"08100","PCINECTA":"N","id":"a6khrlfhsrnr","NAMELSAD":"Brea city"},"type":"Feature","geometry":{"type":"Point","coordinates":[-117.86584615587,33.925341173192]}},{"properties":{"NAME":"Buena Park","ALAND":27365615.0,"PLACENS":"02409932","FUNCSTAT":"A","MTFCC":"G4110","CLASSFP":"C1","PCICBSA":"N","LSAD":25,"AWATER":74817.0,"INTPTLAT":33.8567608,"PLCIDFP":"0608786","STATEFP":"06","INTPTLON":-118.0046223,"CPI":"Y","PLACEFP":"08786","PCINECTA":"N","id":"a6khrl7rn0xr","NAMELSAD":"Buena Park city"},"type":"Feature","geometry":{"type":"Point","coordinates":[-118.004496054973,33.857174855786]}},{"properties":{"NAME":"Costa Mesa","ALAND":40542263.0,"PLACENS":"02410239","FUNCSTAT":"A","MTFCC":"G4110","CLASSFP":"C1","PCICBSA":"Y","LSAD":25,"AWATER":119110.0,"INTPTLAT":33.6659054,"PLCIDFP":"0616532","STATEFP":"06","INTPTLON":-117.9123358,"CPI":"Y","PLACEFP":"16532","PCINECTA":"N","id":"a6khrl7m6dce","NAMELSAD":"Costa Mesa city"},"type":"Feature","geometry":{"type":"Point","coordinates":[-117.9135049167,33.6667649636678]}},{"properties":{"NAME":"Cypress","ALAND":17047248.0,"PLACENS":"02410282","FUNCSTAT":"A","MTFCC":"G4110","CLASSFP":"C1","PCICBSA":"N","LSAD":25,"AWATER":22575.0,"INTPTLAT":33.8184768,"PLCIDFP":"0617750","STATEFP":"06","INTPTLON":-118.0383073,"CPI":"N","PLACEFP":"17750","PCINECTA":"N","id":"a6khrl8xg6m9","NAMELSAD":"Cypress city"},"type":"Feature","geometry":{"type":"Point","coordinates":[-118.038568350228,33.8170778971378]}},{"properties":{"NAME":"Dana Point","ALAND":16861593.0,"PLACENS":"02410293","FUNCSTAT":"A","MTFCC":"G4110","CLASSFP":"C1","PCICBSA":"N","LSAD":25,"AWATER":59536797.0,"INTPTLAT":33.4604621,"PLCIDFP":"0617946","STATEFP":"06","INTPTLON":-117.7135211,"CPI":"N","PLACEFP":"17946","PCINECTA":"N","id":"a6khrlbyup56","NAMELSAD":"Dana Point city"},"type":"Feature","geometry":{"type":"Point","coordinates":[-117.705777839874,33.4448661081183]}},{"properties":{"NAME":"Fountain Valley","ALAND":23354356.0,"PLACENS":"02410537","FUNCSTAT":"A","MTFCC":"G4110","CLASSFP":"C1","PCICBSA":"Y","LSAD":25,"AWATER":33638.0,"INTPTLAT":33.7105823,"PLCIDFP":"0625380","STATEFP":"06","INTPTLON":-117.9511289,"CPI":"Y","PLACEFP":"25380","PCINECTA":"N","id":"a6khrlms1wbq","NAMELSAD":"Fountain Valley city"},"type":"Feature","geometry":{"type":"Point","coordinates":[-117.951407237201,33.7104477934296]}},{"properties":{"NAME":"Fullerton","ALAND":57966830.0,"PLACENS":"02410556","FUNCSTAT":"A","MTFCC":"G4110","CLASSFP":"C1","PCICBSA":"Y","LSAD":25,"AWATER":27324.0,"INTPTLAT":33.8857143,"PLCIDFP":"0628000","STATEFP":"06","INTPTLON":-117.9280246,"CPI":"Y","PLACEFP":"28000","PCINECTA":"N","id":"a6khrlcez81c","NAMELSAD":"Fullerton city"},"type":"Feature","geometry":{"type":"Point","coordinates":[-117.92780373548,33.8839827640258]}},{"properties":{"NAME":"Garden Grove","ALAND":46526692.0,"PLACENS":"02410568","FUNCSTAT":"A","MTFCC":"G4110","CLASSFP":"C1","PCICBSA":"N","LSAD":25,"AWATER":45890.0,"INTPTLAT":33.7787816,"PLCIDFP":"0629000","STATEFP":"06","INTPTLON":-117.9604719,"CPI":"Y","PLACEFP":"29000","PCINECTA":"N","id":"a6khrlkiglgt","NAMELSAD":"Garden Grove city"},"type":"Feature","geometry":{"type":"Point","coordinates":[-117.960076239074,33.7787091542616]}},{"properties":{"NAME":"Huntington Beach","ALAND":69266014.0,"PLACENS":"02410811","FUNCSTAT":"A","MTFCC":"G4110","CLASSFP":"C1","PCICBSA":"N","LSAD":25,"AWATER":13306307.0,"INTPTLAT":33.6905687,"PLCIDFP":"0636000","STATEFP":"06","INTPTLON":-118.0093299,"CPI":"Y","PLACEFP":"36000","PCINECTA":"N","id":"a6khrl96k8nq","NAMELSAD":"Huntington Beach city"},"type":"Feature","geometry":{"type":"Point","coordinates":[-118.007215338991,33.6906127153187]}},{"properties":{"NAME":"Irvine","ALAND":171178324.0,"PLACENS":"02410116","FUNCSTAT":"A","MTFCC":"G4110","CLASSFP":"C1","PCICBSA":"Y","LSAD":25,"AWATER":900818.0,"INTPTLAT":33.6782788,"PLCIDFP":"0636770","STATEFP":"06","INTPTLON":-117.7713228,"CPI":"Y","PLACEFP":"36770","PCINECTA":"N","id":"a6khrld9eee7","NAMELSAD":"Irvine city"},"type":"Feature","geometry":{"type":"Point","coordinates":[-117.773626731009,33.6780342698286]}},{"properties":{"NAME":"Laguna Beach","ALAND":22908440.0,"PLACENS":"02411595","FUNCSTAT":"A","MTFCC":"G4110","CLASSFP":"C1","PCICBSA":"N","LSAD":25,"AWATER":2514640.0,"INTPTLAT":33.5338477,"PLCIDFP":"0639178","STATEFP":"06","INTPTLON":-117.7573117,"CPI":"N","PLACEFP":"39178","PCINECTA":"N","id":"a6khrlemackr","NAMELSAD":"Laguna Beach city"},"type":"Feature","geometry":{"type":"Point","coordinates":[-117.761535194222,33.542084558652]}},{"properties":{"NAME":"Laguna Hills","ALAND":17231169.0,"PLACENS":"02411596","FUNCSTAT":"A","MTFCC":"G4110","CLASSFP":"C1","PCICBSA":"N","LSAD":25,"AWATER":62970.0,"INTPTLAT":33.5915226,"PLCIDFP":"0639220","STATEFP":"06","INTPTLON":-117.6994073,"CPI":"N","PLACEFP":"39220","PCINECTA":"N","id":"a6khrl87y8xy","NAMELSAD":"Laguna Hills city"},"type":"Feature","geometry":{"type":"Point","coordinates":[-117.699164803076,33.591967207188]}},{"properties":{"NAME":"Laguna Niguel","ALAND":38557337.0,"PLACENS":"02411597","FUNCSTAT":"A","MTFCC":"G4110","CLASSFP":"C1","PCICBSA":"N","LSAD":25,"AWATER":133550.0,"INTPTLAT":33.5290467,"PLCIDFP":"0639248","STATEFP":"06","INTPTLON":-117.7011752,"CPI":"Y","PLACEFP":"39248","PCINECTA":"N","id":"a6khrl7d7vif","NAMELSAD":"Laguna Niguel city"},"type":"Feature","geometry":{"type":"Point","coordinates":[-117.705243815348,33.5276163617951]}},{"properties":{"NAME":"Laguna Woods","ALAND":8083653.0,"PLACENS":"02411598","FUNCSTAT":"A","MTFCC":"G4110","CLASSFP":"C1","PCICBSA":"N","LSAD":25,"AWATER":3250.0,"INTPTLAT":33.6080015,"PLCIDFP":"0639259","STATEFP":"06","INTPTLON":-117.7298598,"CPI":"N","PLACEFP":"39259","PCINECTA":"N","id":"a6khrlawu4wa","NAMELSAD":"Laguna Woods city"},"type":"Feature","geometry":{"type":"Point","coordinates":[-117.728151224379,33.609156953178]}},{"properties":{"NAME":"La Habra","ALAND":19019479.0,"PLACENS":"02411571","FUNCSTAT":"A","MTFCC":"G4110","CLASSFP":"C1","PCICBSA":"N","LSAD":25,"AWATER":15869.0,"INTPTLAT":33.9277807,"PLCIDFP":"0639290","STATEFP":"06","INTPTLON":-117.9516571,"CPI":"Y","PLACEFP":"39290","PCINECTA":"N","id":"a6khrlkwfbp9","NAMELSAD":"La Habra city"},"type":"Feature","geometry":{"type":"Point","coordinates":[-117.95122885065,33.9276595729429]}},{"properties":{"NAME":"Lake Forest","ALAND":46140007.0,"PLACENS":"02411602","FUNCSTAT":"A","MTFCC":"G4110","CLASSFP":"C1","PCICBSA":"N","LSAD":25,"AWATER":226234.0,"INTPTLAT":33.6672429,"PLCIDFP":"0639496","STATEFP":"06","INTPTLON":-117.6685744,"CPI":"Y","PLACEFP":"39496","PCINECTA":"N","id":"a6khrlmgqnjr","NAMELSAD":"Lake Forest city"},"type":"Feature","geometry":{"type":"Point","coordinates":[-117.670683421217,33.6634128846547]}},{"properties":{"NAME":"La Palma","ALAND":4694098.0,"PLACENS":"02411578","FUNCSTAT":"A","MTFCC":"G4110","CLASSFP":"C1","PCICBSA":"N","LSAD":25,"AWATER":64298.0,"INTPTLAT":33.8505039,"PLCIDFP":"0640256","STATEFP":"06","INTPTLON":-118.0398923,"CPI":"N","PLACEFP":"40256","PCINECTA":"N","id":"a6khrlj1mvb6","NAMELSAD":"La Palma city"},"type":"Feature","geometry":{"type":"Point","coordinates":[-118.040690522136,33.8503728898658]}},{"properties":{"NAME":"Los Alamitos","ALAND":10489821.0,"PLACENS":"02410875","FUNCSTAT":"A","MTFCC":"G4110","CLASSFP":"C1","PCICBSA":"N","LSAD":25,"AWATER":170080.0,"INTPTLAT":33.79695,"PLCIDFP":"0643224","STATEFP":"06","INTPTLON":-118.0610853,"CPI":"N","PLACEFP":"43224","PCINECTA":"N","id":"a6khrldukr7w","NAMELSAD":"Los Alamitos city"},"type":"Feature","geometry":{"type":"Point","coordinates":[-118.05930509774,33.7971274839906]}},{"properties":{"NAME":"Corning","ALAND":9193424.0,"PLACENS":"02410231","FUNCSTAT":"A","MTFCC":"G4110","CLASSFP":"C1","PCICBSA":"N","LSAD":25,"AWATER":0.0,"INTPTLAT":39.9281987,"PLCIDFP":"0616322","STATEFP":"06","INTPTLON":-122.1819931,"CPI":"Y","PLACEFP":"16322","PCINECTA":"N","id":"a6khrlle9opu","NAMELSAD":"Corning city"},"type":"Feature","geometry":{"type":"Point","coordinates":[-122.181991191533,39.9281999940671]}},{"properties":{"NAME":"Red Bluff","ALAND":19327994.0,"PLACENS":"02411527","FUNCSTAT":"A","MTFCC":"G4110","CLASSFP":"C1","PCICBSA":"Y","LSAD":25,"AWATER":295199.0,"INTPTLAT":40.1737707,"PLCIDFP":"0659892","STATEFP":"06","INTPTLON":-122.2410325,"CPI":"Y","PLACEFP":"59892","PCINECTA":"N","id":"a6khrlkk27ry","NAMELSAD":"Red Bluff city"},"type":"Feature","geometry":{"type":"Point","coordinates":[-122.241120468392,40.1736173915995]}},{"properties":{"NAME":"Tehama","ALAND":2057213.0,"PLACENS":"02412042","FUNCSTAT":"A","MTFCC":"G4110","CLASSFP":"C1","PCICBSA":"N","LSAD":25,"AWATER":0.0,"INTPTLAT":40.021776,"PLCIDFP":"0678106","STATEFP":"06","INTPTLON":-122.1269007,"CPI":"Y","PLACEFP":"78106","PCINECTA":"N","id":"a6khrlmbbs0d","NAMELSAD":"Tehama city"},"type":"Feature","geometry":{"type":"Point","coordinates":[-122.126900837284,40.0217761900121]}},{"properties":{"NAME":"Arcata","ALAND":23524206.0,"PLACENS":"02409723","FUNCSTAT":"A","MTFCC":"G4110","CLASSFP":"C1","PCICBSA":"Y","LSAD":25,"AWATER":4949127.0,"INTPTLAT":40.8622862,"PLCIDFP":"0602476","STATEFP":"06","INTPTLON":-124.0749576,"CPI":"Y","PLACEFP":"02476","PCINECTA":"N","id":"a6khrlape443","NAMELSAD":"Arcata city"},"type":"Feature","geometry":{"type":"Point","coordinates":[-124.075333228296,40.861891720821]}},{"properties":{"NAME":"Blue Lake","ALAND":1526171.0,"PLACENS":"02409868","FUNCSTAT":"A","MTFCC":"G4110","CLASSFP":"C1","PCICBSA":"N","LSAD":25,"AWATER":76842.0,"INTPTLAT":40.8818544,"PLCIDFP":"0607162","STATEFP":"06","INTPTLON":-123.99327,"CPI":"N","PLACEFP":"07162","PCINECTA":"N","id":"a6khrlka09k3","NAMELSAD":"Blue Lake city"},"type":"Feature","geometry":{"type":"Point","coordinates":[-123.992918529395,40.8813579456751]}},{"properties":{"NAME":"Eureka","ALAND":24304334.0,"PLACENS":"02410463","FUNCSTAT":"A","MTFCC":"G4110","CLASSFP":"C1","PCICBSA":"Y","LSAD":25,"AWATER":13129953.0,"INTPTLAT":40.7933039,"PLCIDFP":"0623042","STATEFP":"06","INTPTLON":-124.1553501,"CPI":"Y","PLACEFP":"23042","PCINECTA":"N","id":"a6khrlhhf1ef","NAMELSAD":"Eureka city"},"type":"Feature","geometry":{"type":"Point","coordinates":[-124.156856455146,40.7941278728773]}},{"properties":{"NAME":"Ferndale","ALAND":2658918.0,"PLACENS":"02410497","FUNCSTAT":"A","MTFCC":"G4110","CLASSFP":"C1","PCICBSA":"N","LSAD":25,"AWATER":0.0,"INTPTLAT":40.5798913,"PLCIDFP":"0623910","STATEFP":"06","INTPTLON":-124.2619086,"CPI":"N","PLACEFP":"23910","PCINECTA":"N","id":"a6khrlkj5cca","NAMELSAD":"Ferndale city"},"type":"Feature","geometry":{"type":"Point","coordinates":[-124.261908533811,40.5798918062297]}},{"properties":{"NAME":"Fortuna","ALAND":12549112.0,"PLACENS":"02410532","FUNCSTAT":"A","MTFCC":"G4110","CLASSFP":"C1","PCICBSA":"Y","LSAD":25,"AWATER":123.0,"INTPTLAT":40.5854108,"PLCIDFP":"0625296","STATEFP":"06","INTPTLON":-124.1426078,"CPI":"Y","PLACEFP":"25296","PCINECTA":"N","id":"a6khrl9vdl25","NAMELSAD":"Fortuna city"},"type":"Feature","geometry":{"type":"Point","coordinates":[-124.141677653427,40.585526541188]}},{"properties":{"NAME":"Rio Dell","ALAND":4873438.0,"PLACENS":"02410951","FUNCSTAT":"A","MTFCC":"G4110","CLASSFP":"C1","PCICBSA":"N","LSAD":25,"AWATER":242317.0,"INTPTLAT":40.4955909,"PLCIDFP":"0660900","STATEFP":"06","INTPTLON":-124.1149295,"CPI":"Y","PLACEFP":"60900","PCINECTA":"N","id":"a6khrl8gqw7j","NAMELSAD":"Rio Dell city"},"type":"Feature","geometry":{"type":"Point","coordinates":[-124.108002615965,40.5003123605328]}},{"properties":{"NAME":"Trinidad","ALAND":1255212.0,"PLACENS":"02412093","FUNCSTAT":"A","MTFCC":"G4110","CLASSFP":"C1","PCICBSA":"N","LSAD":25,"AWATER":482188.0,"INTPTLAT":41.0576255,"PLCIDFP":"0680448","STATEFP":"06","INTPTLON":-124.1430506,"CPI":"N","PLACEFP":"80448","PCINECTA":"N","id":"a6khrlir5iz0","NAMELSAD":"Trinidad city"},"type":"Feature","geometry":{"type":"Point","coordinates":[-124.143278436474,41.057562495794]}},{"properties":{"NAME":"Auburn","ALAND":19003055.0,"PLACENS":"02409754","FUNCSTAT":"A","MTFCC":"G4110","CLASSFP":"C1","PCICBSA":"N","LSAD":25,"AWATER":71271.0,"INTPTLAT":38.8950562,"PLCIDFP":"0603204","STATEFP":"06","INTPTLON":-121.0767175,"CPI":"N","PLACEFP":"03204","PCINECTA":"N","id":"a6khrl9lc4yj","NAMELSAD":"Auburn city"},"type":"Feature","geometry":{"type":"Point","coordinates":[-121.077720582857,38.8948986202061]}},{"properties":{"NAME":"Colfax","ALAND":3645267.0,"PLACENS":"02410190","FUNCSTAT":"A","MTFCC":"G4110","CLASSFP":"C1","PCICBSA":"N","LSAD":25,"AWATER":0.0,"INTPTLAT":39.0937813,"PLCIDFP":"0614498","STATEFP":"06","INTPTLON":-120.9532286,"CPI":"N","PLACEFP":"14498","PCINECTA":"N","id":"a6khrlmmkls8","NAMELSAD":"Colfax city"},"type":"Feature","geometry":{"type":"Point","coordinates":[-120.95322872684,39.0937824310245]}},{"properties":{"NAME":"Lincoln","ALAND":50293631.0,"PLACENS":"02410835","FUNCSTAT":"A","MTFCC":"G4110","CLASSFP":"C1","PCICBSA":"N","LSAD":25,"AWATER":69103.0,"INTPTLAT":38.8773337,"PLCIDFP":"0641474","STATEFP":"06","INTPTLON":-121.2769277,"CPI":"Y","PLACEFP":"41474","PCINECTA":"N","id":"a6khrlknfqh8","NAMELSAD":"Lincoln city"},"type":"Feature","geometry":{"type":"Point","coordinates":[-121.294464957343,38.8757219731751]}},{"properties":{"NAME":"Loomis","ALAND":18847649.0,"PLACENS":"02412914","FUNCSTAT":"A","MTFCC":"G4110","CLASSFP":"C1","PCICBSA":"N","LSAD":43,"AWATER":0.0,"INTPTLAT":38.8093659,"PLCIDFP":"0643140","STATEFP":"06","INTPTLON":-121.1954646,"CPI":"N","PLACEFP":"43140","PCINECTA":"N","id":"a6khrlmypuru","NAMELSAD":"Loomis town"},"type":"Feature","geometry":{"type":"Point","coordinates":[-121.195466805145,38.8093691745685]}},{"properties":{"NAME":"Rocklin","ALAND":50736570.0,"PLACENS":"02410980","FUNCSTAT":"A","MTFCC":"G4110","CLASSFP":"C1","PCICBSA":"N","LSAD":25,"AWATER":138526.0,"INTPTLAT":38.8080406,"PLCIDFP":"0662364","STATEFP":"06","INTPTLON":-121.2503647,"CPI":"N","PLACEFP":"62364","PCINECTA":"N","id":"a6khrlj1wnbv","NAMELSAD":"Rocklin city"},"type":"Feature","geometry":{"type":"Point","coordinates":[-121.249126773891,38.8079594882074]}},{"properties":{"NAME":"Roseville","ALAND":93797458.0,"PLACENS":"02411000","FUNCSTAT":"A","MTFCC":"G4110","CLASSFP":"C1","PCICBSA":"Y","LSAD":25,"AWATER":3366.0,"INTPTLAT":38.7657426,"PLCIDFP":"0662938","STATEFP":"06","INTPTLON":-121.3031585,"CPI":"Y","PLACEFP":"62938","PCINECTA":"N","id":"a6khrlha72gk","NAMELSAD":"Roseville city"},"type":"Feature","geometry":{"type":"Point","coordinates":[-121.302859593628,38.765746633507]}},{"properties":{"NAME":"Anderson","ALAND":16388579.0,"PLACENS":"02409706","FUNCSTAT":"A","MTFCC":"G4110","CLASSFP":"C1","PCICBSA":"N","LSAD":25,"AWATER":641761.0,"INTPTLAT":40.4505959,"PLCIDFP":"0602042","STATEFP":"06","INTPTLON":-122.2963035,"CPI":"N","PLACEFP":"02042","PCINECTA":"N","id":"a6khrlc3kgrq","NAMELSAD":"Anderson city"},"type":"Feature","geometry":{"type":"Point","coordinates":[-122.296135061878,40.4507682110088]}},{"properties":{"NAME":"Redding","ALAND":154602808.0,"PLACENS":"02411531","FUNCSTAT":"A","MTFCC":"G4110","CLASSFP":"C1","PCICBSA":"Y","LSAD":25,"AWATER":3957254.0,"INTPTLAT":40.5673741,"PLCIDFP":"0659920","STATEFP":"06","INTPTLON":-122.3647968,"CPI":"Y","PLACEFP":"59920","PCINECTA":"N","id":"a6khrli5zv4e","NAMELSAD":"Redding city"},"type":"Feature","geometry":{"type":"Point","coordinates":[-122.365090586872,40.5697725229259]}},{"properties":{"NAME":"Shasta Lake","ALAND":28285314.0,"PLACENS":"02411877","FUNCSTAT":"A","MTFCC":"G4110","CLASSFP":"C1","PCICBSA":"N","LSAD":25,"AWATER":19227.0,"INTPTLAT":40.679203,"PLCIDFP":"0671225","STATEFP":"06","INTPTLON":-122.3779429,"CPI":"N","PLACEFP":"71225","PCINECTA":"N","id":"a6khrllrpadk","NAMELSAD":"Shasta Lake city"},"type":"Feature","geometry":{"type":"Point","coordinates":[-122.377504691771,40.6789688135558]}},{"properties":{"NAME":"Live Oak","ALAND":4929540.0,"PLACENS":"02410846","FUNCSTAT":"A","MTFCC":"G4110","CLASSFP":"C1","PCICBSA":"N","LSAD":25,"AWATER":0.0,"INTPTLAT":39.2737983,"PLCIDFP":"0641936","STATEFP":"06","INTPTLON":-121.6653026,"CPI":"Y","PLACEFP":"41936","PCINECTA":"N","id":"a6khrlgiv7cv","NAMELSAD":"Live Oak city"},"type":"Feature","geometry":{"type":"Point","coordinates":[-121.665302414488,39.2737987992785]}},{"properties":{"NAME":"Yuba City","ALAND":38385145.0,"PLACENS":"02412325","FUNCSTAT":"A","MTFCC":"G4110","CLASSFP":"C1","PCICBSA":"Y","LSAD":25,"AWATER":204363.0,"INTPTLAT":39.1338551,"PLCIDFP":"0686972","STATEFP":"06","INTPTLON":-121.6390305,"CPI":"Y","PLACEFP":"86972","PCINECTA":"N","id":"a6khrlm5ggdv","NAMELSAD":"Yuba City city"},"type":"Feature","geometry":{"type":"Point","coordinates":[-121.637106775148,39.1355943616433]}},{"properties":{"NAME":"Atherton","ALAND":12993318.0,"PLACENS":"02411651","FUNCSTAT":"A","MTFCC":"G4110","CLASSFP":"C1","PCICBSA":"N","LSAD":43,"AWATER":82320.0,"INTPTLAT":37.454924,"PLCIDFP":"0603092","STATEFP":"06","INTPTLON":-122.2031678,"CPI":"N","PLACEFP":"03092","PCINECTA":"N","id":"a6khrld9kip4","NAMELSAD":"Atherton town"},"type":"Feature","geometry":{"type":"Point","coordinates":[-122.20315045898,37.4539183694295]}},{"properties":{"NAME":"Belmont","ALAND":11956786.0,"PLACENS":"02409826","FUNCSTAT":"A","MTFCC":"G4110","CLASSFP":"C1","PCICBSA":"N","LSAD":25,"AWATER":22408.0,"INTPTLAT":37.5143975,"PLCIDFP":"0605108","STATEFP":"06","INTPTLON":-122.2944751,"CPI":"N","PLACEFP":"05108","PCINECTA":"N","id":"a6khrlgwzex6","NAMELSAD":"Belmont city"},"type":"Feature","geometry":{"type":"Point","coordinates":[-122.295596629799,37.5154926188133]}},{"properties":{"NAME":"Brisbane","ALAND":8022584.0,"PLACENS":"02409912","FUNCSTAT":"A","MTFCC":"G4110","CLASSFP":"C1","PCICBSA":"N","LSAD":25,"AWATER":43981455.0,"INTPTLAT":37.6757495,"PLCIDFP":"0608310","STATEFP":"06","INTPTLON":-122.383302,"CPI":"N","PLACEFP":"08310","PCINECTA":"N","id":"a6khrlgmep37","NAMELSAD":"Brisbane city"},"type":"Feature","geometry":{"type":"Point","coordinates":[-122.340020004047,37.6897159724731]}},{"properties":{"NAME":"Burlingame","ALAND":11398767.0,"PLACENS":"02409945","FUNCSTAT":"A","MTFCC":"G4110","CLASSFP":"C1","PCICBSA":"N","LSAD":25,"AWATER":4275099.0,"INTPTLAT":37.5899515,"PLCIDFP":"0609066","STATEFP":"06","INTPTLON":-122.3633424,"CPI":"N","PLACEFP":"09066","PCINECTA":"N","id":"a6khrlexiqa5","NAMELSAD":"Burlingame city"},"type":"Feature","geometry":{"type":"Point","coordinates":[-122.363070660059,37.5894252745422]}},{"properties":{"NAME":"Colma","ALAND":4928786.0,"PLACENS":"02413228","FUNCSTAT":"A","MTFCC":"G4110","CLASSFP":"C1","PCICBSA":"N","LSAD":43,"AWATER":0.0,"INTPTLAT":37.6765575,"PLCIDFP":"0614736","STATEFP":"06","INTPTLON":-122.4525263,"CPI":"N","PLACEFP":"14736","PCINECTA":"N","id":"a6khrl8o5uwf","NAMELSAD":"Colma town"},"type":"Feature","geometry":{"type":"Point","coordinates":[-122.452526630358,37.6765575065673]}},{"properties":{"NAME":"Daly City","ALAND":19843455.0,"PLACENS":"02410291","FUNCSTAT":"A","MTFCC":"G4110","CLASSFP":"C1","PCICBSA":"N","LSAD":25,"AWATER":0.0,"INTPTLAT":37.7010237,"PLCIDFP":"0617918","STATEFP":"06","INTPTLON":-122.4649782,"CPI":"Y","PLACEFP":"17918","PCINECTA":"N","id":"a6khrla2vxyf","NAMELSAD":"Daly City city"},"type":"Feature","geometry":{"type":"Point","coordinates":[-122.468442421069,37.6862180111198]}},