{"type":"FeatureCollection","data_type":"Dataset","url_type":null,"permissions":[{"permissions":{"download":true,"view":true},"group_id":"everyone"}],"classification":null,"title":"A Heartbreaking Work of Staggering Genius, International Reviews, Book-Crossing Dataset","count":157,"stream_id":19851,"contributor":{"url":"http://geocommons.com/users/2943","name":"Margot"},"data_attributes":null,"calculation_params":null,"icon_link":null,"link":"http://geocommons.com/overlays/19851.json","extent":[-158.026,-41.3142,174.779,54.7775],"geometry_types":["point"],"unique_name":null,"name":"A Heartbreaking Work of Staggering Genius, International Reviews, Book-Crossing Dataset","feature_count":157,"description":"Collected by Cai-Nicolas Ziegler in a 4-week crawl (August / September 2004) from the Book-Crossing community with kind permission from Ron Hornbaker, CTO of Humankind Systems. Contains 278,858 users (anonymized but with demographic information) providing 1,149,780 ratings (explicit / implicit) about 271,379 books.\n\n[ ! ] Freely available for research use when acknowledged with the following reference (further details on the dataset are given in this publication):\nImproving Recommendation Lists Through Topic Diversification,\nCai-Nicolas Ziegler, Sean M. McNee, Joseph A. Konstan, Georg Lausen; Proceedings of the 14th International World Wide Web Conference (WWW '05), May 10-14, 2005, Chiba, Japan. To appear.\n\n\nContains the book rating information. Ratings (`Book-Rating`) are either explicit, expressed on a scale from 1-10 (higher values denoting higher appreciation), or implicit, expressed by 0.","next_feature":null,"is_raster":false,"short_classification":"Y","stats":{"isbn":{"max":684863472.0,"mean":430858620.076433,"variance":1.40937771448984e+16,"stdev":118717215.031765,"min":375725784.0,"median":375725784.0},"latitude":{"max":54.777533,"mean":37.7238078789809,"variance":117.745380070212,"stdev":10.8510543298894,"min":-41.314165,"median":39.326125},"book-rating":{"max":10.0,"mean":7.15286624203822,"variance":4.70725134737873,"stdev":2.1696200928685,"min":1.0,"median":8.0},"user-id":{"max":278243.0,"mean":120783.248407643,"variance":4892809824.40585,"stdev":69948.6227484562,"min":1161.0,"median":125287.0},"longitude":{"max":174.779027,"mean":-86.2759886242038,"variance":1922.68060816052,"stdev":43.8483820472377,"min":-158.025549,"median":-85.402265}},"features":[{"properties":{"city":"Palm Beach Gardens","isbn":375725784.0,"latitude":26.83272,"book-rating":9.0,"title":"A Heartbreaking Work of Staggering Genius","user-id":100427.0,"longitude":-80.105319,"id":"a69cakg6rgfo","state":"Florida"},"type":"Feature","geometry":{"type":"Point","coordinates":[-80.105319,26.83272]}},{"properties":{"city":"St. Paul","isbn":375725784.0,"latitude":44.943829,"book-rating":6.0,"title":"A Heartbreaking Work of Staggering Genius","user-id":103811.0,"longitude":-93.093326,"id":"a69cakjcytmi","state":"Minnesota"},"type":"Feature","geometry":{"type":"Point","coordinates":[-93.093326,44.943829]}},{"properties":{"city":"San Francisco","isbn":375725784.0,"latitude":37.7796,"book-rating":9.0,"title":"A Heartbreaking Work of Staggering Genius","user-id":105781.0,"longitude":-122.420139,"id":"a69caknfxj1u","state":"California"},"type":"Feature","geometry":{"type":"Point","coordinates":[-122.420139,37.7796]}},{"properties":{"city":"Tampa","isbn":375725784.0,"latitude":27.94653,"book-rating":7.0,"title":"A Heartbreaking Work of Staggering Genius","user-id":105937.0,"longitude":-82.459269,"id":"a69cakfb5qvu","state":"Florida"},"type":"Feature","geometry":{"type":"Point","coordinates":[-82.459269,27.94653]}},{"properties":{"city":"Wichita Falls","isbn":375725784.0,"latitude":33.90831,"book-rating":8.0,"title":"A Heartbreaking Work of Staggering Genius","user-id":106686.0,"longitude":-98.500994,"id":"a69cakqzx53f","state":"Texas"},"type":"Feature","geometry":{"type":"Point","coordinates":[-98.500994,33.90831]}},{"properties":{"city":"Denver","isbn":375725784.0,"latitude":39.74001,"book-rating":9.0,"title":"A Heartbreaking Work of Staggering Genius","user-id":107326.0,"longitude":-104.992259,"id":"a69caksb5swu","state":"Colorado"},"type":"Feature","geometry":{"type":"Point","coordinates":[-104.992259,39.74001]}},{"properties":{"city":"Tomball","isbn":375725784.0,"latitude":30.095805,"book-rating":10.0,"title":"A Heartbreaking Work of Staggering Genius","user-id":107431.0,"longitude":-95.617089,"id":"a69cakpee53c","state":"Texas"},"type":"Feature","geometry":{"type":"Point","coordinates":[-95.617089,30.095805]}},{"properties":{"city":"Bear","isbn":375725784.0,"latitude":39.626032,"book-rating":9.0,"title":"A Heartbreaking Work of Staggering Genius","user-id":109516.0,"longitude":-75.661145,"id":"a69cakhxa4ox","state":"Delaware"},"type":"Feature","geometry":{"type":"Point","coordinates":[-75.661145,39.626032]}},{"properties":{"city":"San Diego","isbn":375725784.0,"latitude":32.715685,"book-rating":8.0,"title":"A Heartbreaking Work of Staggering Genius","user-id":110361.0,"longitude":-117.161724,"id":"a69cakjs7tva","state":"California"},"type":"Feature","geometry":{"type":"Point","coordinates":[-117.161724,32.715685]}},{"properties":{"city":"Davidson","isbn":375725784.0,"latitude":35.497856,"book-rating":8.0,"title":"A Heartbreaking Work of Staggering Genius","user-id":11179.0,"longitude":-80.849189,"id":"a69cakj8o79g","state":"North Carolina"},"type":"Feature","geometry":{"type":"Point","coordinates":[-80.849189,35.497856]}},{"properties":{"city":"Vancouver","isbn":684863472.0,"latitude":49.26044,"book-rating":9.0,"title":"A Heartbreaking Work Of Staggering Genius : A Memoir Based on a True Story","user-id":113030.0,"longitude":-123.114034,"id":"a69cakqeuqhp","state":"British Columbia"},"type":"Feature","geometry":{"type":"Point","coordinates":[-123.114034,49.26044]}},{"properties":{"city":"Braintree","isbn":684863472.0,"latitude":42.206391,"book-rating":8.0,"title":"A Heartbreaking Work Of Staggering Genius : A Memoir Based on a True Story","user-id":114905.0,"longitude":-71.004817,"id":"a69cakla0vqk","state":"Massachusetts"},"type":"Feature","geometry":{"type":"Point","coordinates":[-71.004817,42.206391]}},{"properties":{"city":"Brier","isbn":375725784.0,"latitude":47.792019,"book-rating":5.0,"title":"A Heartbreaking Work of Staggering Genius","user-id":1161.0,"longitude":-122.273082,"id":"a69cakmknj3w","state":"Washington"},"type":"Feature","geometry":{"type":"Point","coordinates":[-122.273082,47.792019]}},{"properties":{"city":"Baton Rouge","isbn":375725784.0,"latitude":30.44336,"book-rating":7.0,"title":"A Heartbreaking Work of Staggering Genius","user-id":116574.0,"longitude":-91.186984,"id":"a69cakivur83","state":"Louisiana"},"type":"Feature","geometry":{"type":"Point","coordinates":[-91.186984,30.44336]}},{"properties":{"city":"Paullina","isbn":375725784.0,"latitude":42.98282,"book-rating":9.0,"title":"A Heartbreaking Work of Staggering Genius","user-id":116758.0,"longitude":-95.684124,"id":"a69cakiz5gk4","state":"Iowa"},"type":"Feature","geometry":{"type":"Point","coordinates":[-95.684124,42.98282]}},{"properties":{"city":"Arlington","isbn":375725784.0,"latitude":38.89051,"book-rating":8.0,"title":"A Heartbreaking Work of Staggering Genius","user-id":121170.0,"longitude":-77.086294,"id":"a69cakql8t68","state":"Virginia"},"type":"Feature","geometry":{"type":"Point","coordinates":[-77.086294,38.89051]}},{"properties":{"city":"Nyc","isbn":684863472.0,"latitude":40.71455,"book-rating":8.0,"title":"A Heartbreaking Work Of Staggering Genius : A Memoir Based on a True Story","user-id":121548.0,"longitude":-74.007118,"id":"a69cakqrjzhh","state":"Georgia"},"type":"Feature","geometry":{"type":"Point","coordinates":[-74.007118,40.71455]}},{"properties":{"city":"Houston","isbn":684863472.0,"latitude":29.76045,"book-rating":10.0,"title":"A Heartbreaking Work Of Staggering Genius : A Memoir Based on a True Story","user-id":122484.0,"longitude":-95.369784,"id":"a69cakpatfwa","state":"Texas"},"type":"Feature","geometry":{"type":"Point","coordinates":[-95.369784,29.76045]}},{"properties":{"city":"Omemee","isbn":684863472.0,"latitude":44.299061,"book-rating":10.0,"title":"A Heartbreaking Work Of Staggering Genius : A Memoir Based on a True Story","user-id":122793.0,"longitude":-78.559067,"id":"a69cakjf4ef7","state":"Ontario"},"type":"Feature","geometry":{"type":"Point","coordinates":[-78.559067,44.299061]}},{"properties":{"city":"Bellevue","isbn":375725784.0,"latitude":47.61002,"book-rating":1.0,"title":"A Heartbreaking Work of Staggering Genius","user-id":125256.0,"longitude":-122.187549,"id":"a69caktsfe52","state":"Washington"},"type":"Feature","geometry":{"type":"Point","coordinates":[-122.187549,47.61002]}},{"properties":{"city":"Atlanta","isbn":375725784.0,"latitude":33.748315,"book-rating":9.0,"title":"A Heartbreaking Work of Staggering Genius","user-id":125287.0,"longitude":-84.391109,"id":"a69caku7xzxe","state":"Georgia"},"type":"Feature","geometry":{"type":"Point","coordinates":[-84.391109,33.748315]}},{"properties":{"city":"Lincoln City","isbn":375725784.0,"latitude":44.92951,"book-rating":5.0,"title":"A Heartbreaking Work of Staggering Genius","user-id":125443.0,"longitude":-124.016714,"id":"a69cakrysn4h","state":"Oregon"},"type":"Feature","geometry":{"type":"Point","coordinates":[-124.016714,44.92951]}},{"properties":{"city":"Evanston","isbn":375725784.0,"latitude":42.056655,"book-rating":7.0,"title":"A Heartbreaking Work of Staggering Genius","user-id":126255.0,"longitude":-87.686589,"id":"a69cakswmmko","state":"Illinois"},"type":"Feature","geometry":{"type":"Point","coordinates":[-87.686589,42.056655]}},{"properties":{"city":"London","isbn":375725784.0,"latitude":51.506321,"book-rating":2.0,"title":"A Heartbreaking Work of Staggering Genius","user-id":126608.0,"longitude":-0.12714,"id":"a69cakrycz0l","state":"Lazio"},"type":"Feature","geometry":{"type":"Point","coordinates":[-0.12714,51.506321]}},{"properties":{"city":"Sacramento","isbn":375725784.0,"latitude":38.579065,"book-rating":4.0,"title":"A Heartbreaking Work of Staggering Genius","user-id":126671.0,"longitude":-121.491014,"id":"a69cakravtn7","state":"California"},"type":"Feature","geometry":{"type":"Point","coordinates":[-121.491014,38.579065]}},{"properties":{"city":"Knoxville","isbn":375725784.0,"latitude":35.960495,"book-rating":8.0,"title":"A Heartbreaking Work of Staggering Genius","user-id":127049.0,"longitude":-83.920914,"id":"a69cakfd263a","state":"Tennessee"},"type":"Feature","geometry":{"type":"Point","coordinates":[-83.920914,35.960495]}},{"properties":{"city":"Durham","isbn":375725784.0,"latitude":35.995275,"book-rating":7.0,"title":"A Heartbreaking Work of Staggering Genius","user-id":128085.0,"longitude":-78.896014,"id":"a69cakkqjrn8","state":"North Carolina"},"type":"Feature","geometry":{"type":"Point","coordinates":[-78.896014,35.995275]}},{"properties":{"city":"Newtown","isbn":375725784.0,"latitude":-41.314165,"book-rating":10.0,"title":"A Heartbreaking Work of Staggering Genius","user-id":129538.0,"longitude":174.779027,"id":"a69cako1cjw7","state":"Wellington"},"type":"Feature","geometry":{"type":"Point","coordinates":[174.779027,-41.314165]}},{"properties":{"city":"Winter Park","isbn":375725784.0,"latitude":28.594574,"book-rating":10.0,"title":"A Heartbreaking Work of Staggering Genius","user-id":130279.0,"longitude":-81.350716,"id":"a69cakds8p8a","state":"Florida"},"type":"Feature","geometry":{"type":"Point","coordinates":[-81.350716,28.594574]}},{"properties":{"city":"Ramsey","isbn":375725784.0,"latitude":41.058295,"book-rating":6.0,"title":"A Heartbreaking Work of Staggering Genius","user-id":130400.0,"longitude":-74.143989,"id":"a69caks9zhw0","state":"New Jersey"},"type":"Feature","geometry":{"type":"Point","coordinates":[-74.143989,41.058295]}},{"properties":{"city":"Sydney","isbn":375725784.0,"latitude":-33.869629,"book-rating":10.0,"title":"A Heartbreaking Work of Staggering Genius","user-id":130705.0,"longitude":151.206955,"id":"a69cakh0ycs0","state":"New South Wales"},"type":"Feature","geometry":{"type":"Point","coordinates":[151.206955,-33.869629]}},{"properties":{"city":"Orlando","isbn":375725784.0,"latitude":28.538235,"book-rating":7.0,"title":"A Heartbreaking Work of Staggering Genius","user-id":131485.0,"longitude":-81.377389,"id":"a69caknmkomy","state":"Florida"},"type":"Feature","geometry":{"type":"Point","coordinates":[-81.377389,28.538235]}},{"properties":{"city":"Wokingham","isbn":375725784.0,"latitude":51.4108,"book-rating":6.0,"title":"A Heartbreaking Work of Staggering Genius","user-id":132930.0,"longitude":-0.834594,"id":"a69cakgl5vbz","state":"England"},"type":"Feature","geometry":{"type":"Point","coordinates":[-0.834594,51.4108]}},{"properties":{"city":"Pleasanton","isbn":375725784.0,"latitude":37.658034,"book-rating":5.0,"title":"A Heartbreaking Work of Staggering Genius","user-id":133586.0,"longitude":-121.87722,"id":"a69cakg3z0br","state":"California"},"type":"Feature","geometry":{"type":"Point","coordinates":[-121.87722,37.658034]}},{"properties":{"city":"Fair Oaks","isbn":684863472.0,"latitude":38.643035,"book-rating":8.0,"title":"A Heartbreaking Work Of Staggering Genius : A Memoir Based on a True Story","user-id":136139.0,"longitude":-121.270154,"id":"a69cakhok2e7","state":"California"},"type":"Feature","geometry":{"type":"Point","coordinates":[-121.270154,38.643035]}},{"properties":{"city":"Houston","isbn":684863472.0,"latitude":29.76045,"book-rating":10.0,"title":"A Heartbreaking Work Of Staggering Genius : A Memoir Based on a True Story","user-id":137141.0,"longitude":-95.369784,"id":"a69cakh6l4v8","state":"Texas"},"type":"Feature","geometry":{"type":"Point","coordinates":[-95.369784,29.76045]}},{"properties":{"city":"Medford","isbn":684863472.0,"latitude":40.817134,"book-rating":5.0,"title":"A Heartbreaking Work Of Staggering Genius : A Memoir Based on a True Story","user-id":137688.0,"longitude":-73.006157,"id":"a69cakksruaj","state":"New York"},"type":"Feature","geometry":{"type":"Point","coordinates":[-73.006157,40.817134]}},{"properties":{"city":"Somerville","isbn":375725784.0,"latitude":42.386675,"book-rating":8.0,"title":"A Heartbreaking Work of Staggering Genius","user-id":138010.0,"longitude":-71.098264,"id":"a69cakppe5re","state":"Massachusetts"},"type":"Feature","geometry":{"type":"Point","coordinates":[-71.098264,42.386675]}},{"properties":{"city":"Raleigh","isbn":375725784.0,"latitude":35.78551,"book-rating":10.0,"title":"A Heartbreaking Work of Staggering Genius","user-id":139070.0,"longitude":-78.642669,"id":"a69cakrhn5q5","state":"North Carolina"},"type":"Feature","geometry":{"type":"Point","coordinates":[-78.642669,35.78551]}},{"properties":{"city":"London","isbn":375725784.0,"latitude":51.506325,"book-rating":8.0,"title":"A Heartbreaking Work of Staggering Genius","user-id":140000.0,"longitude":-0.127144,"id":"a69cakouqwn6","state":"England"},"type":"Feature","geometry":{"type":"Point","coordinates":[-0.127144,51.506325]}},{"properties":{"city":"Kyoto","isbn":375725784.0,"latitude":35.098129,"book-rating":6.0,"title":"A Heartbreaking Work of Staggering Genius","user-id":142745.0,"longitude":135.718933,"id":"a69cakllq0nu","state":"Kyoto"},"type":"Feature","geometry":{"type":"Point","coordinates":[135.718933,35.098129]}},{"properties":{"city":"Charleston","isbn":684863472.0,"latitude":32.78115,"book-rating":5.0,"title":"A Heartbreaking Work Of Staggering Genius : A Memoir Based on a True Story","user-id":148620.0,"longitude":-79.931604,"id":"a69caknc03yj","state":"South Carolina"},"type":"Feature","geometry":{"type":"Point","coordinates":[-79.931604,32.78115]}},{"properties":{"city":"Vallejo","isbn":375725784.0,"latitude":38.10083,"book-rating":9.0,"title":"A Heartbreaking Work of Staggering Genius","user-id":149430.0,"longitude":-122.254954,"id":"a69cakgkdljy","state":"California"},"type":"Feature","geometry":{"type":"Point","coordinates":[-122.254954,38.10083]}},{"properties":{"city":"Greencastle","isbn":375725784.0,"latitude":39.790425,"book-rating":7.0,"title":"A Heartbreaking Work of Staggering Genius","user-id":150979.0,"longitude":-77.728354,"id":"a69caktocb22","state":"Pennsylvania"},"type":"Feature","geometry":{"type":"Point","coordinates":[-77.728354,39.790425]}},{"properties":{"city":"Ontario","isbn":375725784.0,"latitude":34.06457,"book-rating":7.0,"title":"A Heartbreaking Work of Staggering Genius","user-id":151165.0,"longitude":-117.647809,"id":"a69cakdvxfsx","state":"California"},"type":"Feature","geometry":{"type":"Point","coordinates":[-117.647809,34.06457]}},{"properties":{"city":"Issaquah","isbn":375725784.0,"latitude":47.530095,"book-rating":8.0,"title":"A Heartbreaking Work of Staggering Genius","user-id":153163.0,"longitude":-122.033799,"id":"a69cakh3uin9","state":"Washington"},"type":"Feature","geometry":{"type":"Point","coordinates":[-122.033799,47.530095]}},{"properties":{"city":"Cherry Hill","isbn":375725784.0,"latitude":39.9275,"book-rating":8.0,"title":"A Heartbreaking Work of Staggering Genius","user-id":15602.0,"longitude":-75.030549,"id":"a69cakfnki2e","state":"New Jersey"},"type":"Feature","geometry":{"type":"Point","coordinates":[-75.030549,39.9275]}},{"properties":{"city":"Denver","isbn":375725784.0,"latitude":39.74001,"book-rating":8.0,"title":"A Heartbreaking Work of Staggering Genius","user-id":157969.0,"longitude":-104.992259,"id":"a69cakkajpmf","state":"Colorado"},"type":"Feature","geometry":{"type":"Point","coordinates":[-104.992259,39.74001]}},{"properties":{"city":"Cincinnati","isbn":375725784.0,"latitude":39.106441,"book-rating":5.0,"title":"A Heartbreaking Work of Staggering Genius","user-id":159004.0,"longitude":-84.504694,"id":"a69cakrca4yq","state":"Ohio"},"type":"Feature","geometry":{"type":"Point","coordinates":[-84.504694,39.106441]}},{"properties":{"city":"Limoges","isbn":375725784.0,"latitude":45.828781,"book-rating":10.0,"title":"A Heartbreaking Work of Staggering Genius","user-id":160571.0,"longitude":1.26201,"id":"a69cakl85nrm","state":"N/A"},"type":"Feature","geometry":{"type":"Point","coordinates":[1.26201,45.828781]}},{"properties":{"city":"Miami","isbn":375725784.0,"latitude":25.728985,"book-rating":10.0,"title":"A Heartbreaking Work of Staggering Genius","user-id":160819.0,"longitude":-80.237419,"id":"a69cakduued9","state":"Florida"},"type":"Feature","geometry":{"type":"Point","coordinates":[-80.237419,25.728985]}},{"properties":{"city":"Tucson","isbn":375725784.0,"latitude":32.221553,"book-rating":10.0,"title":"A Heartbreaking Work of Staggering Genius","user-id":161744.0,"longitude":-110.969754,"id":"a69caktydorb","state":"Arizona"},"type":"Feature","geometry":{"type":"Point","coordinates":[-110.969754,32.221553]}},{"properties":{"city":"Danville","isbn":375725784.0,"latitude":36.585983,"book-rating":9.0,"title":"A Heartbreaking Work of Staggering Genius","user-id":162052.0,"longitude":-79.417209,"id":"a69cakq3jkvc","state":"Virginia"},"type":"Feature","geometry":{"type":"Point","coordinates":[-79.417209,36.585983]}},{"properties":{"city":"Austin","isbn":375725784.0,"latitude":30.267605,"book-rating":7.0,"title":"A Heartbreaking Work of Staggering Genius","user-id":162755.0,"longitude":-97.742984,"id":"a69cakr4wjc0","state":"Texas"},"type":"Feature","geometry":{"type":"Point","coordinates":[-97.742984,30.267605]}},{"properties":{"city":"Vallejo","isbn":375725784.0,"latitude":38.10083,"book-rating":10.0,"title":"A Heartbreaking Work of Staggering Genius","user-id":164433.0,"longitude":-122.254954,"id":"a69cakq8oyhx","state":"California"},"type":"Feature","geometry":{"type":"Point","coordinates":[-122.254954,38.10083]}},{"properties":{"city":"Merion","isbn":684863472.0,"latitude":39.99749,"book-rating":7.0,"title":"A Heartbreaking Work Of Staggering Genius : A Memoir Based on a True Story","user-id":165314.0,"longitude":-75.253517,"id":"a69cakhiygdw","state":"Pennsylvania"},"type":"Feature","geometry":{"type":"Point","coordinates":[-75.253517,39.99749]}},{"properties":{"city":"Little Rock","isbn":375725784.0,"latitude":34.748655,"book-rating":3.0,"title":"A Heartbreaking Work of Staggering Genius","user-id":16634.0,"longitude":-92.274494,"id":"a69cakmb5b59","state":"Arkansas"},"type":"Feature","geometry":{"type":"Point","coordinates":[-92.274494,34.748655]}},{"properties":{"city":"Greenwood","isbn":375725784.0,"latitude":49.091795,"book-rating":9.0,"title":"A Heartbreaking Work of Staggering Genius","user-id":166596.0,"longitude":-118.677425,"id":"a69cakkrlkgh","state":"British Columbia"},"type":"Feature","geometry":{"type":"Point","coordinates":[-118.677425,49.091795]}},{"properties":{"city":"Brooklyn","isbn":684863472.0,"latitude":40.692455,"book-rating":7.0,"title":"A Heartbreaking Work Of Staggering Genius : A Memoir Based on a True Story","user-id":166758.0,"longitude":-73.990364,"id":"a69cakfeuf2q","state":"New York"},"type":"Feature","geometry":{"type":"Point","coordinates":[-73.990364,40.692455]}},{"properties":{"city":"Minneapolis","isbn":375725784.0,"latitude":44.979035,"book-rating":10.0,"title":"A Heartbreaking Work of Staggering Genius","user-id":1674.0,"longitude":-93.264929,"id":"a69cakqi9zgz","state":"Minnesota"},"type":"Feature","geometry":{"type":"Point","coordinates":[-93.264929,44.979035]}},{"properties":{"city":"Lingfield","isbn":375725784.0,"latitude":51.174819,"book-rating":4.0,"title":"A Heartbreaking Work of Staggering Genius","user-id":167521.0,"longitude":-0.019686,"id":"a69caktpcti7","state":"England"},"type":"Feature","geometry":{"type":"Point","coordinates":[-0.019686,51.174819]}},{"properties":{"city":"Lancaster","isbn":375725784.0,"latitude":40.038045,"book-rating":3.0,"title":"A Heartbreaking Work of Staggering Genius","user-id":168500.0,"longitude":-76.301269,"id":"a69caks1c2rt","state":"Pennsylvania"},"type":"Feature","geometry":{"type":"Point","coordinates":[-76.301269,40.038045]}},{"properties":{"city":"Durham","isbn":375725784.0,"latitude":54.777533,"book-rating":5.0,"title":"A Heartbreaking Work of Staggering Genius","user-id":168691.0,"longitude":-1.574608,"id":"a69cakssf3zh","state":"England"},"type":"Feature","geometry":{"type":"Point","coordinates":[-1.574608,54.777533]}},{"properties":{"city":"Cadillac","isbn":375725784.0,"latitude":44.250409,"book-rating":9.0,"title":"A Heartbreaking Work of Staggering Genius","user-id":16949.0,"longitude":-85.402265,"id":"a69cakpfe2ur","state":"Michigan"},"type":"Feature","geometry":{"type":"Point","coordinates":[-85.402265,44.250409]}},{"properties":{"city":"Denton","isbn":375725784.0,"latitude":33.21656,"book-rating":4.0,"title":"A Heartbreaking Work of Staggering Genius","user-id":174575.0,"longitude":-97.130984,"id":"a69cakqmczjd","state":"Texas"},"type":"Feature","geometry":{"type":"Point","coordinates":[-97.130984,33.21656]}},{"properties":{"city":"Redlands","isbn":684863472.0,"latitude":34.055282,"book-rating":7.0,"title":"A Heartbreaking Work Of Staggering Genius : A Memoir Based on a True Story","user-id":174920.0,"longitude":-117.18258,"id":"a69cakt05l3l","state":"California"},"type":"Feature","geometry":{"type":"Point","coordinates":[-117.18258,34.055282]}},{"properties":{"city":"Truckee","isbn":375725784.0,"latitude":39.326125,"book-rating":8.0,"title":"A Heartbreaking Work of Staggering Genius","user-id":175469.0,"longitude":-120.212149,"id":"a69caki60qbk","state":"California"},"type":"Feature","geometry":{"type":"Point","coordinates":[-120.212149,39.326125]}},{"properties":{"city":"Mt. Tremper","isbn":375725784.0,"latitude":42.045393,"book-rating":4.0,"title":"A Heartbreaking Work of Staggering Genius","user-id":17893.0,"longitude":-74.275569,"id":"a69cakiljy4v","state":"New York"},"type":"Feature","geometry":{"type":"Point","coordinates":[-74.275569,42.045393]}},{"properties":{"city":"Raleigh","isbn":684863472.0,"latitude":35.78551,"book-rating":2.0,"title":"A Heartbreaking Work Of Staggering Genius : A Memoir Based on a True Story","user-id":179433.0,"longitude":-78.642669,"id":"a69cakqc93pq","state":"North Carolina"},"type":"Feature","geometry":{"type":"Point","coordinates":[-78.642669,35.78551]}},{"properties":{"city":"Dublin","isbn":684863472.0,"latitude":40.104895,"book-rating":7.0,"title":"A Heartbreaking Work Of Staggering Genius : A Memoir Based on a True Story","user-id":182994.0,"longitude":-83.133119,"id":"a69cakn6t5fu","state":"Ohio"},"type":"Feature","geometry":{"type":"Point","coordinates":[-83.133119,40.104895]}},{"properties":{"city":"Denver","isbn":375725784.0,"latitude":39.74001,"book-rating":6.0,"title":"A Heartbreaking Work of Staggering Genius","user-id":184485.0,"longitude":-104.992259,"id":"a69cakpxprna","state":"Colorado"},"type":"Feature","geometry":{"type":"Point","coordinates":[-104.992259,39.74001]}},{"properties":{"city":"Tampa","isbn":375725784.0,"latitude":27.94653,"book-rating":8.0,"title":"A Heartbreaking Work of Staggering Genius","user-id":185677.0,"longitude":-82.459269,"id":"a69cakqheztm","state":"Florida"},"type":"Feature","geometry":{"type":"Point","coordinates":[-82.459269,27.94653]}},{"properties":{"city":"Rapid City","isbn":375725784.0,"latitude":44.081165,"book-rating":8.0,"title":"A Heartbreaking Work of Staggering Genius","user-id":187762.0,"longitude":-103.230889,"id":"a69cakjqo3jv","state":"South Dakota"},"type":"Feature","geometry":{"type":"Point","coordinates":[-103.230889,44.081165]}},{"properties":{"city":"El Dorado Hills","isbn":375725784.0,"latitude":38.677049,"book-rating":8.0,"title":"A Heartbreaking Work of Staggering Genius","user-id":187822.0,"longitude":-121.07781,"id":"a69cakrfpu1l","state":"California"},"type":"Feature","geometry":{"type":"Point","coordinates":[-121.07781,38.677049]}},{"properties":{"city":"West Bloomfield","isbn":375725784.0,"latitude":42.558654,"book-rating":5.0,"title":"A Heartbreaking Work of Staggering Genius","user-id":187835.0,"longitude":-83.372715,"id":"a69cakqd4chw","state":"Michigan"},"type":"Feature","geometry":{"type":"Point","coordinates":[-83.372715,42.558654]}},{"properties":{"city":"Sacramento","isbn":375725784.0,"latitude":38.579065,"book-rating":10.0,"title":"A Heartbreaking Work of Staggering Genius","user-id":192492.0,"longitude":-121.491014,"id":"a69cakme9hu6","state":"California"},"type":"Feature","geometry":{"type":"Point","coordinates":[-121.491014,38.579065]}},{"properties":{"city":"Virginia Beach","isbn":375725784.0,"latitude":36.75502,"book-rating":2.0,"title":"A Heartbreaking Work of Staggering Genius","user-id":197206.0,"longitude":-76.059204,"id":"a69cakku7fnn","state":"Virginia"},"type":"Feature","geometry":{"type":"Point","coordinates":[-76.059204,36.75502]}},{"properties":{"city":"Rochester","isbn":375725784.0,"latitude":43.1555,"book-rating":4.0,"title":"A Heartbreaking Work of Staggering Genius","user-id":198114.0,"longitude":-77.616033,"id":"a69cakoi5jpq","state":"New York"},"type":"Feature","geometry":{"type":"Point","coordinates":[-77.616033,43.1555]}},{"properties":{"city":"Fort Myers","isbn":375725784.0,"latitude":26.640845,"book-rating":10.0,"title":"A Heartbreaking Work of Staggering Genius","user-id":199633.0,"longitude":-81.868194,"id":"a69caknqiv9g","state":"Florida"},"type":"Feature","geometry":{"type":"Point","coordinates":[-81.868194,26.640845]}},{"properties":{"city":"Martinez","isbn":375725784.0,"latitude":38.013796,"book-rating":4.0,"title":"A Heartbreaking Work of Staggering Genius","user-id":202353.0,"longitude":-122.13512,"id":"a69cakobjl4p","state":"California"},"type":"Feature","geometry":{"type":"Point","coordinates":[-122.13512,38.013796]}},{"properties":{"city":"Uss Monterey","isbn":375725784.0,"latitude":38.413256,"book-rating":9.0,"title":"A Heartbreaking Work of Staggering Genius","user-id":20350.0,"longitude":-79.582974,"id":"a69cakgamm0g","state":"Virginia"},"type":"Feature","geometry":{"type":"Point","coordinates":[-79.582974,38.413256]}},{"properties":{"city":"Bossier City","isbn":375725784.0,"latitude":32.515943,"book-rating":8.0,"title":"A Heartbreaking Work of Staggering Genius","user-id":20462.0,"longitude":-93.735388,"id":"a69caktmmpd5","state":"Louisiana"},"type":"Feature","geometry":{"type":"Point","coordinates":[-93.735388,32.515943]}},{"properties":{"city":"Glendale","isbn":684863472.0,"latitude":34.14633,"book-rating":9.0,"title":"A Heartbreaking Work Of Staggering Genius : A Memoir Based on a True Story","user-id":206393.0,"longitude":-118.248364,"id":"a69caksqklzy","state":"California"},"type":"Feature","geometry":{"type":"Point","coordinates":[-118.248364,34.14633]}},{"properties":{"city":"San Francisco","isbn":375725784.0,"latitude":37.7796,"book-rating":8.0,"title":"A Heartbreaking Work of Staggering Genius","user-id":207340.0,"longitude":-122.420139,"id":"a69cakedzzi7","state":"California"},"type":"Feature","geometry":{"type":"Point","coordinates":[-122.420139,37.7796]}},{"properties":{"city":"Perkasie","isbn":375725784.0,"latitude":40.3739,"book-rating":10.0,"title":"A Heartbreaking Work of Staggering Genius","user-id":207554.0,"longitude":-75.300694,"id":"a69caknlqpkt","state":"Pennsylvania"},"type":"Feature","geometry":{"type":"Point","coordinates":[-75.300694,40.3739]}},{"properties":{"city":"Southfield","isbn":684863472.0,"latitude":42.481755,"book-rating":6.0,"title":"A Heartbreaking Work Of Staggering Genius : A Memoir Based on a True Story","user-id":208112.0,"longitude":-83.240929,"id":"a69cakjrqeey","state":"Michigan"},"type":"Feature","geometry":{"type":"Point","coordinates":[-83.240929,42.481755]}},{"properties":{"city":"Jenks","isbn":375725784.0,"latitude":36.02411,"book-rating":3.0,"title":"A Heartbreaking Work of Staggering Genius","user-id":208663.0,"longitude":-95.975869,"id":"a69cakdrtlj7","state":"Oklahoma"},"type":"Feature","geometry":{"type":"Point","coordinates":[-95.975869,36.02411]}},{"properties":{"city":"Federal Way","isbn":375725784.0,"latitude":47.3008,"book-rating":6.0,"title":"A Heartbreaking Work of Staggering Genius","user-id":210097.0,"longitude":-122.329464,"id":"a69cakpdka79","state":"Washington"},"type":"Feature","geometry":{"type":"Point","coordinates":[-122.329464,47.3008]}},{"properties":{"city":"Fort Collins","isbn":375725784.0,"latitude":40.581505,"book-rating":6.0,"title":"A Heartbreaking Work of Staggering Genius","user-id":211761.0,"longitude":-105.076264,"id":"a69cakeqhaw7","state":"Colorado"},"type":"Feature","geometry":{"type":"Point","coordinates":[-105.076264,40.581505]}},{"properties":{"city":"London","isbn":375725784.0,"latitude":42.986895,"book-rating":8.0,"title":"A Heartbreaking Work of Staggering Genius","user-id":21418.0,"longitude":-81.246214,"id":"a69cakjxusdy","state":"Ontario"},"type":"Feature","geometry":{"type":"Point","coordinates":[-81.246214,42.986895]}},{"properties":{"city":"Albuquerque","isbn":375725784.0,"latitude":35.08418,"book-rating":10.0,"title":"A Heartbreaking Work of Staggering Genius","user-id":215753.0,"longitude":-106.648639,"id":"a69cakk1r74c","state":"New Mexico"},"type":"Feature","geometry":{"type":"Point","coordinates":[-106.648639,35.08418]}},{"properties":{"city":"Quincy","isbn":684863472.0,"latitude":42.252285,"book-rating":3.0,"title":"A Heartbreaking Work Of Staggering Genius : A Memoir Based on a True Story","user-id":216955.0,"longitude":-71.004164,"id":"a69cakh330kw","state":"Massachusetts"},"type":"Feature","geometry":{"type":"Point","coordinates":[-71.004164,42.252285]}},{"properties":{"city":"Brookline","isbn":375725784.0,"latitude":42.333473,"book-rating":10.0,"title":"A Heartbreaking Work of Staggering Genius","user-id":220688.0,"longitude":-71.120476,"id":"a69cakh5rbeo","state":"Massachusetts"},"type":"Feature","geometry":{"type":"Point","coordinates":[-71.120476,42.333473]}},{"properties":{"city":"Brooklyn","isbn":375725784.0,"latitude":40.692455,"book-rating":7.0,"title":"A Heartbreaking Work of Staggering Genius","user-id":22177.0,"longitude":-73.990364,"id":"a69cakqjcjim","state":"New York"},"type":"Feature","geometry":{"type":"Point","coordinates":[-73.990364,40.692455]}},{"properties":{"city":"Sherman Oaks","isbn":684863472.0,"latitude":34.151045,"book-rating":5.0,"title":"A Heartbreaking Work Of Staggering Genius : A Memoir Based on a True Story","user-id":223087.0,"longitude":-118.444259,"id":"a69caknbvsij","state":"California"},"type":"Feature","geometry":{"type":"Point","coordinates":[-118.444259,34.151045]}},{"properties":{"city":"San Francisco","isbn":375725784.0,"latitude":37.7796,"book-rating":2.0,"title":"A Heartbreaking Work of Staggering Genius","user-id":225043.0,"longitude":-122.420139,"id":"a69cakp1ily5","state":"California"},"type":"Feature","geometry":{"type":"Point","coordinates":[-122.420139,37.7796]}},{"properties":{"city":"Fort Walton Beach","isbn":375725784.0,"latitude":30.4042,"book-rating":3.0,"title":"A Heartbreaking Work of Staggering Genius","user-id":226202.0,"longitude":-86.614669,"id":"a69cakewy9zh","state":"Florida"},"type":"Feature","geometry":{"type":"Point","coordinates":[-86.614669,30.4042]}},{"properties":{"city":"Roanoke","isbn":375725784.0,"latitude":37.271525,"book-rating":8.0,"title":"A Heartbreaking Work of Staggering Genius","user-id":231210.0,"longitude":-79.940534,"id":"a69cakrl9c06","state":"Virginia"},"type":"Feature","geometry":{"type":"Point","coordinates":[-79.940534,37.271525]}},{"properties":{"city":"Moorhead","isbn":375725784.0,"latitude":46.875045,"book-rating":7.0,"title":"A Heartbreaking Work of Staggering Genius","user-id":235543.0,"longitude":-96.771664,"id":"a69caklp7t6x","state":"Minnesota"},"type":"Feature","geometry":{"type":"Point","coordinates":[-96.771664,46.875045]}},{"properties":{"city":"Philadelphia","isbn":375725784.0,"latitude":39.95227,"book-rating":8.0,"title":"A Heartbreaking Work of Staggering Genius","user-id":2357.0,"longitude":-75.162369,"id":"a69cakr3f3h8","state":"Pennsylvania"},"type":"Feature","geometry":{"type":"Point","coordinates":[-75.162369,39.95227]}},{"properties":{"city":"Oceanside","isbn":375725784.0,"latitude":33.19715,"book-rating":9.0,"title":"A Heartbreaking Work of Staggering Genius","user-id":236017.0,"longitude":-117.380584,"id":"a69cakepka8n","state":"California"},"type":"Feature","geometry":{"type":"Point","coordinates":[-117.380584,33.19715]}},{"properties":{"city":"Richmond","isbn":684863472.0,"latitude":37.5407,"book-rating":10.0,"title":"A Heartbreaking Work Of Staggering Genius : A Memoir Based on a True Story","user-id":236262.0,"longitude":-77.433654,"id":"a69cakkwssuz","state":"Virginia"},"type":"Feature","geometry":{"type":"Point","coordinates":[-77.433654,37.5407]}},{"properties":{"city":"St. John`S","isbn":684863472.0,"latitude":47.56086,"book-rating":9.0,"title":"A Heartbreaking Work Of Staggering Genius : A Memoir Based on a True Story","user-id":238613.0,"longitude":-52.71217,"id":"a69caksn87h3","state":"Newfoundland"},"type":"Feature","geometry":{"type":"Point","coordinates":[-52.71217,47.56086]}},{"properties":{"city":"Columbus","isbn":375725784.0,"latitude":39.96196,"book-rating":5.0,"title":"A Heartbreaking Work of Staggering Genius","user-id":239535.0,"longitude":-83.002984,"id":"a69caktbgqf8","state":"Ohio"},"type":"Feature","geometry":{"type":"Point","coordinates":[-83.002984,39.96196]}},{"properties":{"city":"Los Angeles","isbn":375725784.0,"latitude":34.05349,"book-rating":8.0,"title":"A Heartbreaking Work of Staggering Genius","user-id":243879.0,"longitude":-118.245319,"id":"a69cakku30lx","state":"California"},"type":"Feature","geometry":{"type":"Point","coordinates":[-118.245319,34.05349]}},{"properties":{"city":"Atlanta","isbn":375725784.0,"latitude":33.748315,"book-rating":9.0,"title":"A Heartbreaking Work of Staggering Genius","user-id":245655.0,"longitude":-84.391109,"id":"a69cakt9jtqv","state":"Georgia"},"type":"Feature","geometry":{"type":"Point","coordinates":[-84.391109,33.748315]}},{"properties":{"city":"Lynnwood","isbn":375725784.0,"latitude":47.82532,"book-rating":9.0,"title":"A Heartbreaking Work of Staggering Genius","user-id":246311.0,"longitude":-122.292409,"id":"a69cakg1ypo3","state":"Washington"},"type":"Feature","geometry":{"type":"Point","coordinates":[-122.292409,47.82532]}},{"properties":{"city":"Port Of Spain","isbn":375725784.0,"latitude":10.65715,"book-rating":7.0,"title":"A Heartbreaking Work of Staggering Genius","user-id":247240.0,"longitude":-61.483582,"id":"a69cakmugeiz","state":"Maraval"},"type":"Feature","geometry":{"type":"Point","coordinates":[-61.483582,10.65715]}},{"properties":{"city":"Kingsburg","isbn":375725784.0,"latitude":36.515155,"book-rating":7.0,"title":"A Heartbreaking Work of Staggering Genius","user-id":24846.0,"longitude":-119.552319,"id":"a69caklycado","state":"California"},"type":"Feature","geometry":{"type":"Point","coordinates":[-119.552319,36.515155]}},{"properties":{"city":"Amarillo","isbn":684863472.0,"latitude":35.207255,"book-rating":8.0,"title":"A Heartbreaking Work Of Staggering Genius : A Memoir Based on a True Story","user-id":26435.0,"longitude":-101.833894,"id":"a69cakiduowa","state":"Texas"},"type":"Feature","geometry":{"type":"Point","coordinates":[-101.833894,35.207255]}},{"properties":{"city":"Baltimore","isbn":375725784.0,"latitude":39.290555,"book-rating":7.0,"title":"A Heartbreaking Work of Staggering Genius","user-id":26509.0,"longitude":-76.609604,"id":"a69cakmow33a","state":"Maryland"},"type":"Feature","geometry":{"type":"Point","coordinates":[-76.609604,39.290555]}},{"properties":{"city":"Glen Ellyn","isbn":375725784.0,"latitude":41.875465,"book-rating":7.0,"title":"A Heartbreaking Work of Staggering Genius","user-id":278243.0,"longitude":-88.065729,"id":"a69cakk4hvbm","state":"Illinois"},"type":"Feature","geometry":{"type":"Point","coordinates":[-88.065729,41.875465]}},{"properties":{"city":"Tigard","isbn":375725784.0,"latitude":45.425788,"book-rating":8.0,"title":"A Heartbreaking Work of Staggering Genius","user-id":28269.0,"longitude":-122.765754,"id":"a69caki6shgw","state":"Oregon"},"type":"Feature","geometry":{"type":"Point","coordinates":[-122.765754,45.425788]}},{"properties":{"city":"Minneapolis","isbn":375725784.0,"latitude":44.979035,"book-rating":10.0,"title":"A Heartbreaking Work of Staggering Genius","user-id":28763.0,"longitude":-93.264929,"id":"a69cakt5ms6d","state":"Minnesota"},"type":"Feature","geometry":{"type":"Point","coordinates":[-93.264929,44.979035]}},{"properties":{"city":"Richland","isbn":375725784.0,"latitude":46.274065,"book-rating":3.0,"title":"A Heartbreaking Work of Staggering Genius","user-id":2977.0,"longitude":-119.273729,"id":"a69cakg68i33","state":"Washington"},"type":"Feature","geometry":{"type":"Point","coordinates":[-119.273729,46.274065]}},{"properties":{"city":"Spring","isbn":375725784.0,"latitude":30.084541,"book-rating":8.0,"title":"A Heartbreaking Work of Staggering Genius","user-id":31551.0,"longitude":-95.419283,"id":"a69cakpq5heu","state":"Texas"},"type":"Feature","geometry":{"type":"Point","coordinates":[-95.419283,30.084541]}},{"properties":{"city":"New York","isbn":375725784.0,"latitude":40.71455,"book-rating":7.0,"title":"A Heartbreaking Work of Staggering Genius","user-id":3362.0,"longitude":-74.007124,"id":"a69cakhj9dxx","state":"New York"},"type":"Feature","geometry":{"type":"Point","coordinates":[-74.007124,40.71455]}},{"properties":{"city":"Baton Rouge","isbn":375725784.0,"latitude":30.44336,"book-rating":8.0,"title":"A Heartbreaking Work of Staggering Genius","user-id":35231.0,"longitude":-91.186984,"id":"a69cakh7vbav","state":"Louisiana"},"type":"Feature","geometry":{"type":"Point","coordinates":[-91.186984,30.44336]}},{"properties":{"city":"Hudson","isbn":375725784.0,"latitude":42.764339,"book-rating":5.0,"title":"A Heartbreaking Work of Staggering Genius","user-id":36673.0,"longitude":-71.439034,"id":"a69cakrl03l4","state":"New Hampshire"},"type":"Feature","geometry":{"type":"Point","coordinates":[-71.439034,42.764339]}},{"properties":{"city":"Rockland","isbn":684863472.0,"latitude":42.128985,"book-rating":7.0,"title":"A Heartbreaking Work Of Staggering Genius : A Memoir Based on a True Story","user-id":37954.0,"longitude":-70.915274,"id":"a69caki2wmi6","state":"Massachusetts"},"type":"Feature","geometry":{"type":"Point","coordinates":[-70.915274,42.128985]}},{"properties":{"city":"San Diego","isbn":375725784.0,"latitude":32.715685,"book-rating":10.0,"title":"A Heartbreaking Work of Staggering Genius","user-id":38933.0,"longitude":-117.161724,"id":"a69cakow0wre","state":"California"},"type":"Feature","geometry":{"type":"Point","coordinates":[-117.161724,32.715685]}},{"properties":{"city":"San Mateo","isbn":375725784.0,"latitude":37.54703,"book-rating":9.0,"title":"A Heartbreaking Work of Staggering Genius","user-id":39723.0,"longitude":-122.314834,"id":"a69cakrad8pr","state":"California"},"type":"Feature","geometry":{"type":"Point","coordinates":[-122.314834,37.54703]}},{"properties":{"city":"The Woodlands","isbn":375725784.0,"latitude":30.15752,"book-rating":8.0,"title":"A Heartbreaking Work of Staggering Genius","user-id":40350.0,"longitude":-95.455772,"id":"a69cakruqhmn","state":"Texas"},"type":"Feature","geometry":{"type":"Point","coordinates":[-95.455772,30.15752]}},{"properties":{"city":"Fresno","isbn":375725784.0,"latitude":36.740685,"book-rating":8.0,"title":"A Heartbreaking Work of Staggering Genius","user-id":43004.0,"longitude":-119.785734,"id":"a69cakkjdj6k","state":"California"},"type":"Feature","geometry":{"type":"Point","coordinates":[-119.785734,36.740685]}},{"properties":{"city":"Hillsboro","isbn":375725784.0,"latitude":45.522675,"book-rating":9.0,"title":"A Heartbreaking Work of Staggering Genius","user-id":44718.0,"longitude":-122.990499,"id":"a69cakh4yfa4","state":"Oregon"},"type":"Feature","geometry":{"type":"Point","coordinates":[-122.990499,45.522675]}},{"properties":{"city":"Spring","isbn":375725784.0,"latitude":30.084541,"book-rating":8.0,"title":"A Heartbreaking Work of Staggering Genius","user-id":44852.0,"longitude":-95.419283,"id":"a69cakqrkrc2","state":"Texas"},"type":"Feature","geometry":{"type":"Point","coordinates":[-95.419283,30.084541]}},{"properties":{"city":"Ann Arbor","isbn":375725784.0,"latitude":42.281875,"book-rating":9.0,"title":"A Heartbreaking Work of Staggering Genius","user-id":46154.0,"longitude":-83.748479,"id":"a69cakgwzy7d","state":"Michigan"},"type":"Feature","geometry":{"type":"Point","coordinates":[-83.748479,42.281875]}},{"properties":{"city":"Central Sq.","isbn":375725784.0,"latitude":43.285542,"book-rating":5.0,"title":"A Heartbreaking Work of Staggering Genius","user-id":48046.0,"longitude":-76.145813,"id":"a69cako4zvgv","state":"New York"},"type":"Feature","geometry":{"type":"Point","coordinates":[-76.145813,43.285542]}},{"properties":{"city":"Carlsbad","isbn":375725784.0,"latitude":33.165887,"book-rating":8.0,"title":"A Heartbreaking Work of Staggering Genius","user-id":53400.0,"longitude":-117.338225,"id":"a69caklwplcf","state":"California"},"type":"Feature","geometry":{"type":"Point","coordinates":[-117.338225,33.165887]}},{"properties":{"city":"Amsterdam","isbn":375725784.0,"latitude":52.373119,"book-rating":8.0,"title":"A Heartbreaking Work of Staggering Genius","user-id":54968.0,"longitude":4.89319,"id":"a69caknfyppd","state":"Massachusetts"},"type":"Feature","geometry":{"type":"Point","coordinates":[4.89319,52.373119]}},{"properties":{"city":"Cambridge","isbn":375725784.0,"latitude":19.59009,"book-rating":7.0,"title":"A Heartbreaking Work of Staggering Genius","user-id":60004.0,"longitude":-155.434143,"id":"a69cakrwamo6","state":"Hawaii"},"type":"Feature","geometry":{"type":"Point","coordinates":[-155.434143,19.59009]}},{"properties":{"city":"Lake Placid","isbn":375725784.0,"latitude":27.296695,"book-rating":10.0,"title":"A Heartbreaking Work of Staggering Genius","user-id":61257.0,"longitude":-81.366659,"id":"a69cakrnj0qr","state":"Florida"},"type":"Feature","geometry":{"type":"Point","coordinates":[-81.366659,27.296695]}},{"properties":{"city":"Wahiawa","isbn":375725784.0,"latitude":21.49765,"book-rating":4.0,"title":"A Heartbreaking Work of Staggering Genius","user-id":6251.0,"longitude":-158.025549,"id":"a69caktt3brl","state":"Hawaii"},"type":"Feature","geometry":{"type":"Point","coordinates":[-158.025549,21.49765]}},{"properties":{"city":"Seattle","isbn":375725784.0,"latitude":47.60356,"book-rating":7.0,"title":"A Heartbreaking Work of Staggering Genius","user-id":6575.0,"longitude":-122.329439,"id":"a69cakjlo7q8","state":"Washington"},"type":"Feature","geometry":{"type":"Point","coordinates":[-122.329439,47.60356]}},{"properties":{"city":"New York","isbn":684863472.0,"latitude":40.71455,"book-rating":6.0,"title":"A Heartbreaking Work Of Staggering Genius : A Memoir Based on a True Story","user-id":69078.0,"longitude":-74.007124,"id":"a69cakrum701","state":"New York"},"type":"Feature","geometry":{"type":"Point","coordinates":[-74.007124,40.71455]}},{"properties":{"city":"Cambridge","isbn":684863472.0,"latitude":42.36679,"book-rating":6.0,"title":"A Heartbreaking Work Of Staggering Genius : A Memoir Based on a True Story","user-id":69275.0,"longitude":-71.106019,"id":"a69cakswx440","state":"Massachusetts"},"type":"Feature","geometry":{"type":"Point","coordinates":[-71.106019,42.36679]}},{"properties":{"city":"Nebraska City","isbn":684863472.0,"latitude":40.677145,"book-rating":6.0,"title":"A Heartbreaking Work Of Staggering Genius : A Memoir Based on a True Story","user-id":69389.0,"longitude":-95.858899,"id":"a69caksxvp1n","state":"Nebraska"},"type":"Feature","geometry":{"type":"Point","coordinates":[-95.858899,40.677145]}},{"properties":{"city":"Springfield","isbn":375725784.0,"latitude":37.208975,"book-rating":8.0,"title":"A Heartbreaking Work of Staggering Genius","user-id":69466.0,"longitude":-93.291564,"id":"a69caknoo19y","state":"Missouri"},"type":"Feature","geometry":{"type":"Point","coordinates":[-93.291564,37.208975]}},{"properties":{"city":"Mechanicsburg","isbn":375725784.0,"latitude":40.2132,"book-rating":3.0,"title":"A Heartbreaking Work of Staggering Genius","user-id":70603.0,"longitude":-77.008339,"id":"a69caki94zwb","state":"Pennsylvania"},"type":"Feature","geometry":{"type":"Point","coordinates":[-77.008339,40.2132]}},{"properties":{"city":"Ypsilanti","isbn":375725784.0,"latitude":42.24088,"book-rating":6.0,"title":"A Heartbreaking Work of Staggering Genius","user-id":70689.0,"longitude":-83.613089,"id":"a69cakk5dgrn","state":"Michigan"},"type":"Feature","geometry":{"type":"Point","coordinates":[-83.613089,42.24088]}},{"properties":{"city":"Arlington","isbn":375725784.0,"latitude":38.89051,"book-rating":8.0,"title":"A Heartbreaking Work of Staggering Genius","user-id":72530.0,"longitude":-77.086294,"id":"a69caktiboaf","state":"Virginia"},"type":"Feature","geometry":{"type":"Point","coordinates":[-77.086294,38.89051]}},{"properties":{"city":"Metuchen","isbn":375725784.0,"latitude":40.544165,"book-rating":3.0,"title":"A Heartbreaking Work of Staggering Genius","user-id":77359.0,"longitude":-74.363029,"id":"a69cakmz6wdx","state":"New Jersey"},"type":"Feature","geometry":{"type":"Point","coordinates":[-74.363029,40.544165]}},{"properties":{"city":"Atlantic Highlands","isbn":684863472.0,"latitude":40.41276,"book-rating":10.0,"title":"A Heartbreaking Work Of Staggering Genius : A Memoir Based on a True Story","user-id":77809.0,"longitude":-74.038269,"id":"a69cakp4cra7","state":"New Jersey"},"type":"Feature","geometry":{"type":"Point","coordinates":[-74.038269,40.41276]}},{"properties":{"city":"Lowell","isbn":684863472.0,"latitude":42.64589,"book-rating":6.0,"title":"A Heartbreaking Work Of Staggering Genius : A Memoir Based on a True Story","user-id":79941.0,"longitude":-71.312844,"id":"a69cakemso08","state":"Massachusetts"},"type":"Feature","geometry":{"type":"Point","coordinates":[-71.312844,42.64589]}},{"properties":{"city":"Santa Rosa","isbn":375725784.0,"latitude":38.437731,"book-rating":9.0,"title":"A Heartbreaking Work of Staggering Genius","user-id":81661.0,"longitude":-122.712427,"id":"a69cakpx1cvv","state":null},"type":"Feature","geometry":{"type":"Point","coordinates":[-122.712427,38.437731]}},{"properties":{"city":"Seattle","isbn":375725784.0,"latitude":47.60356,"book-rating":6.0,"title":"A Heartbreaking Work of Staggering Genius","user-id":83572.0,"longitude":-122.329439,"id":"a69cakg6yg5a","state":"Washington"},"type":"Feature","geometry":{"type":"Point","coordinates":[-122.329439,47.60356]}},{"properties":{"city":"Ephrata","isbn":375725784.0,"latitude":40.17855,"book-rating":8.0,"title":"A Heartbreaking Work of Staggering Genius","user-id":83941.0,"longitude":-76.177139,"id":"a69caklp29ah","state":"Pennsylvania"},"type":"Feature","geometry":{"type":"Point","coordinates":[-76.177139,40.17855]}},{"properties":{"city":"Apopka","isbn":375725784.0,"latitude":28.67312,"book-rating":5.0,"title":"A Heartbreaking Work of Staggering Genius","user-id":84523.0,"longitude":-81.507604,"id":"a69cakrttlvc","state":null},"type":"Feature","geometry":{"type":"Point","coordinates":[-81.507604,28.67312]}},{"properties":{"city":"San Francisco","isbn":375725784.0,"latitude":37.7796,"book-rating":5.0,"title":"A Heartbreaking Work of Staggering Genius","user-id":84615.0,"longitude":-122.420139,"id":"a69cakhom2rr","state":"California"},"type":"Feature","geometry":{"type":"Point","coordinates":[-122.420139,37.7796]}},{"properties":{"city":"Chicago","isbn":375725784.0,"latitude":41.88415,"book-rating":6.0,"title":"A Heartbreaking Work of Staggering Genius","user-id":85194.0,"longitude":-87.632409,"id":"a69cakp7gj6y","state":"Illinois"},"type":"Feature","geometry":{"type":"Point","coordinates":[-87.632409,41.88415]}},{"properties":{"city":"Pawtucket","isbn":375725784.0,"latitude":41.879223,"book-rating":9.0,"title":"A Heartbreaking Work of Staggering Genius","user-id":85757.0,"longitude":-71.382481,"id":"a69caktlxuef","state":"Rhode Island"},"type":"Feature","geometry":{"type":"Point","coordinates":[-71.382481,41.879223]}},{"properties":{"city":"Arcata","isbn":375725784.0,"latitude":40.86743,"book-rating":5.0,"title":"A Heartbreaking Work of Staggering Genius","user-id":88793.0,"longitude":-124.085154,"id":"a69caknj6uyl","state":"California"},"type":"Feature","geometry":{"type":"Point","coordinates":[-124.085154,40.86743]}},{"properties":{"city":"Denver","isbn":375725784.0,"latitude":39.74001,"book-rating":7.0,"title":"A Heartbreaking Work of Staggering Genius","user-id":9174.0,"longitude":-104.992259,"id":"a69caktl268f","state":"Colorado"},"type":"Feature","geometry":{"type":"Point","coordinates":[-104.992259,39.74001]}},{"properties":{"city":"Vancouver","isbn":375725784.0,"latitude":49.26044,"book-rating":7.0,"title":"A Heartbreaking Work of Staggering Genius","user-id":92861.0,"longitude":-123.114034,"id":"a69caku47gus","state":"British Columbia"},"type":"Feature","geometry":{"type":"Point","coordinates":[-123.114034,49.26044]}},{"properties":{"city":"Charleston","isbn":375725784.0,"latitude":38.350195,"book-rating":9.0,"title":"A Heartbreaking Work of Staggering Genius","user-id":95359.0,"longitude":-81.638989,"id":"a69cakmq3idb","state":"West Virginia"},"type":"Feature","geometry":{"type":"Point","coordinates":[-81.638989,38.350195]}},{"properties":{"city":"Merced","isbn":684863472.0,"latitude":37.30127,"book-rating":6.0,"title":"A Heartbreaking Work Of Staggering Genius : A Memoir Based on a True Story","user-id":96362.0,"longitude":-120.486199,"id":"a69cakl4k2ni","state":"California"},"type":"Feature","geometry":{"type":"Point","coordinates":[-120.486199,37.30127]}},{"properties":{"city":"Rochester","isbn":375725784.0,"latitude":43.1555,"book-rating":6.0,"title":"A Heartbreaking Work of Staggering Genius","user-id":96440.0,"longitude":-77.616033,"id":"a69caksmk0b0","state":"New York"},"type":"Feature","geometry":{"type":"Point","coordinates":[-77.616033,43.1555]}}],"is_temporal":false,"author":{"url":"http://www.informatik.uni-freiburg.de/~cziegler/BX/","metadata":"http://www.informatik.uni-freiburg.de/~cziegler/BX/","contact_name":"","contact_address":"","source":"Institut fr Informatik, Universitt Freiburg","contact_phone":""},"source":"http://www.informatik.uni-freiburg.de/~cziegler/BX/","pagination":{"sort":null,"start":0,"total":157,"limit":1000000},"state":"complete","tags":"bookcrossing,books,global,reviews","published":"2005-01-01T17:00:00Z","id":19851}