{"type":"FeatureCollection","data_type":"Dataset","url_type":null,"permissions":[{"permissions":{"download":true,"view":true},"group_id":"everyone"}],"classification":null,"title":"Cold Mountain, International Reviews, Book-Crossing Dataset","count":215,"stream_id":19935,"contributor":{"url":"http://geocommons.com/users/2943","name":"Margot"},"data_attributes":null,"calculation_params":null,"icon_link":null,"link":"http://geocommons.com/overlays/19935.json","extent":[-157.858,-27.445,152.953,61.2176],"geometry_types":["point"],"unique_name":null,"name":"Cold Mountain, International Reviews, Book-Crossing Dataset","feature_count":215,"description":"Collected by Cai-Nicolas Ziegler in a 4-week crawl (August / September 2004) from the Book-Crossing community with kind permission from Ron Hornbaker, CTO of Humankind Systems. Contains 278,858 users (anonymized but with demographic information) providing 1,149,780 ratings (explicit / implicit) about 271,379 books.\n\n[ ! ] Freely available for research use when acknowledged with the following reference (further details on the dataset are given in this publication):\nImproving Recommendation Lists Through Topic Diversification,\nCai-Nicolas Ziegler, Sean M. McNee, Joseph A. Konstan, Georg Lausen; Proceedings of the 14th International World Wide Web Conference (WWW '05), May 10-14, 2005, Chiba, Japan. To appear.\n\nContains the book rating information. Ratings (`Book-Rating`) are either explicit, expressed on a scale from 1-10 (higher values denoting higher appreciation), or implicit, expressed by 0.","next_feature":null,"is_raster":false,"short_classification":"Y","stats":{"isbn":{"max":1400077826.0,"mean":623411171.32093,"variance":1.04197869910361e+17,"stdev":322796948.421698,"min":375700757.0,"median":375700757.0},"latitude":{"max":61.21759,"mean":39.3170284930233,"variance":87.4864928029521,"stdev":9.35342144901811,"min":-27.444981,"median":40.01574},"book-rating":{"max":10.0,"mean":7.84651162790698,"variance":3.41091067159313,"stdev":1.84686509295972,"min":1.0,"median":8.0},"user-id":{"max":250510.0,"mean":120567.451162791,"variance":4777656866.49176,"stdev":69120.5965432284,"min":3977.0,"median":121594.0},"longitude":{"max":152.953186,"mean":-85.9367443162791,"variance":1842.80323040865,"stdev":42.9278840662878,"min":-157.857614,"median":-86.534244}},"features":[{"properties":{"city":"Medford","isbn":871136791.0,"latitude":42.32356,"book-rating":8.0,"title":"Cold Mountain","user-id":100984.0,"longitude":-122.875614,"id":"a6237cdr6aw5","state":"Oregon"},"type":"Feature","geometry":{"type":"Point","coordinates":[-122.875614,42.32356]}},{"properties":{"city":"Beaverton","isbn":375700757.0,"latitude":45.484895,"book-rating":6.0,"title":"Cold Mountain : A Novel","user-id":10314.0,"longitude":-122.796153,"id":"a6237c9ett4p","state":"Oregon"},"type":"Feature","geometry":{"type":"Point","coordinates":[-122.796153,45.484895]}},{"properties":{"city":"Chicago","isbn":375700757.0,"latitude":41.88415,"book-rating":9.0,"title":"Cold Mountain : A Novel","user-id":10447.0,"longitude":-87.632409,"id":"a6237c1vpxxw","state":"Illinois"},"type":"Feature","geometry":{"type":"Point","coordinates":[-87.632409,41.88415]}},{"properties":{"city":"Bloomington","isbn":375700757.0,"latitude":39.16659,"book-rating":7.0,"title":"Cold Mountain : A Novel","user-id":106114.0,"longitude":-86.534244,"id":"a6237c7kqfwc","state":"Indiana"},"type":"Feature","geometry":{"type":"Point","coordinates":[-86.534244,39.16659]}},{"properties":{"city":"Albuquerque","isbn":871136791.0,"latitude":35.08418,"book-rating":8.0,"title":"Cold Mountain","user-id":107140.0,"longitude":-106.648639,"id":"a6237capjc4i","state":"New Mexico"},"type":"Feature","geometry":{"type":"Point","coordinates":[-106.648639,35.08418]}},{"properties":{"city":"Anchorage","isbn":871136791.0,"latitude":61.21759,"book-rating":8.0,"title":"Cold Mountain","user-id":107324.0,"longitude":-149.858354,"id":"a6237cgo2mqc","state":"Alaska"},"type":"Feature","geometry":{"type":"Point","coordinates":[-149.858354,61.21759]}},{"properties":{"city":"Littleton","isbn":375700757.0,"latitude":39.616905,"book-rating":7.0,"title":"Cold Mountain : A Novel","user-id":110803.0,"longitude":-105.014519,"id":"a6237c2siywt","state":"Colorado"},"type":"Feature","geometry":{"type":"Point","coordinates":[-105.014519,39.616905]}},{"properties":{"city":"Kirkland","isbn":375700757.0,"latitude":47.678855,"book-rating":7.0,"title":"Cold Mountain : A Novel","user-id":110934.0,"longitude":-122.207244,"id":"a6237c2m0l9i","state":"Washington"},"type":"Feature","geometry":{"type":"Point","coordinates":[-122.207244,47.678855]}},{"properties":{"city":"Wiley Ford","isbn":871136791.0,"latitude":39.611345,"book-rating":9.0,"title":"Cold Mountain","user-id":110973.0,"longitude":-78.775664,"id":"a6237cgv671j","state":"West Virginia"},"type":"Feature","geometry":{"type":"Point","coordinates":[-78.775664,39.611345]}},{"properties":{"city":"Belton","isbn":375700757.0,"latitude":31.0569,"book-rating":5.0,"title":"Cold Mountain : A Novel","user-id":111190.0,"longitude":-97.463609,"id":"a6237c9yo7ku","state":"Texas"},"type":"Feature","geometry":{"type":"Point","coordinates":[-97.463609,31.0569]}},{"properties":{"city":"Asheville","isbn":375700757.0,"latitude":35.59846,"book-rating":8.0,"title":"Cold Mountain : A Novel","user-id":111536.0,"longitude":-82.553144,"id":"a6237cbf9qap","state":"North Carolina"},"type":"Feature","geometry":{"type":"Point","coordinates":[-82.553144,35.59846]}},{"properties":{"city":"Barren Springs","isbn":375700757.0,"latitude":36.906377,"book-rating":10.0,"title":"Cold Mountain : A Novel","user-id":112001.0,"longitude":-80.801478,"id":"a6237ceih5gq","state":"Virginia"},"type":"Feature","geometry":{"type":"Point","coordinates":[-80.801478,36.906377]}},{"properties":{"city":"White Bear Lake","isbn":375700757.0,"latitude":45.082699,"book-rating":5.0,"title":"Cold Mountain : A Novel","user-id":112088.0,"longitude":-93.012316,"id":"a6237cd2c1qm","state":"Minnesota"},"type":"Feature","geometry":{"type":"Point","coordinates":[-93.012316,45.082699]}},{"properties":{"city":"Seattle","isbn":375700757.0,"latitude":47.60356,"book-rating":8.0,"title":"Cold Mountain : A Novel","user-id":113885.0,"longitude":-122.329439,"id":"a6237c6qygiq","state":"Washington"},"type":"Feature","geometry":{"type":"Point","coordinates":[-122.329439,47.60356]}},{"properties":{"city":"Springfield","isbn":375700757.0,"latitude":37.208975,"book-rating":10.0,"title":"Cold Mountain : A Novel","user-id":113913.0,"longitude":-93.291564,"id":"a6237cdokmda","state":"Missouri"},"type":"Feature","geometry":{"type":"Point","coordinates":[-93.291564,37.208975]}},{"properties":{"city":"Antelope","isbn":375700757.0,"latitude":38.711999,"book-rating":6.0,"title":"Cold Mountain : A Novel","user-id":114544.0,"longitude":-121.364354,"id":"a6237cczgat4","state":"California"},"type":"Feature","geometry":{"type":"Point","coordinates":[-121.364354,38.711999]}},{"properties":{"city":"Temple","isbn":375700757.0,"latitude":31.097475,"book-rating":5.0,"title":"Cold Mountain : A Novel","user-id":114988.0,"longitude":-97.343034,"id":"a6237c2d7l81","state":"Texas"},"type":"Feature","geometry":{"type":"Point","coordinates":[-97.343034,31.097475]}},{"properties":{"city":"Asheville","isbn":375700757.0,"latitude":35.59846,"book-rating":8.0,"title":"Cold Mountain : A Novel","user-id":115003.0,"longitude":-82.553144,"id":"a6237ca06keb","state":"North Carolina"},"type":"Feature","geometry":{"type":"Point","coordinates":[-82.553144,35.59846]}},{"properties":{"city":"Groveland","isbn":871136791.0,"latitude":37.839353,"book-rating":8.0,"title":"Cold Mountain","user-id":115150.0,"longitude":-120.229593,"id":"a6237c48nn2w","state":"California"},"type":"Feature","geometry":{"type":"Point","coordinates":[-120.229593,37.839353]}},{"properties":{"city":"Blacksburg","isbn":871136791.0,"latitude":37.226263,"book-rating":9.0,"title":"Cold Mountain","user-id":115692.0,"longitude":-80.410584,"id":"a6237c1k7wf3","state":"Virginia"},"type":"Feature","geometry":{"type":"Point","coordinates":[-80.410584,37.226263]}},{"properties":{"city":"Cornelius","isbn":871136791.0,"latitude":45.52177,"book-rating":7.0,"title":"Cold Mountain","user-id":116123.0,"longitude":-123.055184,"id":"a6237c2qiwbp","state":"Oregon"},"type":"Feature","geometry":{"type":"Point","coordinates":[-123.055184,45.52177]}},{"properties":{"city":"Brooklyn","isbn":375700757.0,"latitude":40.692455,"book-rating":8.0,"title":"Cold Mountain : A Novel","user-id":118193.0,"longitude":-73.990364,"id":"a6237ca2p29o","state":"New York"},"type":"Feature","geometry":{"type":"Point","coordinates":[-73.990364,40.692455]}},{"properties":{"city":"Louisville","isbn":375700757.0,"latitude":38.25486,"book-rating":9.0,"title":"Cold Mountain : A Novel","user-id":118654.0,"longitude":-85.766404,"id":"a6237cdv6wdh","state":"Kentucky"},"type":"Feature","geometry":{"type":"Point","coordinates":[-85.766404,38.25486]}},{"properties":{"city":"New York","isbn":375700757.0,"latitude":40.71455,"book-rating":8.0,"title":"Cold Mountain : A Novel","user-id":118871.0,"longitude":-74.007124,"id":"a6237cekobiu","state":"New York"},"type":"Feature","geometry":{"type":"Point","coordinates":[-74.007124,40.71455]}},{"properties":{"city":"Salt Lake City","isbn":871136791.0,"latitude":40.759505,"book-rating":8.0,"title":"Cold Mountain","user-id":120987.0,"longitude":-111.888229,"id":"a6237cfdoidz","state":"Utah"},"type":"Feature","geometry":{"type":"Point","coordinates":[-111.888229,40.759505]}},{"properties":{"city":"Arlington","isbn":375700757.0,"latitude":38.89051,"book-rating":6.0,"title":"Cold Mountain : A Novel","user-id":121170.0,"longitude":-77.086294,"id":"a6237c1yi58g","state":"Virginia"},"type":"Feature","geometry":{"type":"Point","coordinates":[-77.086294,38.89051]}},{"properties":{"city":"North Vancouver","isbn":871136791.0,"latitude":49.321065,"book-rating":7.0,"title":"Cold Mountain","user-id":12137.0,"longitude":-123.074159,"id":"a6237ceupd5f","state":"British Columbia"},"type":"Feature","geometry":{"type":"Point","coordinates":[-123.074159,49.321065]}},{"properties":{"city":"Columbia","isbn":871136791.0,"latitude":33.99855,"book-rating":10.0,"title":"Cold Mountain","user-id":121594.0,"longitude":-81.045249,"id":"a6237cgbrbxf","state":"South Carolina"},"type":"Feature","geometry":{"type":"Point","coordinates":[-81.045249,33.99855]}},{"properties":{"city":"Juneau","isbn":375700757.0,"latitude":58.369475,"book-rating":8.0,"title":"Cold Mountain : A Novel","user-id":122781.0,"longitude":-134.584199,"id":"a6237capcbzg","state":"Alaska"},"type":"Feature","geometry":{"type":"Point","coordinates":[-134.584199,58.369475]}},{"properties":{"city":"Los Angeles","isbn":871136791.0,"latitude":34.05349,"book-rating":9.0,"title":"Cold Mountain","user-id":123801.0,"longitude":-118.245319,"id":"a6237caegaiu","state":"California"},"type":"Feature","geometry":{"type":"Point","coordinates":[-118.245319,34.05349]}},{"properties":{"city":"Manassas","isbn":375700757.0,"latitude":38.751195,"book-rating":10.0,"title":"Cold Mountain : A Novel","user-id":124204.0,"longitude":-77.471119,"id":"a6237c13370m","state":"Virginia"},"type":"Feature","geometry":{"type":"Point","coordinates":[-77.471119,38.751195]}},{"properties":{"city":"Stockton","isbn":871136791.0,"latitude":37.95362,"book-rating":9.0,"title":"Cold Mountain","user-id":124298.0,"longitude":-121.290719,"id":"a6237c8ujpn5","state":"California"},"type":"Feature","geometry":{"type":"Point","coordinates":[-121.290719,37.95362]}},{"properties":{"city":"Fayetteville","isbn":375700757.0,"latitude":35.054495,"book-rating":10.0,"title":"Cold Mountain : A Novel","user-id":125216.0,"longitude":-78.877579,"id":"a6237c5fpp44","state":"North Carolina"},"type":"Feature","geometry":{"type":"Point","coordinates":[-78.877579,35.054495]}},{"properties":{"city":"Bristol","isbn":871136791.0,"latitude":36.591934,"book-rating":10.0,"title":"Cold Mountain","user-id":127063.0,"longitude":-82.221273,"id":"a6237c4616sb","state":"Tennessee"},"type":"Feature","geometry":{"type":"Point","coordinates":[-82.221273,36.591934]}},{"properties":{"city":"Kill Devil Hills","isbn":375700757.0,"latitude":36.013655,"book-rating":8.0,"title":"Cold Mountain : A Novel","user-id":127621.0,"longitude":-75.657094,"id":"a6237calzqcs","state":"North Carolina"},"type":"Feature","geometry":{"type":"Point","coordinates":[-75.657094,36.013655]}},{"properties":{"city":"Alvin","isbn":375700757.0,"latitude":29.42381,"book-rating":1.0,"title":"Cold Mountain : A Novel","user-id":128332.0,"longitude":-95.245379,"id":"a6237cd4yh2h","state":"Texas"},"type":"Feature","geometry":{"type":"Point","coordinates":[-95.245379,29.42381]}},{"properties":{"city":"Portland","isbn":375700757.0,"latitude":45.511795,"book-rating":8.0,"title":"Cold Mountain : A Novel","user-id":129883.0,"longitude":-122.675629,"id":"a6237ceogioe","state":"Oregon"},"type":"Feature","geometry":{"type":"Point","coordinates":[-122.675629,45.511795]}},{"properties":{"city":"Flemington","isbn":375700757.0,"latitude":40.510325,"book-rating":1.0,"title":"Cold Mountain : A Novel","user-id":130063.0,"longitude":-74.860994,"id":"a6237cdpoju0","state":"New Jersey"},"type":"Feature","geometry":{"type":"Point","coordinates":[-74.860994,40.510325]}},{"properties":{"city":"Denver","isbn":375700757.0,"latitude":39.74001,"book-rating":7.0,"title":"Cold Mountain : A Novel","user-id":132375.0,"longitude":-104.992259,"id":"a6237ccslkhh","state":"Colorado"},"type":"Feature","geometry":{"type":"Point","coordinates":[-104.992259,39.74001]}},{"properties":{"city":"Lakewood","isbn":375700757.0,"latitude":39.71095,"book-rating":8.0,"title":"Cold Mountain : A Novel","user-id":13280.0,"longitude":-105.082738,"id":"a6237cf2wqa2","state":"Colorado"},"type":"Feature","geometry":{"type":"Point","coordinates":[-105.082738,39.71095]}},{"properties":{"city":"Bolton","isbn":1400077826.0,"latitude":42.433102,"book-rating":6.0,"title":"Cold Mountain (MTI) (Vintage Contemporaries)","user-id":133246.0,"longitude":-71.60772,"id":"a6237cefl09y","state":"Massachusetts"},"type":"Feature","geometry":{"type":"Point","coordinates":[-71.60772,42.433102]}},{"properties":{"city":"Statesville","isbn":871136791.0,"latitude":35.78577,"book-rating":9.0,"title":"Cold Mountain","user-id":133435.0,"longitude":-80.888924,"id":"a6237ceb0j8q","state":"0"},"type":"Feature","geometry":{"type":"Point","coordinates":[-80.888924,35.78577]}},{"properties":{"city":"Gaithersburg","isbn":871136791.0,"latitude":39.139866,"book-rating":8.0,"title":"Cold Mountain","user-id":133747.0,"longitude":-77.193829,"id":"a6237c75vg4t","state":"Maryland"},"type":"Feature","geometry":{"type":"Point","coordinates":[-77.193829,39.139866]}},{"properties":{"city":"Arlington","isbn":375700757.0,"latitude":38.89051,"book-rating":5.0,"title":"Cold Mountain : A Novel","user-id":133790.0,"longitude":-77.086294,"id":"a6237c4ktyub","state":"Virginia"},"type":"Feature","geometry":{"type":"Point","coordinates":[-77.086294,38.89051]}},{"properties":{"city":"Potomac Falls","isbn":375700757.0,"latitude":39.051731,"book-rating":9.0,"title":"Cold Mountain : A Novel","user-id":135831.0,"longitude":-77.397499,"id":"a6237ca8rv8m","state":"Virginia"},"type":"Feature","geometry":{"type":"Point","coordinates":[-77.397499,39.051731]}},{"properties":{"city":"Los Angeles","isbn":871136791.0,"latitude":34.05349,"book-rating":10.0,"title":"Cold Mountain","user-id":136193.0,"longitude":-118.245319,"id":"a6237c3rdd1f","state":"California"},"type":"Feature","geometry":{"type":"Point","coordinates":[-118.245319,34.05349]}},{"properties":{"city":"Rio Rancho","isbn":375700757.0,"latitude":35.24158,"book-rating":8.0,"title":"Cold Mountain : A Novel","user-id":136491.0,"longitude":-106.660029,"id":"a6237cg0hxsp","state":"New Mexico"},"type":"Feature","geometry":{"type":"Point","coordinates":[-106.660029,35.24158]}},{"properties":{"city":"Washington","isbn":375700757.0,"latitude":38.89037,"book-rating":9.0,"title":"Cold Mountain : A Novel","user-id":137426.0,"longitude":-77.031959,"id":"a6237cgs2xty","state":"Dc"},"type":"Feature","geometry":{"type":"Point","coordinates":[-77.031959,38.89037]}},{"properties":{"city":"Anchorage","isbn":375700757.0,"latitude":61.21759,"book-rating":9.0,"title":"Cold Mountain : A Novel","user-id":138379.0,"longitude":-149.858354,"id":"a6237ceas5tm","state":"Alaska"},"type":"Feature","geometry":{"type":"Point","coordinates":[-149.858354,61.21759]}},{"properties":{"city":"Betterton","isbn":375700757.0,"latitude":39.369955,"book-rating":10.0,"title":"Cold Mountain : A Novel","user-id":138737.0,"longitude":-76.062829,"id":"a6237camcmka","state":"Maryland"},"type":"Feature","geometry":{"type":"Point","coordinates":[-76.062829,39.369955]}},{"properties":{"city":"Elk Grove","isbn":375700757.0,"latitude":38.40901,"book-rating":5.0,"title":"Cold Mountain : A Novel","user-id":139206.0,"longitude":-121.365619,"id":"a6237c54i9w3","state":"California"},"type":"Feature","geometry":{"type":"Point","coordinates":[-121.365619,38.40901]}},{"properties":{"city":"Mountaintop","isbn":871136791.0,"latitude":41.17594,"book-rating":10.0,"title":"Cold Mountain","user-id":139571.0,"longitude":-75.881208,"id":"a6237c94nd8k","state":"Pennsylvania"},"type":"Feature","geometry":{"type":"Point","coordinates":[-75.881208,41.17594]}},{"properties":{"city":"Altamont","isbn":871136791.0,"latitude":42.70596,"book-rating":7.0,"title":"Cold Mountain","user-id":145850.0,"longitude":-74.033859,"id":"a6237cekyty3","state":"New York"},"type":"Feature","geometry":{"type":"Point","coordinates":[-74.033859,42.70596]}},{"properties":{"city":"Lake Wales","isbn":871136791.0,"latitude":27.90126,"book-rating":10.0,"title":"Cold Mountain","user-id":147965.0,"longitude":-81.594142,"id":"a6237c28phui","state":"Florida"},"type":"Feature","geometry":{"type":"Point","coordinates":[-81.594142,27.90126]}},{"properties":{"city":"Campbellsport","isbn":375700757.0,"latitude":43.59811,"book-rating":9.0,"title":"Cold Mountain : A Novel","user-id":148744.0,"longitude":-88.283704,"id":"a6237c2psgv2","state":"Wisconsin"},"type":"Feature","geometry":{"type":"Point","coordinates":[-88.283704,43.59811]}},{"properties":{"city":"Santa Monica","isbn":375700757.0,"latitude":34.011565,"book-rating":8.0,"title":"Cold Mountain : A Novel","user-id":148928.0,"longitude":-118.492289,"id":"a6237c6abdn5","state":null},"type":"Feature","geometry":{"type":"Point","coordinates":[-118.492289,34.011565]}},{"properties":{"city":"Burnsville","isbn":375700757.0,"latitude":35.917142,"book-rating":9.0,"title":"Cold Mountain : A Novel","user-id":149955.0,"longitude":-82.29846,"id":"a6237cbroyqc","state":"North Carolina"},"type":"Feature","geometry":{"type":"Point","coordinates":[-82.29846,35.917142]}},{"properties":{"city":"Albuquerque","isbn":375700757.0,"latitude":35.08418,"book-rating":7.0,"title":"Cold Mountain : A Novel","user-id":151104.0,"longitude":-106.648639,"id":"a6237cboido8","state":"New Mexico"},"type":"Feature","geometry":{"type":"Point","coordinates":[-106.648639,35.08418]}},{"properties":{"city":"Lancaster","isbn":375700757.0,"latitude":40.038045,"book-rating":10.0,"title":"Cold Mountain : A Novel","user-id":151116.0,"longitude":-76.301269,"id":"a6237c35vumj","state":"Pennsylvania"},"type":"Feature","geometry":{"type":"Point","coordinates":[-76.301269,40.038045]}},{"properties":{"city":"Houston","isbn":375700757.0,"latitude":29.76045,"book-rating":8.0,"title":"Cold Mountain : A Novel","user-id":151610.0,"longitude":-95.369784,"id":"a6237c2zxh2c","state":"Texas"},"type":"Feature","geometry":{"type":"Point","coordinates":[-95.369784,29.76045]}},{"properties":{"city":"Marshall","isbn":871136791.0,"latitude":44.44901,"book-rating":9.0,"title":"Cold Mountain","user-id":152960.0,"longitude":-95.791673,"id":"a6237c7ehe1y","state":"Minnesota"},"type":"Feature","geometry":{"type":"Point","coordinates":[-95.791673,44.44901]}},{"properties":{"city":"Tulsa","isbn":871136791.0,"latitude":36.149745,"book-rating":8.0,"title":"Cold Mountain","user-id":153797.0,"longitude":-95.993334,"id":"a6237c0kk4yw","state":"Oklahoma"},"type":"Feature","geometry":{"type":"Point","coordinates":[-95.993334,36.149745]}},{"properties":{"city":"Clermont","isbn":1400077826.0,"latitude":28.551295,"book-rating":9.0,"title":"Cold Mountain (MTI) (Vintage Contemporaries)","user-id":156304.0,"longitude":-81.766339,"id":"a6237c129o9b","state":"Florida"},"type":"Feature","geometry":{"type":"Point","coordinates":[-81.766339,28.551295]}},{"properties":{"city":"Philadelphia","isbn":375700757.0,"latitude":39.95227,"book-rating":8.0,"title":"Cold Mountain : A Novel","user-id":157602.0,"longitude":-75.162369,"id":"a6237cc855f7","state":"Pennsylvania"},"type":"Feature","geometry":{"type":"Point","coordinates":[-75.162369,39.95227]}},{"properties":{"city":"Coburg","isbn":1400077826.0,"latitude":44.137535,"book-rating":6.0,"title":"Cold Mountain (MTI) (Vintage Contemporaries)","user-id":158504.0,"longitude":-123.066494,"id":"a6237c2pk65d","state":"Oregon"},"type":"Feature","geometry":{"type":"Point","coordinates":[-123.066494,44.137535]}},{"properties":{"city":"Chicago","isbn":871136791.0,"latitude":41.88415,"book-rating":5.0,"title":"Cold Mountain","user-id":158853.0,"longitude":-87.632409,"id":"a6237cb5ibqa","state":"Illinois"},"type":"Feature","geometry":{"type":"Point","coordinates":[-87.632409,41.88415]}},{"properties":{"city":"Oxnard","isbn":375700757.0,"latitude":34.20034,"book-rating":9.0,"title":"Cold Mountain : A Novel","user-id":159490.0,"longitude":-119.180439,"id":"a6237caqab3a","state":"California"},"type":"Feature","geometry":{"type":"Point","coordinates":[-119.180439,34.20034]}},{"properties":{"city":"Hooksett","isbn":375700757.0,"latitude":43.097038,"book-rating":4.0,"title":"Cold Mountain : A Novel","user-id":160558.0,"longitude":-71.465179,"id":"a6237cc6zhuy","state":"New Hampshire"},"type":"Feature","geometry":{"type":"Point","coordinates":[-71.465179,43.097038]}},{"properties":{"city":"Federal Way","isbn":375700757.0,"latitude":47.3008,"book-rating":9.0,"title":"Cold Mountain : A Novel","user-id":162155.0,"longitude":-122.329464,"id":"a6237c7k7v9b","state":"Washington"},"type":"Feature","geometry":{"type":"Point","coordinates":[-122.329464,47.3008]}},{"properties":{"city":"Punta Gorda","isbn":871136791.0,"latitude":26.93295,"book-rating":10.0,"title":"Cold Mountain","user-id":163874.0,"longitude":-82.052889,"id":"a6237c6wzc3o","state":"Florida"},"type":"Feature","geometry":{"type":"Point","coordinates":[-82.052889,26.93295]}},{"properties":{"city":"Richmond","isbn":871136791.0,"latitude":37.5407,"book-rating":8.0,"title":"Cold Mountain","user-id":166409.0,"longitude":-77.433654,"id":"a6237c4qxgq7","state":"Virginia"},"type":"Feature","geometry":{"type":"Point","coordinates":[-77.433654,37.5407]}},{"properties":{"city":"Cleethorpes","isbn":375700757.0,"latitude":53.55949,"book-rating":8.0,"title":"Cold Mountain : A Novel","user-id":167611.0,"longitude":-0.039359,"id":"a6237cb6rpql","state":"England"},"type":"Feature","geometry":{"type":"Point","coordinates":[-0.039359,53.55949]}},{"properties":{"city":"Chicago","isbn":375700757.0,"latitude":41.88415,"book-rating":7.0,"title":"Cold Mountain : A Novel","user-id":169233.0,"longitude":-87.632409,"id":"a6237c0qsl2v","state":"Illinois"},"type":"Feature","geometry":{"type":"Point","coordinates":[-87.632409,41.88415]}},{"properties":{"city":"Colorado Springs","isbn":375700757.0,"latitude":38.83345,"book-rating":6.0,"title":"Cold Mountain : A Novel","user-id":169249.0,"longitude":-104.821814,"id":"a6237c26l41q","state":"Colorado"},"type":"Feature","geometry":{"type":"Point","coordinates":[-104.821814,38.83345]}},{"properties":{"city":"Baltimore","isbn":871136791.0,"latitude":39.290555,"book-rating":6.0,"title":"Cold Mountain","user-id":169465.0,"longitude":-76.609604,"id":"a6237c92u728","state":"Maryland"},"type":"Feature","geometry":{"type":"Point","coordinates":[-76.609604,39.290555]}},{"properties":{"city":"Stevenage","isbn":375700757.0,"latitude":51.905609,"book-rating":4.0,"title":"Cold Mountain : A Novel","user-id":170227.0,"longitude":-0.18868,"id":"a6237c7i96z3","state":"England"},"type":"Feature","geometry":{"type":"Point","coordinates":[-0.18868,51.905609]}},{"properties":{"city":"Philadelphia","isbn":871136791.0,"latitude":39.95227,"book-rating":7.0,"title":"Cold Mountain","user-id":170642.0,"longitude":-75.162369,"id":"a6237c928q7c","state":"Pennsylvania"},"type":"Feature","geometry":{"type":"Point","coordinates":[-75.162369,39.95227]}},{"properties":{"city":"Sheldon","isbn":1400077826.0,"latitude":43.185905,"book-rating":9.0,"title":"Cold Mountain (MTI) (Vintage Contemporaries)","user-id":170947.0,"longitude":-95.853519,"id":"a6237ca4l1z9","state":"Iowa"},"type":"Feature","geometry":{"type":"Point","coordinates":[-95.853519,43.185905]}},{"properties":{"city":"Loveland","isbn":375700757.0,"latitude":40.39272,"book-rating":5.0,"title":"Cold Mountain : A Novel","user-id":171858.0,"longitude":-105.073899,"id":"a6237c6uepul","state":"Colorado"},"type":"Feature","geometry":{"type":"Point","coordinates":[-105.073899,40.39272]}},{"properties":{"city":"Sandy","isbn":871136791.0,"latitude":40.56976,"book-rating":10.0,"title":"Cold Mountain","user-id":172203.0,"longitude":-111.894984,"id":"a6237cdxcu38","state":"Utah"},"type":"Feature","geometry":{"type":"Point","coordinates":[-111.894984,40.56976]}},{"properties":{"city":"Holybourne","isbn":375700757.0,"latitude":51.16349,"book-rating":5.0,"title":"Cold Mountain : A Novel","user-id":174092.0,"longitude":-0.94888,"id":"a6237cc46nvz","state":"England"},"type":"Feature","geometry":{"type":"Point","coordinates":[-0.94888,51.16349]}},{"properties":{"city":"Jackson Heights","isbn":871136791.0,"latitude":40.74937,"book-rating":6.0,"title":"Cold Mountain","user-id":174596.0,"longitude":-73.887929,"id":"a6237c31r01b","state":"New York"},"type":"Feature","geometry":{"type":"Point","coordinates":[-73.887929,40.74937]}},{"properties":{"city":"W.M.","isbn":375700757.0,"latitude":41.019549,"book-rating":9.0,"title":"Cold Mountain : A Novel","user-id":177375.0,"longitude":-76.872007,"id":"a6237c0zg5dk","state":"Pennsylvania"},"type":"Feature","geometry":{"type":"Point","coordinates":[-76.872007,41.019549]}},{"properties":{"city":"Amarillo","isbn":375700757.0,"latitude":35.207255,"book-rating":10.0,"title":"Cold Mountain : A Novel","user-id":178199.0,"longitude":-101.833894,"id":"a6237c6995t6","state":"Texas"},"type":"Feature","geometry":{"type":"Point","coordinates":[-101.833894,35.207255]}},{"properties":{"city":"Higganum","isbn":375700757.0,"latitude":41.497908,"book-rating":7.0,"title":"Cold Mountain : A Novel","user-id":178533.0,"longitude":-72.552679,"id":"a6237cfnqxxb","state":"Connecticut"},"type":"Feature","geometry":{"type":"Point","coordinates":[-72.552679,41.497908]}},{"properties":{"city":"Eye","isbn":375700757.0,"latitude":52.322072,"book-rating":7.0,"title":"Cold Mountain : A Novel","user-id":178671.0,"longitude":1.145876,"id":"a6237c591j40","state":"England"},"type":"Feature","geometry":{"type":"Point","coordinates":[1.145876,52.322072]}},{"properties":{"city":"Hampton","isbn":375700757.0,"latitude":33.53799,"book-rating":10.0,"title":"Cold Mountain : A Novel","user-id":179075.0,"longitude":-92.470114,"id":"a6237c9y731h","state":null},"type":"Feature","geometry":{"type":"Point","coordinates":[-92.470114,33.53799]}},{"properties":{"city":"Ocean Springs","isbn":1400077826.0,"latitude":30.41628,"book-rating":5.0,"title":"Cold Mountain (MTI) (Vintage Contemporaries)","user-id":179290.0,"longitude":-88.808139,"id":"a6237c8t1zk7","state":"Mississippi"},"type":"Feature","geometry":{"type":"Point","coordinates":[-88.808139,30.41628]}},{"properties":{"city":"Cincinnati","isbn":1400077826.0,"latitude":39.106441,"book-rating":10.0,"title":"Cold Mountain (MTI) (Vintage Contemporaries)","user-id":181443.0,"longitude":-84.504694,"id":"a6237ce39clg","state":"Ohio"},"type":"Feature","geometry":{"type":"Point","coordinates":[-84.504694,39.106441]}},{"properties":{"city":"Fort Myers","isbn":871136791.0,"latitude":26.640845,"book-rating":5.0,"title":"Cold Mountain","user-id":183123.0,"longitude":-81.868194,"id":"a6237cbai50c","state":"Florida"},"type":"Feature","geometry":{"type":"Point","coordinates":[-81.868194,26.640845]}},{"properties":{"city":"Madison","isbn":375700757.0,"latitude":43.07295,"book-rating":8.0,"title":"Cold Mountain : A Novel","user-id":183178.0,"longitude":-89.386694,"id":"a6237c6ln3fx","state":"Wisconsin"},"type":"Feature","geometry":{"type":"Point","coordinates":[-89.386694,43.07295]}},{"properties":{"city":"Dayton","isbn":871136791.0,"latitude":39.75911,"book-rating":4.0,"title":"Cold Mountain","user-id":184424.0,"longitude":-84.194439,"id":"a6237c7o6nqe","state":"Ohio"},"type":"Feature","geometry":{"type":"Point","coordinates":[-84.194439,39.75911]}},{"properties":{"city":"La Jolla","isbn":871136791.0,"latitude":32.842592,"book-rating":10.0,"title":"Cold Mountain","user-id":186041.0,"longitude":-117.272276,"id":"a6237ceoxu9n","state":"California"},"type":"Feature","geometry":{"type":"Point","coordinates":[-117.272276,32.842592]}},{"properties":{"city":"Boulder","isbn":871136791.0,"latitude":40.01574,"book-rating":10.0,"title":"Cold Mountain","user-id":186643.0,"longitude":-105.279239,"id":"a6237c2estt7","state":null},"type":"Feature","geometry":{"type":"Point","coordinates":[-105.279239,40.01574]}},{"properties":{"city":"Grapeview","isbn":871136791.0,"latitude":47.327675,"book-rating":8.0,"title":"Cold Mountain","user-id":187145.0,"longitude":-122.82364,"id":"a6237cfibjzw","state":"Washington"},"type":"Feature","geometry":{"type":"Point","coordinates":[-122.82364,47.327675]}},{"properties":{"city":"Hawthorne","isbn":375700757.0,"latitude":40.953615,"book-rating":10.0,"title":"Cold Mountain : A Novel","user-id":188273.0,"longitude":-74.155434,"id":"a6237c3figqc","state":"New Jersey"},"type":"Feature","geometry":{"type":"Point","coordinates":[-74.155434,40.953615]}},{"properties":{"city":"Stamford","isbn":375700757.0,"latitude":41.05182,"book-rating":6.0,"title":"Cold Mountain : A Novel","user-id":189678.0,"longitude":-73.542234,"id":"a6237cetrxro","state":"Connecticut"},"type":"Feature","geometry":{"type":"Point","coordinates":[-73.542234,41.05182]}},{"properties":{"city":"Hobe Sound","isbn":375700757.0,"latitude":27.05911,"book-rating":8.0,"title":"Cold Mountain : A Novel","user-id":190925.0,"longitude":-80.136414,"id":"a6237cgoulv1","state":"Florida"},"type":"Feature","geometry":{"type":"Point","coordinates":[-80.136414,27.05911]}},{"properties":{"city":"Greensboro","isbn":375700757.0,"latitude":36.068994,"book-rating":10.0,"title":"Cold Mountain : A Novel","user-id":191299.0,"longitude":-79.794704,"id":"a6237cczd8bg","state":"North Carolina"},"type":"Feature","geometry":{"type":"Point","coordinates":[-79.794704,36.068994]}},{"properties":{"city":"Mount Airy","isbn":375700757.0,"latitude":36.49905,"book-rating":8.0,"title":"Cold Mountain : A Novel","user-id":191883.0,"longitude":-80.606879,"id":"a6237cgatezg","state":"North Carolina"},"type":"Feature","geometry":{"type":"Point","coordinates":[-80.606879,36.49905]}},{"properties":{"city":"Berkeley","isbn":375700757.0,"latitude":37.869885,"book-rating":8.0,"title":"Cold Mountain : A Novel","user-id":193088.0,"longitude":-122.270539,"id":"a6237c0qvurt","state":"California"},"type":"Feature","geometry":{"type":"Point","coordinates":[-122.270539,37.869885]}},{"properties":{"city":"Salem","isbn":1400077826.0,"latitude":44.93326,"book-rating":1.0,"title":"Cold Mountain (MTI) (Vintage Contemporaries)","user-id":193771.0,"longitude":-123.043814,"id":"a6237c2owad5","state":"Oregon"},"type":"Feature","geometry":{"type":"Point","coordinates":[-123.043814,44.93326]}},{"properties":{"city":"Baldwin","isbn":1400077826.0,"latitude":30.302845,"book-rating":9.0,"title":"Cold Mountain (MTI) (Vintage Contemporaries)","user-id":19493.0,"longitude":-81.977679,"id":"a6237cbsrlr8","state":null},"type":"Feature","geometry":{"type":"Point","coordinates":[-81.977679,30.302845]}},{"properties":{"city":"Ruby","isbn":871136791.0,"latitude":34.74517,"book-rating":9.0,"title":"Cold Mountain","user-id":195904.0,"longitude":-80.183556,"id":"a6237c4iqms1","state":"South Carolina"},"type":"Feature","geometry":{"type":"Point","coordinates":[-80.183556,34.74517]}},{"properties":{"city":"Katonah","isbn":375700757.0,"latitude":41.258845,"book-rating":8.0,"title":"Cold Mountain : A Novel","user-id":19664.0,"longitude":-73.683894,"id":"a6237c9pytr8","state":"New York"},"type":"Feature","geometry":{"type":"Point","coordinates":[-73.683894,41.258845]}},{"properties":{"city":"Brooklyn","isbn":375700757.0,"latitude":40.692455,"book-rating":7.0,"title":"Cold Mountain : A Novel","user-id":19689.0,"longitude":-73.990364,"id":"a6237c3zqthm","state":"New York"},"type":"Feature","geometry":{"type":"Point","coordinates":[-73.990364,40.692455]}},{"properties":{"city":"Sierra Vista","isbn":375700757.0,"latitude":31.56945,"book-rating":10.0,"title":"Cold Mountain : A Novel","user-id":198996.0,"longitude":-110.274679,"id":"a6237c3b9dqa","state":"Arizona"},"type":"Feature","geometry":{"type":"Point","coordinates":[-110.274679,31.56945]}},{"properties":{"city":"Saratoga Springs","isbn":871136791.0,"latitude":40.34723,"book-rating":10.0,"title":"Cold Mountain","user-id":20172.0,"longitude":-111.908949,"id":"a6237c9p5yxm","state":"Utah"},"type":"Feature","geometry":{"type":"Point","coordinates":[-111.908949,40.34723]}},{"properties":{"city":"Hawthorne","isbn":871136791.0,"latitude":40.953615,"book-rating":10.0,"title":"Cold Mountain","user-id":204457.0,"longitude":-74.155434,"id":"a6237cg09t7y","state":"New Jersey"},"type":"Feature","geometry":{"type":"Point","coordinates":[-74.155434,40.953615]}},{"properties":{"city":"King Of Prussia","isbn":375700757.0,"latitude":40.090803,"book-rating":7.0,"title":"Cold Mountain : A Novel","user-id":204660.0,"longitude":-75.384999,"id":"a6237cbr02ss","state":"Pennsylvania"},"type":"Feature","geometry":{"type":"Point","coordinates":[-75.384999,40.090803]}},{"properties":{"city":"Simi Valley","isbn":375700757.0,"latitude":34.28946,"book-rating":10.0,"title":"Cold Mountain : A Novel","user-id":204864.0,"longitude":-118.717659,"id":"a6237c5zafhe","state":"California"},"type":"Feature","geometry":{"type":"Point","coordinates":[-118.717659,34.28946]}},{"properties":{"city":"Campbell","isbn":375700757.0,"latitude":37.28848,"book-rating":7.0,"title":"Cold Mountain : A Novel","user-id":204936.0,"longitude":-121.944864,"id":"a6237ccegwhy","state":"California"},"type":"Feature","geometry":{"type":"Point","coordinates":[-121.944864,37.28848]}},{"properties":{"city":"Leawood","isbn":375700757.0,"latitude":38.91656,"book-rating":8.0,"title":"Cold Mountain : A Novel","user-id":208515.0,"longitude":-94.640757,"id":"a6237c9xl4rr","state":"Kansas"},"type":"Feature","geometry":{"type":"Point","coordinates":[-94.640757,38.91656]}},{"properties":{"city":"Fresno","isbn":375700757.0,"latitude":36.740685,"book-rating":8.0,"title":"Cold Mountain : A Novel","user-id":21014.0,"longitude":-119.785734,"id":"a6237c8obxgs","state":"California"},"type":"Feature","geometry":{"type":"Point","coordinates":[-119.785734,36.740685]}},{"properties":{"city":"Fresno","isbn":871136791.0,"latitude":36.740685,"book-rating":9.0,"title":"Cold Mountain","user-id":21014.0,"longitude":-119.785734,"id":"a6237ce6vdjv","state":"California"},"type":"Feature","geometry":{"type":"Point","coordinates":[-119.785734,36.740685]}},{"properties":{"city":"Doylestown","isbn":375700757.0,"latitude":40.310035,"book-rating":10.0,"title":"Cold Mountain : A Novel","user-id":210259.0,"longitude":-75.131654,"id":"a6237c5si3qb","state":"Pennsylvania"},"type":"Feature","geometry":{"type":"Point","coordinates":[-75.131654,40.310035]}},{"properties":{"city":"Santa Clarita","isbn":375700757.0,"latitude":34.413448,"book-rating":9.0,"title":"Cold Mountain : A Novel","user-id":210573.0,"longitude":-118.551875,"id":"a6237c8ypwhb","state":"California"},"type":"Feature","geometry":{"type":"Point","coordinates":[-118.551875,34.413448]}},{"properties":{"city":"The Gap","isbn":871136791.0,"latitude":-27.444981,"book-rating":8.0,"title":"Cold Mountain","user-id":212211.0,"longitude":152.953186,"id":"a6237c6sb2xl","state":"Brisbane"},"type":"Feature","geometry":{"type":"Point","coordinates":[152.953186,-27.444981]}},{"properties":{"city":"Los Angeles","isbn":375700757.0,"latitude":34.05349,"book-rating":10.0,"title":"Cold Mountain : A Novel","user-id":212486.0,"longitude":-118.245319,"id":"a6237c41ux0q","state":"California"},"type":"Feature","geometry":{"type":"Point","coordinates":[-118.245319,34.05349]}},{"properties":{"city":"Duluth","isbn":375700757.0,"latitude":46.787965,"book-rating":7.0,"title":"Cold Mountain : A Novel","user-id":21252.0,"longitude":-92.099849,"id":"a6237c4mhkf7","state":"Minnesota"},"type":"Feature","geometry":{"type":"Point","coordinates":[-92.099849,46.787965]}},{"properties":{"city":"Washington","isbn":375700757.0,"latitude":38.89037,"book-rating":7.0,"title":"Cold Mountain : A Novel","user-id":212911.0,"longitude":-77.031959,"id":"a6237cf4vtbb","state":"Dc"},"type":"Feature","geometry":{"type":"Point","coordinates":[-77.031959,38.89037]}},{"properties":{"city":"Boone County","isbn":1400077826.0,"latitude":38.962669,"book-rating":10.0,"title":"Cold Mountain (MTI) (Vintage Contemporaries)","user-id":214786.0,"longitude":-84.747704,"id":"a6237c96nn13","state":"Kentucky"},"type":"Feature","geometry":{"type":"Point","coordinates":[-84.747704,38.962669]}},{"properties":{"city":"Daly City","isbn":375700757.0,"latitude":37.691085,"book-rating":8.0,"title":"Cold Mountain : A Novel","user-id":219065.0,"longitude":-122.473349,"id":"a6237c8kecx7","state":null},"type":"Feature","geometry":{"type":"Point","coordinates":[-122.473349,37.691085]}},{"properties":{"city":"Modesto","isbn":375700757.0,"latitude":37.6383,"book-rating":9.0,"title":"Cold Mountain : A Novel","user-id":219631.0,"longitude":-120.999589,"id":"a6237c6efdr3","state":"California"},"type":"Feature","geometry":{"type":"Point","coordinates":[-120.999589,37.6383]}},{"properties":{"city":"Cuyahoga Falls","isbn":1400077826.0,"latitude":41.138411,"book-rating":5.0,"title":"Cold Mountain (MTI) (Vintage Contemporaries)","user-id":221777.0,"longitude":-81.483727,"id":"a6237cc7yr16","state":"Ohio"},"type":"Feature","geometry":{"type":"Point","coordinates":[-81.483727,41.138411]}},{"properties":{"city":"Blackstone","isbn":871136791.0,"latitude":42.017888,"book-rating":8.0,"title":"Cold Mountain","user-id":221967.0,"longitude":-71.533494,"id":"a6237c8xi6es","state":"Massachusetts"},"type":"Feature","geometry":{"type":"Point","coordinates":[-71.533494,42.017888]}},{"properties":{"city":"Kempton","isbn":871136791.0,"latitude":40.93679,"book-rating":5.0,"title":"Cold Mountain","user-id":222353.0,"longitude":-88.237024,"id":"a6237cgrkkjp","state":"Illinois"},"type":"Feature","geometry":{"type":"Point","coordinates":[-88.237024,40.93679]}},{"properties":{"city":"Burlington","isbn":871136791.0,"latitude":36.096865,"book-rating":8.0,"title":"Cold Mountain","user-id":223342.0,"longitude":-79.437914,"id":"a6237cf55oja","state":"North Carolina"},"type":"Feature","geometry":{"type":"Point","coordinates":[-79.437914,36.096865]}},{"properties":{"city":"Aberdeen","isbn":871136791.0,"latitude":40.406891,"book-rating":6.0,"title":"Cold Mountain","user-id":223721.0,"longitude":-74.225471,"id":"a6237c2u0lzf","state":"New Jersey"},"type":"Feature","geometry":{"type":"Point","coordinates":[-74.225471,40.406891]}},{"properties":{"city":"North Vancouver","isbn":871136791.0,"latitude":49.321065,"book-rating":10.0,"title":"Cold Mountain","user-id":231216.0,"longitude":-123.074159,"id":"a6237cesizf7","state":"British Columbia"},"type":"Feature","geometry":{"type":"Point","coordinates":[-123.074159,49.321065]}},{"properties":{"city":"Littleton","isbn":871136791.0,"latitude":42.538175,"book-rating":9.0,"title":"Cold Mountain","user-id":23280.0,"longitude":-71.484071,"id":"a6237c0i9sw4","state":"Massachusetts"},"type":"Feature","geometry":{"type":"Point","coordinates":[-71.484071,42.538175]}},{"properties":{"city":"El Cerrito","isbn":871136791.0,"latitude":37.91559,"book-rating":10.0,"title":"Cold Mountain","user-id":233444.0,"longitude":-122.311549,"id":"a6237cbj9gf9","state":"California"},"type":"Feature","geometry":{"type":"Point","coordinates":[-122.311549,37.91559]}},{"properties":{"city":"Morro Bay","isbn":871136791.0,"latitude":35.36692,"book-rating":4.0,"title":"Cold Mountain","user-id":234359.0,"longitude":-120.847109,"id":"a6237c0g8yln","state":"California"},"type":"Feature","geometry":{"type":"Point","coordinates":[-120.847109,35.36692]}},{"properties":{"city":"Brooklyn","isbn":375700757.0,"latitude":40.692455,"book-rating":8.0,"title":"Cold Mountain : A Novel","user-id":235242.0,"longitude":-73.990364,"id":"a6237c2nc056","state":"New York"},"type":"Feature","geometry":{"type":"Point","coordinates":[-73.990364,40.692455]}},{"properties":{"city":"Manorville","isbn":871136791.0,"latitude":40.872887,"book-rating":9.0,"title":"Cold Mountain","user-id":237156.0,"longitude":-72.80574,"id":"a6237c2f7yjw","state":"New York"},"type":"Feature","geometry":{"type":"Point","coordinates":[-72.80574,40.872887]}},{"properties":{"city":"King Of Prussia","isbn":375700757.0,"latitude":40.090803,"book-rating":5.0,"title":"Cold Mountain : A Novel","user-id":237433.0,"longitude":-75.384999,"id":"a6237cbjnh6s","state":"Pennsylvania"},"type":"Feature","geometry":{"type":"Point","coordinates":[-75.384999,40.090803]}},{"properties":{"city":"Stockton","isbn":1400077826.0,"latitude":40.40576,"book-rating":6.0,"title":"Cold Mountain (MTI) (Vintage Contemporaries)","user-id":238736.0,"longitude":-74.976779,"id":"a6237c7sk7ur","state":"New Jersey"},"type":"Feature","geometry":{"type":"Point","coordinates":[-74.976779,40.40576]}},{"properties":{"city":"London","isbn":739308920.0,"latitude":51.506325,"book-rating":9.0,"title":"Cold Mountain","user-id":23902.0,"longitude":-0.127144,"id":"a6237cgwift0","state":"England"},"type":"Feature","geometry":{"type":"Point","coordinates":[-0.127144,51.506325]}},{"properties":{"city":"Hawthorne","isbn":1400077826.0,"latitude":40.953615,"book-rating":10.0,"title":"Cold Mountain (MTI) (Vintage Contemporaries)","user-id":240567.0,"longitude":-74.155434,"id":"a6237cdcbqq3","state":"New Jersey"},"type":"Feature","geometry":{"type":"Point","coordinates":[-74.155434,40.953615]}},{"properties":{"city":"Geismar","isbn":1400077826.0,"latitude":30.204012,"book-rating":9.0,"title":"Cold Mountain (MTI) (Vintage Contemporaries)","user-id":243294.0,"longitude":-91.025638,"id":"a6237cd3m5ls","state":"Louisiana"},"type":"Feature","geometry":{"type":"Point","coordinates":[-91.025638,30.204012]}},{"properties":{"city":"Milwaukee","isbn":679460691.0,"latitude":43.04181,"book-rating":10.0,"title":"Cold Mountain (Abridged)","user-id":243700.0,"longitude":-87.906844,"id":"a6237c4sqs20","state":"Wisconsin"},"type":"Feature","geometry":{"type":"Point","coordinates":[-87.906844,43.04181]}},{"properties":{"city":"Lynnwood","isbn":871136791.0,"latitude":47.82532,"book-rating":10.0,"title":"Cold Mountain","user-id":246311.0,"longitude":-122.292409,"id":"a6237c5t8pkn","state":"Washington"},"type":"Feature","geometry":{"type":"Point","coordinates":[-122.292409,47.82532]}},{"properties":{"city":"Kuala Lumpur","isbn":375703152.0,"latitude":3.104635,"book-rating":7.0,"title":"Cold Mountain Open Market Edit","user-id":249140.0,"longitude":101.690975,"id":"a6237c7xyzvk","state":"Wilayah Persekutuan"},"type":"Feature","geometry":{"type":"Point","coordinates":[101.690975,3.104635]}},{"properties":{"city":"Toronto","isbn":375700757.0,"latitude":43.648565,"book-rating":8.0,"title":"Cold Mountain : A Novel","user-id":249369.0,"longitude":-79.385329,"id":"a6237c9bsu3x","state":"Ontario"},"type":"Feature","geometry":{"type":"Point","coordinates":[-79.385329,43.648565]}},{"properties":{"city":"St. Louis","isbn":871136791.0,"latitude":38.62774,"book-rating":9.0,"title":"Cold Mountain","user-id":250510.0,"longitude":-90.199514,"id":"a6237cd81428","state":"Missouri"},"type":"Feature","geometry":{"type":"Point","coordinates":[-90.199514,38.62774]}},{"properties":{"city":"Hickory","isbn":375700757.0,"latitude":32.314748,"book-rating":5.0,"title":"Cold Mountain : A Novel","user-id":26535.0,"longitude":-89.024871,"id":"a6237cbs2jsd","state":"Mississippi"},"type":"Feature","geometry":{"type":"Point","coordinates":[-89.024871,32.314748]}},{"properties":{"city":"Roxborough","isbn":871136791.0,"latitude":40.049938,"book-rating":9.0,"title":"Cold Mountain","user-id":26906.0,"longitude":-75.234154,"id":"a6237c0fykss","state":"Pennsylvania"},"type":"Feature","geometry":{"type":"Point","coordinates":[-75.234154,40.049938]}},{"properties":{"city":"Atlanta","isbn":1400077826.0,"latitude":33.748315,"book-rating":10.0,"title":"Cold Mountain (MTI) (Vintage Contemporaries)","user-id":26910.0,"longitude":-84.391109,"id":"a6237c7c6e6n","state":"Georgia"},"type":"Feature","geometry":{"type":"Point","coordinates":[-84.391109,33.748315]}},{"properties":{"city":"Grand Rapids","isbn":375700757.0,"latitude":42.96641,"book-rating":7.0,"title":"Cold Mountain : A Novel","user-id":28177.0,"longitude":-85.671179,"id":"a6237cd2vrpj","state":"Michigan"},"type":"Feature","geometry":{"type":"Point","coordinates":[-85.671179,42.96641]}},{"properties":{"city":null,"isbn":1400077826.0,"latitude":39.499741,"book-rating":9.0,"title":"Cold Mountain (MTI) (Vintage Contemporaries)","user-id":28289.0,"longitude":-111.547318,"id":"a6237c22wvl9","state":"Utah"},"type":"Feature","geometry":{"type":"Point","coordinates":[-111.547318,39.499741]}},{"properties":{"city":"Monterey Park","isbn":375700757.0,"latitude":34.059792,"book-rating":10.0,"title":"Cold Mountain : A Novel","user-id":28292.0,"longitude":-118.126514,"id":"a6237c763ris","state":"California"},"type":"Feature","geometry":{"type":"Point","coordinates":[-118.126514,34.059792]}},{"properties":{"city":"New York","isbn":1400077826.0,"latitude":40.71455,"book-rating":8.0,"title":"Cold Mountain (MTI) (Vintage Contemporaries)","user-id":30716.0,"longitude":-74.007124,"id":"a6237cd9hix0","state":"New York"},"type":"Feature","geometry":{"type":"Point","coordinates":[-74.007124,40.71455]}},{"properties":{"city":"Hendersonville","isbn":375700757.0,"latitude":35.315575,"book-rating":5.0,"title":"Cold Mountain : A Novel","user-id":30795.0,"longitude":-82.458659,"id":"a6237c5xdgwm","state":"North Carolina"},"type":"Feature","geometry":{"type":"Point","coordinates":[-82.458659,35.315575]}},{"properties":{"city":"New Milford","isbn":375700757.0,"latitude":41.57751,"book-rating":8.0,"title":"Cold Mountain : A Novel","user-id":30887.0,"longitude":-73.410424,"id":"a6237c886wqw","state":"Connecticut"},"type":"Feature","geometry":{"type":"Point","coordinates":[-73.410424,41.57751]}},{"properties":{"city":"Yamato-Shi","isbn":375700757.0,"latitude":35.47163,"book-rating":10.0,"title":"Cold Mountain : A Novel","user-id":31361.0,"longitude":139.45491,"id":"a6237c9nyys5","state":"Kanagawa-Ken"},"type":"Feature","geometry":{"type":"Point","coordinates":[139.45491,35.47163]}},{"properties":{"city":"Beaverton","isbn":375700757.0,"latitude":45.484895,"book-rating":8.0,"title":"Cold Mountain : A Novel","user-id":31649.0,"longitude":-122.796153,"id":"a6237c3l45bv","state":"Oregon"},"type":"Feature","geometry":{"type":"Point","coordinates":[-122.796153,45.484895]}},{"properties":{"city":"Edmonton","isbn":375700757.0,"latitude":53.54622,"book-rating":10.0,"title":"Cold Mountain : A Novel","user-id":32148.0,"longitude":-113.490374,"id":"a6237ceoh2sb","state":"Alberta"},"type":"Feature","geometry":{"type":"Point","coordinates":[-113.490374,53.54622]}},{"properties":{"city":"Springfield","isbn":375700757.0,"latitude":42.10125,"book-rating":5.0,"title":"Cold Mountain : A Novel","user-id":32252.0,"longitude":-72.589294,"id":"a6237c6g4fz6","state":"Massachusetts"},"type":"Feature","geometry":{"type":"Point","coordinates":[-72.589294,42.10125]}},{"properties":{"city":"Salem","isbn":375700757.0,"latitude":44.93326,"book-rating":8.0,"title":"Cold Mountain : A Novel","user-id":32902.0,"longitude":-123.043814,"id":"a6237c4qq9qa","state":"Oregon"},"type":"Feature","geometry":{"type":"Point","coordinates":[-123.043814,44.93326]}},{"properties":{"city":"Dawson Creek","isbn":871136791.0,"latitude":55.761725,"book-rating":10.0,"title":"Cold Mountain","user-id":33477.0,"longitude":-120.237059,"id":"a6237ceik229","state":"British Columbia"},"type":"Feature","geometry":{"type":"Point","coordinates":[-120.237059,55.761725]}},{"properties":{"city":"West Linn","isbn":871136791.0,"latitude":45.365991,"book-rating":10.0,"title":"Cold Mountain","user-id":34588.0,"longitude":-122.647893,"id":"a6237cfeipk7","state":"Oregon"},"type":"Feature","geometry":{"type":"Point","coordinates":[-122.647893,45.365991]}},{"properties":{"city":"Aberdeen","isbn":375700757.0,"latitude":57.15382,"book-rating":5.0,"title":"Cold Mountain : A Novel","user-id":34813.0,"longitude":-2.10679,"id":"a6237c2b76d6","state":"Grampian"},"type":"Feature","geometry":{"type":"Point","coordinates":[-2.10679,57.15382]}},{"properties":{"city":"Duluth","isbn":375700757.0,"latitude":46.787965,"book-rating":7.0,"title":"Cold Mountain : A Novel","user-id":35859.0,"longitude":-92.099849,"id":"a6237c1wpq58","state":"Minnesota"},"type":"Feature","geometry":{"type":"Point","coordinates":[-92.099849,46.787965]}},{"properties":{"city":"Duluth","isbn":871136791.0,"latitude":46.787965,"book-rating":7.0,"title":"Cold Mountain","user-id":35859.0,"longitude":-92.099849,"id":"a6237c618ocp","state":"Minnesota"},"type":"Feature","geometry":{"type":"Point","coordinates":[-92.099849,46.787965]}},{"properties":{"city":"Reno","isbn":375700757.0,"latitude":39.527395,"book-rating":8.0,"title":"Cold Mountain : A Novel","user-id":35918.0,"longitude":-119.813414,"id":"a6237cadizm4","state":"Nevada"},"type":"Feature","geometry":{"type":"Point","coordinates":[-119.813414,39.527395]}},{"properties":{"city":"Union","isbn":375700757.0,"latitude":40.696105,"book-rating":5.0,"title":"Cold Mountain : A Novel","user-id":36304.0,"longitude":-74.268514,"id":"a6237c2wqod4","state":"New Jersey"},"type":"Feature","geometry":{"type":"Point","coordinates":[-74.268514,40.696105]}},{"properties":{"city":"Colorado Springs","isbn":375700757.0,"latitude":38.83345,"book-rating":8.0,"title":"Cold Mountain : A Novel","user-id":37932.0,"longitude":-104.821814,"id":"a6237c85nusp","state":"Colorado"},"type":"Feature","geometry":{"type":"Point","coordinates":[-104.821814,38.83345]}},{"properties":{"city":"Union City","isbn":375700757.0,"latitude":37.588395,"book-rating":10.0,"title":"Cold Mountain : A Novel","user-id":37989.0,"longitude":-122.025924,"id":"a6237c2iq2jv","state":"California"},"type":"Feature","geometry":{"type":"Point","coordinates":[-122.025924,37.588395]}},{"properties":{"city":"Richmond","isbn":871136791.0,"latitude":37.5407,"book-rating":9.0,"title":"Cold Mountain","user-id":38665.0,"longitude":-77.433654,"id":"a6237cbsgh1m","state":"Virginia"},"type":"Feature","geometry":{"type":"Point","coordinates":[-77.433654,37.5407]}},{"properties":{"city":"Columbiana","isbn":375700757.0,"latitude":33.1779,"book-rating":9.0,"title":"Cold Mountain : A Novel","user-id":3977.0,"longitude":-86.607124,"id":"a6237cgl4qed","state":"Alabama"},"type":"Feature","geometry":{"type":"Point","coordinates":[-86.607124,33.1779]}},{"properties":{"city":"San Francisco","isbn":375700757.0,"latitude":37.7796,"book-rating":6.0,"title":"Cold Mountain : A Novel","user-id":40415.0,"longitude":-122.420139,"id":"a6237c50kmh0","state":"California"},"type":"Feature","geometry":{"type":"Point","coordinates":[-122.420139,37.7796]}},{"properties":{"city":"Dillsboro","isbn":375700757.0,"latitude":35.368098,"book-rating":6.0,"title":"Cold Mountain : A Novel","user-id":41115.0,"longitude":-83.252002,"id":"a6237c4djbbo","state":"North Carolina"},"type":"Feature","geometry":{"type":"Point","coordinates":[-83.252002,35.368098]}},{"properties":{"city":"Kasilof","isbn":375700757.0,"latitude":60.340565,"book-rating":9.0,"title":"Cold Mountain : A Novel","user-id":4196.0,"longitude":-151.271066,"id":"a6237c13dv87","state":"Alaska"},"type":"Feature","geometry":{"type":"Point","coordinates":[-151.271066,60.340565]}},{"properties":{"city":"Gorgetown","isbn":375700757.0,"latitude":5.41076,"book-rating":8.0,"title":"Cold Mountain : A Novel","user-id":45165.0,"longitude":100.336227,"id":"a6237c6g3xz4","state":"Penang"},"type":"Feature","geometry":{"type":"Point","coordinates":[100.336227,5.41076]}},{"properties":{"city":"Everett","isbn":375700757.0,"latitude":47.976575,"book-rating":10.0,"title":"Cold Mountain : A Novel","user-id":50824.0,"longitude":-122.206419,"id":"a6237c15f5mo","state":"Washington"},"type":"Feature","geometry":{"type":"Point","coordinates":[-122.206419,47.976575]}},{"properties":{"city":"Richmond","isbn":375700757.0,"latitude":37.5407,"book-rating":8.0,"title":"Cold Mountain : A Novel","user-id":51826.0,"longitude":-77.433654,"id":"a6237cf1m7fl","state":"Virginia"},"type":"Feature","geometry":{"type":"Point","coordinates":[-77.433654,37.5407]}},{"properties":{"city":"Brooklyn","isbn":375700757.0,"latitude":40.692455,"book-rating":7.0,"title":"Cold Mountain : A Novel","user-id":51945.0,"longitude":-73.990364,"id":"a6237c39al4e","state":"New York"},"type":"Feature","geometry":{"type":"Point","coordinates":[-73.990364,40.692455]}},{"properties":{"city":"Olympia","isbn":871136791.0,"latitude":47.039225,"book-rating":7.0,"title":"Cold Mountain","user-id":52059.0,"longitude":-122.891429,"id":"a6237ceg5atv","state":"Washington"},"type":"Feature","geometry":{"type":"Point","coordinates":[-122.891429,47.039225]}},{"properties":{"city":"Portland","isbn":375700757.0,"latitude":45.511795,"book-rating":10.0,"title":"Cold Mountain : A Novel","user-id":52635.0,"longitude":-122.675629,"id":"a6237c9ssih8","state":"Oregon"},"type":"Feature","geometry":{"type":"Point","coordinates":[-122.675629,45.511795]}},{"properties":{"city":"Three Rivers","isbn":871136791.0,"latitude":41.942667,"book-rating":8.0,"title":"Cold Mountain","user-id":5361.0,"longitude":-85.6364,"id":"a6237cgbbh8b","state":"Michigan"},"type":"Feature","geometry":{"type":"Point","coordinates":[-85.6364,41.942667]}},{"properties":{"city":"Hesperia","isbn":871136791.0,"latitude":34.424145,"book-rating":5.0,"title":"Cold Mountain","user-id":55751.0,"longitude":-117.319209,"id":"a6237c7st2o6","state":"California"},"type":"Feature","geometry":{"type":"Point","coordinates":[-117.319209,34.424145]}},{"properties":{"city":"Wilkes-Barre","isbn":871136791.0,"latitude":41.2426,"book-rating":5.0,"title":"Cold Mountain","user-id":58257.0,"longitude":-75.877334,"id":"a6237c6up5qa","state":"Pennsylvania"},"type":"Feature","geometry":{"type":"Point","coordinates":[-75.877334,41.2426]}},{"properties":{"city":"Montreal","isbn":871136791.0,"latitude":45.512288,"book-rating":8.0,"title":"Cold Mountain","user-id":58733.0,"longitude":-73.554392,"id":"a6237cb2l43y","state":"Quebec"},"type":"Feature","geometry":{"type":"Point","coordinates":[-73.554392,45.512288]}},{"properties":{"city":"Alvin","isbn":375700757.0,"latitude":29.42381,"book-rating":6.0,"title":"Cold Mountain : A Novel","user-id":60244.0,"longitude":-95.245379,"id":"a6237c0j7yq2","state":"Texas"},"type":"Feature","geometry":{"type":"Point","coordinates":[-95.245379,29.42381]}},{"properties":{"city":"Basingstoke","isbn":375700757.0,"latitude":51.262443,"book-rating":8.0,"title":"Cold Mountain : A Novel","user-id":60427.0,"longitude":-1.083089,"id":"a6237c6fhfku","state":"England"},"type":"Feature","geometry":{"type":"Point","coordinates":[-1.083089,51.262443]}},{"properties":{"city":"Wheat Ridge","isbn":375700757.0,"latitude":39.75845,"book-rating":8.0,"title":"Cold Mountain : A Novel","user-id":60886.0,"longitude":-105.080499,"id":"a6237c1itrnj","state":"Colorado"},"type":"Feature","geometry":{"type":"Point","coordinates":[-105.080499,39.75845]}},{"properties":{"city":"Calgary","isbn":871136791.0,"latitude":51.04522,"book-rating":8.0,"title":"Cold Mountain","user-id":6242.0,"longitude":-114.063014,"id":"a6237c19izxx","state":"Alberta"},"type":"Feature","geometry":{"type":"Point","coordinates":[-114.063014,51.04522]}},{"properties":{"city":"Houston","isbn":375700757.0,"latitude":29.76045,"book-rating":10.0,"title":"Cold Mountain : A Novel","user-id":67840.0,"longitude":-95.369784,"id":"a6237c42xra6","state":"Texas"},"type":"Feature","geometry":{"type":"Point","coordinates":[-95.369784,29.76045]}},{"properties":{"city":"Boise","isbn":375700757.0,"latitude":43.60698,"book-rating":10.0,"title":"Cold Mountain : A Novel","user-id":6789.0,"longitude":-116.193409,"id":"a6237ccrnrgj","state":"Idaho"},"type":"Feature","geometry":{"type":"Point","coordinates":[-116.193409,43.60698]}},{"properties":{"city":"New Bern","isbn":871136791.0,"latitude":35.108459,"book-rating":10.0,"title":"Cold Mountain","user-id":68451.0,"longitude":-77.042074,"id":"a6237c40q4x9","state":"North Carolina"},"type":"Feature","geometry":{"type":"Point","coordinates":[-77.042074,35.108459]}},{"properties":{"city":"New York","isbn":375700757.0,"latitude":40.71455,"book-rating":9.0,"title":"Cold Mountain : A Novel","user-id":69078.0,"longitude":-74.007124,"id":"a6237ccc0udx","state":"New York"},"type":"Feature","geometry":{"type":"Point","coordinates":[-74.007124,40.71455]}},{"properties":{"city":"Syracuse","isbn":871136791.0,"latitude":43.04999,"book-rating":8.0,"title":"Cold Mountain","user-id":69355.0,"longitude":-76.147389,"id":"a6237c1nkqxb","state":"New York"},"type":"Feature","geometry":{"type":"Point","coordinates":[-76.147389,43.04999]}},{"properties":{"city":"Freshwater","isbn":375700757.0,"latitude":-16.881821,"book-rating":7.0,"title":"Cold Mountain : A Novel","user-id":70885.0,"longitude":145.710052,"id":"a6237c5sah5l","state":"Queensland"},"type":"Feature","geometry":{"type":"Point","coordinates":[145.710052,-16.881821]}},{"properties":{"city":"Moline","isbn":375700757.0,"latitude":41.491733,"book-rating":5.0,"title":"Cold Mountain : A Novel","user-id":71019.0,"longitude":-90.489899,"id":"a6237cdxofj4","state":"Illinois"},"type":"Feature","geometry":{"type":"Point","coordinates":[-90.489899,41.491733]}},{"properties":{"city":"Minneapolis","isbn":871136791.0,"latitude":44.979035,"book-rating":7.0,"title":"Cold Mountain","user-id":71230.0,"longitude":-93.264929,"id":"a6237cdzaoyc","state":"Minnesota"},"type":"Feature","geometry":{"type":"Point","coordinates":[-93.264929,44.979035]}},{"properties":{"city":"Seattle","isbn":375700757.0,"latitude":47.60356,"book-rating":7.0,"title":"Cold Mountain : A Novel","user-id":74176.0,"longitude":-122.329439,"id":"a6237ceki03t","state":"Washington"},"type":"Feature","geometry":{"type":"Point","coordinates":[-122.329439,47.60356]}},{"properties":{"city":"Denver","isbn":871136791.0,"latitude":39.74001,"book-rating":7.0,"title":"Cold Mountain","user-id":74254.0,"longitude":-104.992259,"id":"a6237c50qj9c","state":"Colorado"},"type":"Feature","geometry":{"type":"Point","coordinates":[-104.992259,39.74001]}},{"properties":{"city":"Norwich","isbn":375700757.0,"latitude":52.622495,"book-rating":7.0,"title":"Cold Mountain : A Novel","user-id":76019.0,"longitude":1.2949,"id":"a6237c50rpml","state":"England"},"type":"Feature","geometry":{"type":"Point","coordinates":[1.2949,52.622495]}},{"properties":{"city":"Honolulu","isbn":375700757.0,"latitude":21.30477,"book-rating":10.0,"title":"Cold Mountain : A Novel","user-id":76210.0,"longitude":-157.857614,"id":"a6237c98v5ua","state":"Hawaii"},"type":"Feature","geometry":{"type":"Point","coordinates":[-157.857614,21.30477]}},{"properties":{"city":"Dublin","isbn":375700757.0,"latitude":40.104895,"book-rating":7.0,"title":"Cold Mountain : A Novel","user-id":77907.0,"longitude":-83.133119,"id":"a6237cg1o01g","state":"Ohio"},"type":"Feature","geometry":{"type":"Point","coordinates":[-83.133119,40.104895]}},{"properties":{"city":"Chicago","isbn":871136791.0,"latitude":41.88415,"book-rating":7.0,"title":"Cold Mountain","user-id":8066.0,"longitude":-87.632409,"id":"a6237cc00q9g","state":"Illinois"},"type":"Feature","geometry":{"type":"Point","coordinates":[-87.632409,41.88415]}},{"properties":{"city":"Louisville","isbn":375700757.0,"latitude":38.25486,"book-rating":10.0,"title":"Cold Mountain : A Novel","user-id":81212.0,"longitude":-85.766404,"id":"a6237cbivxu6","state":"Kentucky"},"type":"Feature","geometry":{"type":"Point","coordinates":[-85.766404,38.25486]}},{"properties":{"city":"Ponte Vedra Beach","isbn":871136791.0,"latitude":30.225761,"book-rating":9.0,"title":"Cold Mountain","user-id":83517.0,"longitude":-81.385971,"id":"a6237c394xjr","state":"Florida"},"type":"Feature","geometry":{"type":"Point","coordinates":[-81.385971,30.225761]}},{"properties":{"city":"Trempealeau","isbn":375700757.0,"latitude":44.004105,"book-rating":10.0,"title":"Cold Mountain : A Novel","user-id":85256.0,"longitude":-91.433294,"id":"a6237c9at20o","state":"Wisconsin"},"type":"Feature","geometry":{"type":"Point","coordinates":[-91.433294,44.004105]}},{"properties":{"city":"Chisholm","isbn":375700757.0,"latitude":47.48975,"book-rating":9.0,"title":"Cold Mountain : A Novel","user-id":85426.0,"longitude":-92.88378,"id":"a6237cdgvp3x","state":"Minnesota"},"type":"Feature","geometry":{"type":"Point","coordinates":[-92.88378,47.48975]}},{"properties":{"city":"Essex","isbn":375700757.0,"latitude":41.353723,"book-rating":5.0,"title":"Cold Mountain : A Novel","user-id":87579.0,"longitude":-72.395404,"id":"a6237c59cz9q","state":"Connecticut"},"type":"Feature","geometry":{"type":"Point","coordinates":[-72.395404,41.353723]}},{"properties":{"city":"Islandton","isbn":871136791.0,"latitude":32.899881,"book-rating":8.0,"title":"Cold Mountain","user-id":88521.0,"longitude":-80.898894,"id":"a6237c7htye0","state":"South Carolina"},"type":"Feature","geometry":{"type":"Point","coordinates":[-80.898894,32.899881]}},{"properties":{"city":"Dunwoody","isbn":871136791.0,"latitude":33.92581,"book-rating":5.0,"title":"Cold Mountain","user-id":89070.0,"longitude":-84.331413,"id":"a6237cb1gm1t","state":"Georgia"},"type":"Feature","geometry":{"type":"Point","coordinates":[-84.331413,33.92581]}},{"properties":{"city":"Watertown","isbn":375700757.0,"latitude":41.604893,"book-rating":7.0,"title":"Cold Mountain : A Novel","user-id":90135.0,"longitude":-73.119393,"id":"a6237cbenb0o","state":null},"type":"Feature","geometry":{"type":"Point","coordinates":[-73.119393,41.604893]}},{"properties":{"city":"Queens","isbn":871136791.0,"latitude":40.713985,"book-rating":8.0,"title":"Cold Mountain","user-id":90391.0,"longitude":-73.829959,"id":"a6237c7h5lzn","state":"New York"},"type":"Feature","geometry":{"type":"Point","coordinates":[-73.829959,40.713985]}},{"properties":{"city":"Cedar Rapids","isbn":375700757.0,"latitude":41.976345,"book-rating":8.0,"title":"Cold Mountain : A Novel","user-id":90971.0,"longitude":-91.673759,"id":"a6237c1z1fk7","state":"Iowa"},"type":"Feature","geometry":{"type":"Point","coordinates":[-91.673759,41.976345]}},{"properties":{"city":"Chicago","isbn":1400077826.0,"latitude":41.88415,"book-rating":10.0,"title":"Cold Mountain (MTI) (Vintage Contemporaries)","user-id":91113.0,"longitude":-87.632409,"id":"a6237cdy8tvj","state":"Illinois"},"type":"Feature","geometry":{"type":"Point","coordinates":[-87.632409,41.88415]}},{"properties":{"city":"Niantic","isbn":871136791.0,"latitude":41.332362,"book-rating":7.0,"title":"Cold Mountain","user-id":94522.0,"longitude":-72.197234,"id":"a6237c2ie9gb","state":"Connecticut"},"type":"Feature","geometry":{"type":"Point","coordinates":[-72.197234,41.332362]}},{"properties":{"city":"Sterling Heights","isbn":375700757.0,"latitude":42.593309,"book-rating":9.0,"title":"Cold Mountain : A Novel","user-id":95173.0,"longitude":-83.01337,"id":"a6237c75ekp9","state":"Michigan"},"type":"Feature","geometry":{"type":"Point","coordinates":[-83.01337,42.593309]}},{"properties":{"city":"Chester","isbn":871136791.0,"latitude":53.18813,"book-rating":8.0,"title":"Cold Mountain","user-id":95506.0,"longitude":-2.894369,"id":"a6237cc3ta74","state":"Cheshire"},"type":"Feature","geometry":{"type":"Point","coordinates":[-2.894369,53.18813]}}],"is_temporal":false,"author":{"url":"http://www.informatik.uni-freiburg.de/~cziegler/BX/","metadata":"http://www.informatik.uni-freiburg.de/~cziegler/BX/","contact_name":"","contact_address":"","source":"Institut fr Informatik, Universitt Freiburg","contact_phone":""},"source":"http://www.informatik.uni-freiburg.de/~cziegler/BX/","pagination":{"sort":null,"start":0,"total":215,"limit":1000000},"state":"complete","tags":"bookcrossing,books,global,reviews","published":"2005-01-01T17:00:00Z","id":19935}