{"type":"FeatureCollection","data_type":"Dataset","url_type":null,"permissions":[{"permissions":{"download":true,"view":true},"group_id":"everyone"}],"classification":null,"title":"Fuel Sites, Cuba, Cloudmade","count":32,"stream_id":20250,"contributor":{"url":"http://geocommons.com/users/2943","name":"Margot"},"data_attributes":null,"calculation_params":null,"icon_link":null,"link":"http://geocommons.com/overlays/20250.json","extent":[-82.4968,20.144,-75.1936,23.1451],"geometry_types":["point"],"unique_name":null,"name":"Fuel Sites, Cuba, Cloudmade","feature_count":32,"description":"This is a point file of fuel sites in Cuba from CloudMade. ","next_feature":null,"is_raster":false,"short_classification":"Y","stats":{},"features":[{"properties":{"NAME":"Fuel:Gasolinera (Gasolinera)","CATEGORY":"Automotive","id":"a64d9fh4nj0i"},"type":"Feature","geometry":{"type":"Point","coordinates":[-82.4967742,23.0925339]}},{"properties":{"NAME":"Fuel:Gasolinera Oro Negro (Gasolinera)","CATEGORY":"Automotive","id":"a64d9fdimsi6"},"type":"Feature","geometry":{"type":"Point","coordinates":[-82.4535015,23.0935513]}},{"properties":{"NAME":"Fuel:Servicupet El Motor (Gasolinera)","CATEGORY":"Automotive","id":"a64d9fk4tg1s"},"type":"Feature","geometry":{"type":"Point","coordinates":[-82.4497082,23.0990415]}},{"properties":{"NAME":"Fuel:Gasolinera (Gasolinera)","CATEGORY":"Automotive","id":"a64d9fqsv068"},"type":"Feature","geometry":{"type":"Point","coordinates":[-82.4459102,23.1034851]}},{"properties":{"NAME":"Fuel:Oro Negro (Gasolinera)","CATEGORY":"Automotive","id":"a64d9fqx4jyw"},"type":"Feature","geometry":{"type":"Point","coordinates":[-82.4367613,23.1008177]}},{"properties":{"NAME":"Fuel:Gasolinera (Gasolinera)","CATEGORY":"Automotive","id":"a64d9fkb5mh3"},"type":"Feature","geometry":{"type":"Point","coordinates":[-82.4256911,23.1142033]}},{"properties":{"NAME":"Fuel:Servicupet Tropicana (Gasolinera)","CATEGORY":"Automotive","id":"a64d9fo4hd2h"},"type":"Feature","geometry":{"type":"Point","coordinates":[-82.4209938,23.0954937]}},{"properties":{"NAME":"Fuel:Aeropuerto","CATEGORY":"Automotive","id":"a64d9ffdvhnc"},"type":"Feature","geometry":{"type":"Point","coordinates":[-82.4191279,23.0483715]}},{"properties":{"NAME":"Fuel:Servicupet (Gasolinera)","CATEGORY":"Automotive","id":"a64d9fh2wyc0"},"type":"Feature","geometry":{"type":"Point","coordinates":[-82.4161874,23.1187984]}},{"properties":{"NAME":"Fuel:Centro Comercial La Puntilla (Comercial)","CATEGORY":"Automotive","id":"a64d9flcghnz"},"type":"Feature","geometry":{"type":"Point","coordinates":[-82.41424,23.1321337]}},{"properties":{"NAME":"Fuel:Transtur","CATEGORY":"Automotive","id":"a64d9fl8dowc"},"type":"Feature","geometry":{"type":"Point","coordinates":[-82.4138207,23.0035784]}},{"properties":{"NAME":"Fuel:Oro Negro (Gasolinera)","CATEGORY":"Automotive","id":"a64d9fmgjziu"},"type":"Feature","geometry":{"type":"Point","coordinates":[-82.4118692,23.1268447]}},{"properties":{"NAME":"Fuel:Gasolinera (Gasolinera)","CATEGORY":"Automotive","id":"a64d9fkfdtb9"},"type":"Feature","geometry":{"type":"Point","coordinates":[-82.4069388,23.1209428]}},{"properties":{"NAME":"Fuel:Gasolinera (Gasolinera)","CATEGORY":"Automotive","id":"a64d9frh2zmk"},"type":"Feature","geometry":{"type":"Point","coordinates":[-82.4052386,23.1232212]}},{"properties":{"NAME":"Fuel:Servicupet Riviera (Gasolinera)","CATEGORY":"Automotive","id":"a64d9fnvx0ux"},"type":"Feature","geometry":{"type":"Point","coordinates":[-82.4026413,23.1401249]}},{"properties":{"NAME":"Fuel:Fontanar","CATEGORY":"Automotive","id":"a64d9fpi2p87"},"type":"Feature","geometry":{"type":"Point","coordinates":[-82.4025573,23.0220963]}},{"properties":{"NAME":"Fuel:Gasolinera (Gasolinera)","CATEGORY":"Automotive","id":"a64d9fdtsiss"},"type":"Feature","geometry":{"type":"Point","coordinates":[-82.4012814,23.1165379]}},{"properties":{"NAME":"Fuel:Gasolinera (Gasolinera)","CATEGORY":"Automotive","id":"a64d9fk53r35"},"type":"Feature","geometry":{"type":"Point","coordinates":[-82.3993861,23.1141621]}},{"properties":{"NAME":"Fuel:Gasolinera (Gasolinera)","CATEGORY":"Automotive","id":"a64d9fqdntur"},"type":"Feature","geometry":{"type":"Point","coordinates":[-82.3944904,23.1405088]}},{"properties":{"NAME":"Fuel:Gasolinera de Paseo y Zapata (Gasolinera)","CATEGORY":"Automotive","id":"a64d9fn6xeys"},"type":"Feature","geometry":{"type":"Point","coordinates":[-82.3912547,23.1283959]}},{"properties":{"NAME":"Fuel:Servicupet Ayestaran y Boyeros (Gasolinera)","CATEGORY":"Automotive","id":"a64d9fs11eph"},"type":"Feature","geometry":{"type":"Point","coordinates":[-82.390313,23.1113888]}},{"properties":{"NAME":"Fuel:Gasolinera (Gasolinera)","CATEGORY":"Automotive","id":"a64d9fqyppui"},"type":"Feature","geometry":{"type":"Point","coordinates":[-82.3871482,23.1380156]}},{"properties":{"NAME":"Fuel:Servicupet Tangana (Gasolinera)","CATEGORY":"Automotive","id":"a64d9fp8tcvp"},"type":"Feature","geometry":{"type":"Point","coordinates":[-82.3863802,23.1451406]}},{"properties":{"NAME":"Fuel:Servicupet L y 17 (Gasolinera)","CATEGORY":"Automotive","id":"a64d9frs7z6t"},"type":"Feature","geometry":{"type":"Point","coordinates":[-82.3858715,23.1425119]}},{"properties":{"NAME":"Fuel:Gasolinera (Gasolinera)","CATEGORY":"Automotive","id":"a64d9fnmhcvi"},"type":"Feature","geometry":{"type":"Point","coordinates":[-82.3747737,23.1239385]}},{"properties":{"NAME":"Fuel:Gasolinera (Gasolinera)","CATEGORY":"Automotive","id":"a64d9fm3iozr"},"type":"Feature","geometry":{"type":"Point","coordinates":[-82.3735419,23.1253797]}},{"properties":{"NAME":"Fuel:Gasolinera (Gasolinera)","CATEGORY":"Automotive","id":"a64d9fkrzz1w"},"type":"Feature","geometry":{"type":"Point","coordinates":[-82.3667805,23.1265196]}},{"properties":{"NAME":"Fuel:FIXME","CATEGORY":"Automotive","id":"a64d9fridz9a"},"type":"Feature","geometry":{"type":"Point","coordinates":[-82.3217882,23.1215961]}},{"properties":{"NAME":"Fuel:Cupet","CATEGORY":"Automotive","id":"a64d9fsq6cw3"},"type":"Feature","geometry":{"type":"Point","coordinates":[-82.2605691,23.0384155]}},{"properties":{"NAME":"Fuel","CATEGORY":"Automotive","id":"a64d9fq0silz"},"type":"Feature","geometry":{"type":"Point","coordinates":[-76.2643205,20.8851374]}},{"properties":{"NAME":"Fuel","CATEGORY":"Automotive","id":"a64d9fdeoner"},"type":"Feature","geometry":{"type":"Point","coordinates":[-75.2022998,20.1452939]}},{"properties":{"NAME":"Fuel","CATEGORY":"Automotive","id":"a64d9fo2z1ie"},"type":"Feature","geometry":{"type":"Point","coordinates":[-75.1935794,20.1439885]}}],"is_temporal":false,"author":{"url":"http://downloads.cloudmade.com/north_america/cuba","metadata":"http://downloads.cloudmade.com/north_america/cuba","contact_name":"","contact_address":"","source":"CloudMade","contact_phone":""},"source":"http://downloads.cloudmade.com/north_america/cuba","pagination":{"sort":null,"start":0,"total":32,"limit":1000000},"state":"complete","tags":"cloudmade,cuba,fuel","published":"2010-01-14T21:22:31Z","id":20250}