{"type":"FeatureCollection","data_type":"Dataset","url_type":null,"permissions":[{"permissions":{"download":true,"view":true},"group_id":"everyone"}],"classification":null,"title":"LV location","count":25,"stream_id":226114,"contributor":{"url":"http://geocommons.com/users/42467","name":"zhouy1"},"data_attributes":null,"calculation_params":null,"icon_link":null,"link":"http://geocommons.com/overlays/226114.json","extent":[-157.858,-21.5289,119.86,53.6833],"geometry_types":["point"],"unique_name":null,"name":"LV location","feature_count":25,"description":"","next_feature":null,"is_raster":false,"short_classification":"Y","features":[{"properties":{"city":"Cleveland","geo_score":0.857,"business name":"LV","id":"a62hxgkwu1bw","geo_precision":"zip","column_2":null,"column_3":null},"type":"Feature","geometry":{"type":"Point","coordinates":[-81.6954088,41.4994954]}},{"properties":{"city":"Colleyville","geo_score":0.792,"business name":"LV","id":"a62hxgefb6z0","geo_precision":"zip","column_2":null,"column_3":null},"type":"Feature","geometry":{"type":"Point","coordinates":[-102.71666,21.85]}},{"properties":{"city":"Columbus","geo_score":0.857,"business name":"LV","id":"a62hxglei51r","geo_precision":"zip","column_2":null,"column_3":null},"type":"Feature","geometry":{"type":"Point","coordinates":[-82.9987942,39.9611755]}},{"properties":{"city":"Manhasset","geo_score":0.857,"business name":"LV","id":"a62hxg743sos","geo_precision":"zip","column_2":null,"column_3":null},"type":"Feature","geometry":{"type":"Point","coordinates":[-73.6995749,40.7978787]}},{"properties":{"city":"Lahaina","geo_score":0.816,"business name":"LV","id":"a62hxgkipyl2","geo_precision":"zip","column_2":null,"column_3":null},"type":"Feature","geometry":{"type":"Point","coordinates":[86.4833333,26.7166667]}},{"properties":{"city":"Troy","geo_score":0.0,"business name":"LV","id":"a62hxgj67na1","geo_precision":"unmatched","column_2":null,"column_3":null},"type":"Feature","geometry":null},{"properties":{"city":"Denver","geo_score":0.857,"business name":"LV","id":"a62hxg9eeogg","geo_precision":"zip","column_2":null,"column_3":null},"type":"Feature","geometry":{"type":"Point","coordinates":[-104.9847034,39.7391536]}},{"properties":{"city":"Palo Alto","geo_score":0.768,"business name":"LV","id":"a62hxg7alxa3","geo_precision":"zip","column_2":null,"column_3":null},"type":"Feature","geometry":{"type":"Point","coordinates":[119.8597222,-0.9016667]}},{"properties":{"city":"Santa Clara","geo_score":0.743,"business name":"LV","id":"a62hxggmpt8h","geo_precision":"zip","column_2":null,"column_3":null},"type":"Feature","geometry":{"type":"Point","coordinates":[69.0,25.5]}},{"properties":{"city":"Kihei","geo_score":0.743,"business name":"LV","id":"a62hxg63gp3r","geo_precision":"zip","column_2":null,"column_3":null},"type":"Feature","geometry":{"type":"Point","coordinates":[115.4333333,30.2333333]}},{"properties":{"city":"Short Hills","geo_score":0.757,"business name":"LV","id":"a62hxgc3mpeu","geo_precision":"zip","column_2":null,"column_3":null},"type":"Feature","geometry":{"type":"Point","coordinates":[54.9477778,36.43]}},{"properties":{"city":"Aspen","geo_score":0.857,"business name":"LV","id":"a62hxgabqqop","geo_precision":"zip","column_2":null,"column_3":null},"type":"Feature","geometry":{"type":"Point","coordinates":[-106.8175387,39.1910983]}},{"properties":{"city":"Los Angeles","geo_score":0.0,"business name":"LV","id":"a62hxgfoy8qu","geo_precision":"unmatched","column_2":null,"column_3":null},"type":"Feature","geometry":null},{"properties":{"city":"Las Vegas","geo_score":0.0,"business name":"LV","id":"a62hxg6j3k6h","geo_precision":"unmatched","column_2":null,"column_3":null},"type":"Feature","geometry":null},{"properties":{"city":"New York","geo_score":0.857,"business name":"LV","id":"a62hxgfoqzmg","geo_precision":"zip","column_2":null,"column_3":null},"type":"Feature","geometry":{"type":"Point","coordinates":[-75.4998978,43.0003472]}},{"properties":{"city":"San Francisco","geo_score":0.0,"business name":"LV","id":"a62hxghs14o9","geo_precision":"unmatched","column_2":null,"column_3":null},"type":"Feature","geometry":null},{"properties":{"city":"Scottsdale","geo_score":0.792,"business name":"LV","id":"a62hxge5j80g","geo_precision":"zip","column_2":null,"column_3":null},"type":"Feature","geometry":{"type":"Point","coordinates":[5.25,13.0833333]}},{"properties":{"city":"Paramus","geo_score":0.762,"business name":"LV","id":"a62hxghol0rg","geo_precision":"zip","column_2":null,"column_3":null},"type":"Feature","geometry":{"type":"Point","coordinates":[-49.8850654666666,-21.5288723166667]}},{"properties":{"city":"Honolulu","geo_score":0.857,"business name":"LV","id":"a62hxge6ouhh","geo_precision":"zip","column_2":null,"column_3":null},"type":"Feature","geometry":{"type":"Point","coordinates":[-157.8583333,21.3069444]}},{"properties":{"city":"Boston","geo_score":0.857,"business name":"LV","id":"a62hxgd6rrad","geo_precision":"zip","column_2":null,"column_3":null},"type":"Feature","geometry":{"type":"Point","coordinates":[-71.0597732,42.3584308]}},{"properties":{"city":"Pittsburgh","geo_score":0.857,"business name":"LV","id":"a62hxgkpn1go","geo_precision":"zip","column_2":null,"column_3":null},"type":"Feature","geometry":{"type":"Point","coordinates":[-79.9958864,40.4406248]}},{"properties":{"city":"Miami","geo_score":0.857,"business name":"LV","id":"a62hxgdvs6j1","geo_precision":"zip","column_2":null,"column_3":null},"type":"Feature","geometry":{"type":"Point","coordinates":[-80.1936589,25.7742658]}},{"properties":{"city":"Altanta","geo_score":0.774,"business name":"LV","id":"a62hxg8z1nrw","geo_precision":"zip","column_2":null,"column_3":null},"type":"Feature","geometry":{"type":"Point","coordinates":[13.25,53.6833333]}},{"properties":{"city":"San Diego","geo_score":0.732,"business name":"LV","id":"a62hxgav1i0b","geo_precision":"zip","column_2":null,"column_3":null},"type":"Feature","geometry":{"type":"Point","coordinates":[108.9286111,34.2583333]}},{"properties":{"city":"Chicago","geo_score":0.857,"business name":"LV","id":"a62hxg5mct9e","geo_precision":"zip","column_2":null,"column_3":null},"type":"Feature","geometry":{"type":"Point","coordinates":[-87.6500523,41.850033]}}],"is_temporal":false,"author":{"url":"","metadata":"","contact_name":"","contact_address":"","source":"","contact_phone":""},"source":"","pagination":{"sort":null,"start":0,"total":25,"limit":1000000},"state":"complete","tags":"","published":"2014-08-14T22:32:06-04:00","id":226114}