{"type":"FeatureCollection","data_type":"Dataset","url_type":null,"permissions":[{"permissions":{"download":true,"view":true},"group_id":"everyone"}],"classification":null,"title":"test table for high allergen and low AQI","count":6,"stream_id":232305,"contributor":{"url":"http://geocommons.com/users/43894","name":"gcurry"},"data_attributes":null,"calculation_params":null,"icon_link":null,"link":"http://geocommons.com/overlays/232305.json","extent":[-123.262,32.2217,-83.6875,44.5646],"geometry_types":["point"],"unique_name":null,"name":"test table for high allergen and low AQI","feature_count":6,"description":"","next_feature":null,"is_raster":false,"short_classification":"Y","stats":{"pollen count":{"max":11.5,"variance":0.457666666666667,"mean":10.7166666666667,"stdev":0.676510655249913,"min":10.0,"median":11.0}},"features":[{"properties":{"city":"Tucson","geo_score":0.857,"pollen count":11.0,"aiq index":"High","area test":"test 1","id":"a6f6sfej3hv2","geo_precision":"city","state":"Arizona"},"type":"Feature","geometry":{"type":"Point","coordinates":[-110.926479,32.221743]}},{"properties":{"city":"Tucson","geo_score":0.857,"pollen count":10.0,"aiq index":"High","area test":"test 2","id":"a6f6sf1ksujf","geo_precision":"city","state":"Arizona"},"type":"Feature","geometry":{"type":"Point","coordinates":[-110.926479,32.221743]}},{"properties":{"city":"Corvallis","geo_score":0.857,"pollen count":10.0,"aiq index":"High","area test":"test 3","id":"a6f6sf55fctf","geo_precision":"city","state":"Oregon"},"type":"Feature","geometry":{"type":"Point","coordinates":[-123.262044,44.564566]}},{"properties":{"city":"Flint","geo_score":0.857,"pollen count":11.5,"aiq index":"High","area test":"test 4","id":"a6f6sf4946me","geo_precision":"city","state":"Michigan"},"type":"Feature","geometry":{"type":"Point","coordinates":[-83.687456,43.012527]}},{"properties":{"city":"Cheyenne","geo_score":0.857,"pollen count":10.4,"aiq index":"High","area test":"test 5","id":"a6f6sf28uy5l","geo_precision":"city","state":"Wyoming"},"type":"Feature","geometry":{"type":"Point","coordinates":[-104.820246,41.139981]}},{"properties":{"city":"Grand Rapids","geo_score":0.714,"pollen count":11.4,"aiq index":"High","area test":"test 6","id":"a6f6sfd3po4l","geo_precision":"city","state":"Michign"},"type":"Feature","geometry":{"type":"Point","coordinates":[-85.668086,42.96336]}}],"is_temporal":false,"author":{"url":"","metadata":"","contact_name":"","contact_address":"","source":"","contact_phone":""},"source":"","pagination":{"sort":null,"start":0,"total":6,"limit":1000000},"state":"complete","tags":"","published":"2014-08-14T18:09:22-04:00","id":232305}