{"type":"FeatureCollection","data_type":"Dataset","url_type":null,"permissions":[{"permissions":{"download":true,"view":true},"group_id":"everyone"}],"classification":null,"title":"\nFull Member location\n","count":1568,"stream_id":25169,"contributor":{"url":"http://geocommons.com/users/11444","name":"platial"},"data_attributes":null,"calculation_params":null,"icon_link":null,"link":"http://geocommons.com/overlays/25169.json","extent":[-168.095,-41.7072,174.886,65.6233],"geometry_types":["point"],"unique_name":null,"name":"\nFull Member location\n","feature_count":1568,"description":"","next_feature":null,"is_raster":false,"short_classification":"Y","stats":{},"features":[{"properties":{"name":null,"description":"Posted by <a title=\"http://www.lakemalawi.co.uk\" href=\"http://www.lakemalawi.co.uk\">Rdwh</a>all , to, do<a title=\"Built for Community Mapping\" href=\"http://www.platial.com\"><img src=\"http://media.geocommons.com/platial/images/logotype_small.jpg\"></a>","id":"a6896usxsqu0"},"type":"Feature","geometry":{"type":"Point","coordinates":[-71.634703,17.476924]}},{"properties":{"name":"17SECONDS","description":"Posted by <a title=\"http://www.lakemalawi.co.uk\" href=\"http://www.lakemalawi.co.uk\">Rdwh</a>SOUTH AFRICA, SOUTH AFRICA<a title=\"Built for Community Mapping\" href=\"http://www.platial.com\"><img src=\"http://media.geocommons.com/platial/images/logotype_small.jpg\"></a>","id":"a6896usojz79"},"type":"Feature","geometry":{"type":"Point","coordinates":[22.937506,-30.559482]}},{"properties":{"name":"1FCANGLIA","description":"Posted by <a title=\"http://www.lakemalawi.co.uk\" href=\"http://www.lakemalawi.co.uk\">Rdwh</a>LOWESTOFT, ENGLAND<a title=\"Built for Community Mapping\" href=\"http://www.platial.com\"><img src=\"http://media.geocommons.com/platial/images/logotype_small.jpg\"></a>","id":"a6896ukjelti"},"type":"Feature","geometry":{"type":"Point","coordinates":[1.753642,52.474739]}},{"properties":{"name":"24TROPH","description":"Posted by <a title=\"http://www.lakemalawi.co.uk\" href=\"http://www.lakemalawi.co.uk\">Rdwh</a>ESSEX, ENGLAND<a title=\"Built for Community Mapping\" href=\"http://www.platial.com\"><img src=\"http://media.geocommons.com/platial/images/logotype_small.jpg\"></a>","id":"a6896usum6s8"},"type":"Feature","geometry":{"type":"Point","coordinates":[0.636477,51.796696]}},{"properties":{"name":"2WINDY","description":"Posted by <a title=\"http://www.lakemalawi.co.uk\" href=\"http://www.lakemalawi.co.uk\">Rdwh</a>GRIMBSY, ENGLAND<a title=\"Built for Community Mapping\" href=\"http://www.platial.com\"><img src=\"http://media.geocommons.com/platial/images/logotype_small.jpg\"></a>","id":"a6896ulittpo"},"type":"Feature","geometry":{"type":"Point","coordinates":[-0.075188,53.565444]}},{"properties":{"name":"333-HALF-EVIL-333","description":"Posted by <a title=\"http://www.lakemalawi.co.uk\" href=\"http://www.lakemalawi.co.uk\">Rdwh</a>DURHAM, ENGLAND<a title=\"Built for Community Mapping\" href=\"http://www.platial.com\"><img src=\"http://media.geocommons.com/platial/images/logotype_small.jpg\"></a>","id":"a6896ur21yjb"},"type":"Feature","geometry":{"type":"Point","coordinates":[-1.559605,54.778692]}},{"properties":{"name":"57SPOOK","description":"Posted by <a title=\"http://www.lakemalawi.co.uk\" href=\"http://www.lakemalawi.co.uk\">Rdwh</a>USA, USA<a title=\"Built for Community Mapping\" href=\"http://www.platial.com\"><img src=\"http://media.geocommons.com/platial/images/logotype_small.jpg\"></a>","id":"a6896ue03z9a"},"type":"Feature","geometry":{"type":"Point","coordinates":[-95.712891,37.09024]}},{"properties":{"name":"964RS","description":"Posted by <a title=\"http://www.lakemalawi.co.uk\" href=\"http://www.lakemalawi.co.uk\">Rdwh</a>NOTTINGHAM, ENGLAND<a title=\"Built for Community Mapping\" href=\"http://www.platial.com\"><img src=\"http://media.geocommons.com/platial/images/logotype_small.jpg\"></a>","id":"a6896unz1kcr"},"type":"Feature","geometry":{"type":"Point","coordinates":[-1.1493,52.955073]}},{"properties":{"name":"A SHRIMP WITH A LIMP","description":"Posted by <a title=\"http://www.lakemalawi.co.uk\" href=\"http://www.lakemalawi.co.uk\">Rdwh</a>DALSLAND, SWEDEN<a title=\"Built for Community Mapping\" href=\"http://www.platial.com\"><img src=\"http://media.geocommons.com/platial/images/logotype_small.jpg\"></a>","id":"a6896uggxajs"},"type":"Feature","geometry":{"type":"Point","coordinates":[12.4,58.85]}},{"properties":{"name":"A1A.CUTIES","description":"Posted by <a title=\"http://www.lakemalawi.co.uk\" href=\"http://www.lakemalawi.co.uk\">Rdwh</a>USA, USA<a title=\"Built for Community Mapping\" href=\"http://www.platial.com\"><img src=\"http://media.geocommons.com/platial/images/logotype_small.jpg\"></a>","id":"a6896uo7vciy"},"type":"Feature","geometry":{"type":"Point","coordinates":[-95.712891,37.09024]}},{"properties":{"name":"AAAAA","description":"Posted by <a title=\"http://www.lakemalawi.co.uk\" href=\"http://www.lakemalawi.co.uk\">Rdwh</a>Northants uk<a title=\"Built for Community Mapping\" href=\"http://www.platial.com\"><img src=\"http://media.geocommons.com/platial/images/logotype_small.jpg\"></a>","id":"a6896uon1e2f"},"type":"Feature","geometry":{"type":"Point","coordinates":[-0.875552,52.272994]}},{"properties":{"name":"AAAVERILLA","description":"Posted by <a title=\"http://www.lakemalawi.co.uk\" href=\"http://www.lakemalawi.co.uk\">Rdwh</a>PHILIPPINES, ASIA<a title=\"Built for Community Mapping\" href=\"http://www.platial.com\"><img src=\"http://media.geocommons.com/platial/images/logotype_small.jpg\"></a>","id":"a6896ukd96ti"},"type":"Feature","geometry":{"type":"Point","coordinates":[121.774017,12.879721]}},{"properties":{"name":"ABBALA","description":"Posted by <a title=\"http://www.lakemalawi.co.uk\" href=\"http://www.lakemalawi.co.uk\">Rdwh</a>CANADA, CANADA<a title=\"Built for Community Mapping\" href=\"http://www.platial.com\"><img src=\"http://media.geocommons.com/platial/images/logotype_small.jpg\"></a>","id":"a6896usqp3mr"},"type":"Feature","geometry":{"type":"Point","coordinates":[-122.968763,49.24188]}},{"properties":{"name":"ABCD","description":"Posted by <a title=\"http://www.lakemalawi.co.uk\" href=\"http://www.lakemalawi.co.uk\">Rdwh</a>LEICESTER, ENGLAND<a title=\"Built for Community Mapping\" href=\"http://www.platial.com\"><img src=\"http://media.geocommons.com/platial/images/logotype_small.jpg\"></a>","id":"a6896urzulzm"},"type":"Feature","geometry":{"type":"Point","coordinates":[-1.129443,52.63457]}},{"properties":{"name":"ABMALAWI","description":"Posted by <a title=\"http://www.lakemalawi.co.uk\" href=\"http://www.lakemalawi.co.uk\">Rdwh</a>GLASGOW, SCOTLAND<a title=\"Built for Community Mapping\" href=\"http://www.platial.com\"><img src=\"http://media.geocommons.com/platial/images/logotype_small.jpg\"></a>","id":"a6896upuvgci"},"type":"Feature","geometry":{"type":"Point","coordinates":[-4.25,55.833332]}},{"properties":{"name":"ACEA091489","description":"Posted by <a title=\"http://www.lakemalawi.co.uk\" href=\"http://www.lakemalawi.co.uk\">Rdwh</a>WILMINGTON, USA<a title=\"Built for Community Mapping\" href=\"http://www.platial.com\"><img src=\"http://media.geocommons.com/platial/images/logotype_small.jpg\"></a>","id":"a6896ughdslf"},"type":"Feature","geometry":{"type":"Point","coordinates":[-75.546589,39.745947]}},{"properties":{"name":"ACQUARIO","description":"Posted by <a title=\"http://www.lakemalawi.co.uk\" href=\"http://www.lakemalawi.co.uk\">Rdwh</a>USA, USA<a title=\"Built for Community Mapping\" href=\"http://www.platial.com\"><img src=\"http://media.geocommons.com/platial/images/logotype_small.jpg\"></a>","id":"a6896uk8svrf"},"type":"Feature","geometry":{"type":"Point","coordinates":[-95.712891,37.09024]}},{"properties":{"name":"ADAMBRUM","description":"Posted by <a title=\"http://www.lakemalawi.co.uk\" href=\"http://www.lakemalawi.co.uk\">Rdwh</a>BIRMINGHAM, ENGLAND<a title=\"Built for Community Mapping\" href=\"http://www.platial.com\"><img src=\"http://media.geocommons.com/platial/images/logotype_small.jpg\"></a>","id":"a6896un74jyj"},"type":"Feature","geometry":{"type":"Point","coordinates":[-1.916667,52.466667]}},{"properties":{"name":"ADAMXZR","description":"Posted by <a title=\"http://www.lakemalawi.co.uk\" href=\"http://www.lakemalawi.co.uk\">Rdwh</a>LEICESTER, ENGLAND<a title=\"Built for Community Mapping\" href=\"http://www.platial.com\"><img src=\"http://media.geocommons.com/platial/images/logotype_small.jpg\"></a>","id":"a6896uesx0hx"},"type":"Feature","geometry":{"type":"Point","coordinates":[-1.129443,52.63457]}},{"properties":{"name":"ADDICTED2CICHLID","description":"Posted by <a title=\"http://www.lakemalawi.co.uk\" href=\"http://www.lakemalawi.co.uk\">Rdwh</a>ILLINOIS, USA<a title=\"Built for Community Mapping\" href=\"http://www.platial.com\"><img src=\"http://media.geocommons.com/platial/images/logotype_small.jpg\"></a>","id":"a6896unvw2yh"},"type":"Feature","geometry":{"type":"Point","coordinates":[-89.319835,39.739255]}},{"properties":{"name":"ADIMINBUS","description":"Posted by <a title=\"http://www.lakemalawi.co.uk\" href=\"http://www.lakemalawi.co.uk\">Rdwh</a>ILFORD, ENGLAND<a title=\"Built for Community Mapping\" href=\"http://www.platial.com\"><img src=\"http://media.geocommons.com/platial/images/logotype_small.jpg\"></a>","id":"a6896uh2disn"},"type":"Feature","geometry":{"type":"Point","coordinates":[0.070101,51.557663]}},{"properties":{"name":"ADJOHNSON","description":"Posted by <a title=\"http://www.lakemalawi.co.uk\" href=\"http://www.lakemalawi.co.uk\">Rdwh</a>USA, USA<a title=\"Built for Community Mapping\" href=\"http://www.platial.com\"><img src=\"http://media.geocommons.com/platial/images/logotype_small.jpg\"></a>","id":"a6896uf37hyx"},"type":"Feature","geometry":{"type":"Point","coordinates":[-95.712891,37.09024]}},{"properties":{"name":"ADNAM","description":"Posted by <a title=\"http://www.lakemalawi.co.uk\" href=\"http://www.lakemalawi.co.uk\">Rdwh</a>ISLE OF WHITE, ISLE OF WIGHT<a title=\"Built for Community Mapping\" href=\"http://www.platial.com\"><img src=\"http://media.geocommons.com/platial/images/logotype_small.jpg\"></a>","id":"a6896usgzsya"},"type":"Feature","geometry":{"type":"Point","coordinates":[-1.171414,50.650474]}},{"properties":{"name":"ADOBSKI","description":"Posted by <a title=\"http://www.lakemalawi.co.uk\" href=\"http://www.lakemalawi.co.uk\">Rdwh</a>LANCASTER, ENGLAND<a title=\"Built for Community Mapping\" href=\"http://www.platial.com\"><img src=\"http://media.geocommons.com/platial/images/logotype_small.jpg\"></a>","id":"a6896urcwnyb"},"type":"Feature","geometry":{"type":"Point","coordinates":[-2.798433,54.049585]}},{"properties":{"name":"ADRIAN8139","description":"Posted by <a title=\"http://www.lakemalawi.co.uk\" href=\"http://www.lakemalawi.co.uk\">Rdwh</a>WILTSHIRE, ENGLAND<a title=\"Built for Community Mapping\" href=\"http://www.platial.com\"><img src=\"http://media.geocommons.com/platial/images/logotype_small.jpg\"></a>","id":"a6896uim4hab"},"type":"Feature","geometry":{"type":"Point","coordinates":[-1.925668,51.324127]}},{"properties":{"name":"AERZENSPIDER","description":"Posted by <a title=\"http://www.lakemalawi.co.uk\" href=\"http://www.lakemalawi.co.uk\">Rdwh</a>LONDON, ENGLAND<a title=\"Built for Community Mapping\" href=\"http://www.platial.com\"><img src=\"http://media.geocommons.com/platial/images/logotype_small.jpg\"></a>","id":"a6896uebtwmh"},"type":"Feature","geometry":{"type":"Point","coordinates":[-0.116667,51.5]}},{"properties":{"name":"AFTER_SHOCK","description":"Posted by <a title=\"http://www.lakemalawi.co.uk\" href=\"http://www.lakemalawi.co.uk\">Rdwh</a>HARTLEPOOL, ENGLAND<a title=\"Built for Community Mapping\" href=\"http://www.platial.com\"><img src=\"http://media.geocommons.com/platial/images/logotype_small.jpg\"></a>","id":"a6896ushwxnc"},"type":"Feature","geometry":{"type":"Point","coordinates":[-1.216697,54.682492]}},{"properties":{"name":"AGRCIA1018","description":"Posted by <a title=\"http://www.lakemalawi.co.uk\" href=\"http://www.lakemalawi.co.uk\">Rdwh</a>LOUISIANA, USA<a title=\"Built for Community Mapping\" href=\"http://www.platial.com\"><img src=\"http://media.geocommons.com/platial/images/logotype_small.jpg\"></a>","id":"a6896ukl7t6e"},"type":"Feature","geometry":{"type":"Point","coordinates":[-91.42642,30.9742]}},{"properties":{"name":"AHLIMATTHEWS","description":"Posted by <a title=\"http://www.lakemalawi.co.uk\" href=\"http://www.lakemalawi.co.uk\">Rdwh</a>MALVERN, ENGLAND<a title=\"Built for Community Mapping\" href=\"http://www.platial.com\"><img src=\"http://media.geocommons.com/platial/images/logotype_small.jpg\"></a>","id":"a6896uezam4g"},"type":"Feature","geometry":{"type":"Point","coordinates":[-2.319831,52.111899]}},{"properties":{"name":"AIAM78","description":"Posted by <a title=\"http://www.lakemalawi.co.uk\" href=\"http://www.lakemalawi.co.uk\">Rdwh</a>ITALY, ITALY<a title=\"Built for Community Mapping\" href=\"http://www.platial.com\"><img src=\"http://media.geocommons.com/platial/images/logotype_small.jpg\"></a>","id":"a6896um0bq90"},"type":"Feature","geometry":{"type":"Point","coordinates":[-96.885113,32.184217]}},{"properties":{"name":"AIMER","description":"Posted by <a title=\"http://www.lakemalawi.co.uk\" href=\"http://www.lakemalawi.co.uk\">Rdwh</a>CORNWALL, ENGLAND<a title=\"Built for Community Mapping\" href=\"http://www.platial.com\"><img src=\"http://media.geocommons.com/platial/images/logotype_small.jpg\"></a>","id":"a6896un8i3tt"},"type":"Feature","geometry":{"type":"Point","coordinates":[4.955693,0.44247]}},{"properties":{"name":"AJNS","description":"Posted by <a title=\"http://www.lakemalawi.co.uk\" href=\"http://www.lakemalawi.co.uk\">Rdwh</a>MACCLESFIELD, ENGLAND<a title=\"Built for Community Mapping\" href=\"http://www.platial.com\"><img src=\"http://media.geocommons.com/platial/images/logotype_small.jpg\"></a>","id":"a6896umlbq56"},"type":"Feature","geometry":{"type":"Point","coordinates":[-2.128189,53.260843]}},{"properties":{"name":"AKA MOBBY","description":"Posted by <a title=\"http://www.lakemalawi.co.uk\" href=\"http://www.lakemalawi.co.uk\">Rdwh</a>CAPE TOWN, SOUTH AFRICA<a title=\"Built for Community Mapping\" href=\"http://www.platial.com\"><img src=\"http://media.geocommons.com/platial/images/logotype_small.jpg\"></a>","id":"a6896uh5t7nx"},"type":"Feature","geometry":{"type":"Point","coordinates":[18.459999,-33.93]}},{"properties":{"name":"AKEOGH","description":"Posted by <a title=\"http://www.lakemalawi.co.uk\" href=\"http://www.lakemalawi.co.uk\">Rdwh</a>LEICESTER, ENGLAND<a title=\"Built for Community Mapping\" href=\"http://www.platial.com\"><img src=\"http://media.geocommons.com/platial/images/logotype_small.jpg\"></a>","id":"a6896uleofca"},"type":"Feature","geometry":{"type":"Point","coordinates":[-1.129443,52.63457]}},{"properties":{"name":"AKFOUR SEVEN","description":"Posted by <a title=\"http://www.lakemalawi.co.uk\" href=\"http://www.lakemalawi.co.uk\">Rdwh</a>USA, USA<a title=\"Built for Community Mapping\" href=\"http://www.platial.com\"><img src=\"http://media.geocommons.com/platial/images/logotype_small.jpg\"></a>","id":"a6896us11hfl"},"type":"Feature","geometry":{"type":"Point","coordinates":[-95.712891,37.09024]}},{"properties":{"name":"AKS9686","description":"Posted by <a title=\"http://www.lakemalawi.co.uk\" href=\"http://www.lakemalawi.co.uk\">Rdwh</a>INDIA, INDIA<a title=\"Built for Community Mapping\" href=\"http://www.platial.com\"><img src=\"http://media.geocommons.com/platial/images/logotype_small.jpg\"></a>","id":"a6896utitwhf"},"type":"Feature","geometry":{"type":"Point","coordinates":[-96.616665,32.520455]}},{"properties":{"name":"AKVAFIL","description":"Posted by <a title=\"http://www.lakemalawi.co.uk\" href=\"http://www.lakemalawi.co.uk\">Rdwh</a>NORWAY, NORWAY<a title=\"Built for Community Mapping\" href=\"http://www.platial.com\"><img src=\"http://media.geocommons.com/platial/images/logotype_small.jpg\"></a>","id":"a6896ukw4iwi"},"type":"Feature","geometry":{"type":"Point","coordinates":[8.468946,60.472024]}},{"properties":{"name":"AKVANOVA","description":"Posted by <a title=\"http://www.lakemalawi.co.uk\" href=\"http://www.lakemalawi.co.uk\">Rdwh</a>NORWAY, NORWAY<a title=\"Built for Community Mapping\" href=\"http://www.platial.com\"><img src=\"http://media.geocommons.com/platial/images/logotype_small.jpg\"></a>","id":"a6896utofeau"},"type":"Feature","geometry":{"type":"Point","coordinates":[8.468946,60.472024]}},{"properties":{"name":"ALACRITY","description":"Posted by <a title=\"http://www.lakemalawi.co.uk\" href=\"http://www.lakemalawi.co.uk\">Rdwh</a>SOMERSET, ENGLAND<a title=\"Built for Community Mapping\" href=\"http://www.platial.com\"><img src=\"http://media.geocommons.com/platial/images/logotype_small.jpg\"></a>","id":"a6896ufhxr80"},"type":"Feature","geometry":{"type":"Point","coordinates":[-3.04212,51.076822]}},{"properties":{"name":"ALACROIX","description":"Posted by <a title=\"http://www.lakemalawi.co.uk\" href=\"http://www.lakemalawi.co.uk\">Rdwh</a>CANADA, CANADA<a title=\"Built for Community Mapping\" href=\"http://www.platial.com\"><img src=\"http://media.geocommons.com/platial/images/logotype_small.jpg\"></a>","id":"a6896ulbuqu2"},"type":"Feature","geometry":{"type":"Point","coordinates":[-122.968763,49.24188]}},{"properties":{"name":"ALAN","description":"Posted by <a title=\"http://www.lakemalawi.co.uk\" href=\"http://www.lakemalawi.co.uk\">Rdwh</a>TAMWORTH, ENGLAND<a title=\"Built for Community Mapping\" href=\"http://www.platial.com\"><img src=\"http://media.geocommons.com/platial/images/logotype_small.jpg\"></a>","id":"a6896ue2l5bd"},"type":"Feature","geometry":{"type":"Point","coordinates":[-1.690712,52.634292]}},{"properties":{"name":"ALAN D","description":"Posted by <a title=\"http://www.lakemalawi.co.uk\" href=\"http://www.lakemalawi.co.uk\">Rdwh</a>MANCHESTER, ENGLAND<a title=\"Built for Community Mapping\" href=\"http://www.platial.com\"><img src=\"http://media.geocommons.com/platial/images/logotype_small.jpg\"></a>","id":"a6896uegp61q"},"type":"Feature","geometry":{"type":"Point","coordinates":[-2.216667,53.5]}},{"properties":{"name":"ALAN FIZGIBBON","description":"Posted by <a title=\"http://www.lakemalawi.co.uk\" href=\"http://www.lakemalawi.co.uk\">Rdwh</a>JOHANNESBURG, SOUTH AFRICA<a title=\"Built for Community Mapping\" href=\"http://www.platial.com\"><img src=\"http://media.geocommons.com/platial/images/logotype_small.jpg\"></a>","id":"a6896ul9qsaw"},"type":"Feature","geometry":{"type":"Point","coordinates":[28.04,-26.19]}},{"properties":{"name":"ALAN1972","description":"Posted by <a title=\"http://www.lakemalawi.co.uk\" href=\"http://www.lakemalawi.co.uk\">Rdwh</a>WHITBURN, ENGLAND<a title=\"Built for Community Mapping\" href=\"http://www.platial.com\"><img src=\"http://media.geocommons.com/platial/images/logotype_small.jpg\"></a>","id":"a6896uq5yc35"},"type":"Feature","geometry":{"type":"Point","coordinates":[-1.368004,54.950416]}},{"properties":{"name":"ALAN23","description":"Posted by <a title=\"http://www.lakemalawi.co.uk\" href=\"http://www.lakemalawi.co.uk\">Rdwh</a>FILEY, ENGLAND<a title=\"Built for Community Mapping\" href=\"http://www.platial.com\"><img src=\"http://media.geocommons.com/platial/images/logotype_small.jpg\"></a>","id":"a6896umxik8y"},"type":"Feature","geometry":{"type":"Point","coordinates":[-0.291928,54.210176]}},{"properties":{"name":"ALANG","description":"Posted by <a title=\"http://www.lakemalawi.co.uk\" href=\"http://www.lakemalawi.co.uk\">Rdwh</a>LANGLEY, ENGLAND<a title=\"Built for Community Mapping\" href=\"http://www.platial.com\"><img src=\"http://media.geocommons.com/platial/images/logotype_small.jpg\"></a>","id":"a6896umpao36"},"type":"Feature","geometry":{"type":"Point","coordinates":[0.10427,51.995822]}},{"properties":{"name":"ALANRICHIE","description":"Posted by <a title=\"http://www.lakemalawi.co.uk\" href=\"http://www.lakemalawi.co.uk\">Rdwh</a>NEWCASTLE UPON TYNE, ENGLAND<a title=\"Built for Community Mapping\" href=\"http://www.platial.com\"><img src=\"http://media.geocommons.com/platial/images/logotype_small.jpg\"></a>","id":"a6896urfekt6"},"type":"Feature","geometry":{"type":"Point","coordinates":[-1.613221,54.977817]}},{"properties":{"name":"ALEX","description":"Posted by <a title=\"http://www.lakemalawi.co.uk\" href=\"http://www.lakemalawi.co.uk\">Rdwh</a>STROUD, ENGLAND<a title=\"Built for Community Mapping\" href=\"http://www.platial.com\"><img src=\"http://media.geocommons.com/platial/images/logotype_small.jpg\"></a>","id":"a6896uk1lkgs"},"type":"Feature","geometry":{"type":"Point","coordinates":[-2.215579,51.747577]}},{"properties":{"name":"ALEXAN","description":"Posted by <a title=\"http://www.lakemalawi.co.uk\" href=\"http://www.lakemalawi.co.uk\">Rdwh</a>CRAIOVA, ROMANIA<a title=\"Built for Community Mapping\" href=\"http://www.platial.com\"><img src=\"http://media.geocommons.com/platial/images/logotype_small.jpg\"></a>","id":"a6896uqzm4bz"},"type":"Feature","geometry":{"type":"Point","coordinates":[23.819999,44.330001]}},{"properties":{"name":"ALFA","description":"Posted by <a title=\"http://www.lakemalawi.co.uk\" href=\"http://www.lakemalawi.co.uk\">Rdwh</a>NORTHWICH, ENGLAND<a title=\"Built for Community Mapping\" href=\"http://www.platial.com\"><img src=\"http://media.geocommons.com/platial/images/logotype_small.jpg\"></a>","id":"a6896usqhz8y"},"type":"Feature","geometry":{"type":"Point","coordinates":[-2.518091,53.258806]}},{"properties":{"name":"ALIBABA","description":"Posted by <a title=\"http://www.lakemalawi.co.uk\" href=\"http://www.lakemalawi.co.uk\">Rdwh</a>LUTTERWORTH, ENGLAND<a title=\"Built for Community Mapping\" href=\"http://www.platial.com\"><img src=\"http://media.geocommons.com/platial/images/logotype_small.jpg\"></a>","id":"a6896uo07ctz"},"type":"Feature","geometry":{"type":"Point","coordinates":[-1.210815,52.458564]}},{"properties":{"name":"ALLEN","description":"Posted by <a title=\"http://www.lakemalawi.co.uk\" href=\"http://www.lakemalawi.co.uk\">Rdwh</a>TULARE, USA<a title=\"Built for Community Mapping\" href=\"http://www.platial.com\"><img src=\"http://media.geocommons.com/platial/images/logotype_small.jpg\"></a>","id":"a6896up3e7g4"},"type":"Feature","geometry":{"type":"Point","coordinates":[-119.347338,36.207729]}},{"properties":{"name":"ALLEN831","description":"Posted by <a title=\"http://www.lakemalawi.co.uk\" href=\"http://www.lakemalawi.co.uk\">Rdwh</a>NEWHOLM, USA<a title=\"Built for Community Mapping\" href=\"http://www.platial.com\"><img src=\"http://media.geocommons.com/platial/images/logotype_small.jpg\"></a>","id":"a6896ussm4pd"},"type":"Feature","geometry":{"type":"Point","coordinates":[-92.206598,46.412499]}},{"properties":{"name":"ALLIONII 123","description":"Posted by <a title=\"http://www.lakemalawi.co.uk\" href=\"http://www.lakemalawi.co.uk\">Rdwh</a>EGGINGTON, ENGLAND<a title=\"Built for Community Mapping\" href=\"http://www.platial.com\"><img src=\"http://media.geocommons.com/platial/images/logotype_small.jpg\"></a>","id":"a6896urxmxtb"},"type":"Feature","geometry":{"type":"Point","coordinates":[-0.609605,51.917144]}},{"properties":{"name":"ALNES","description":"Posted by <a title=\"http://www.lakemalawi.co.uk\" href=\"http://www.lakemalawi.co.uk\">Rdwh</a>CANNOCK, ENGLAND<a title=\"Built for Community Mapping\" href=\"http://www.platial.com\"><img src=\"http://media.geocommons.com/platial/images/logotype_small.jpg\"></a>","id":"a6896unrgdg7"},"type":"Feature","geometry":{"type":"Point","coordinates":[-2.029025,52.688122]}},{"properties":{"name":"ALPHA-GSR","description":"Posted by <a title=\"http://www.lakemalawi.co.uk\" href=\"http://www.lakemalawi.co.uk\">Rdwh</a>FRESNO, USA<a title=\"Built for Community Mapping\" href=\"http://www.platial.com\"><img src=\"http://media.geocommons.com/platial/images/logotype_small.jpg\"></a>","id":"a6896ulx0zio"},"type":"Feature","geometry":{"type":"Point","coordinates":[-119.772366,36.747727]}},{"properties":{"name":"ALTAFH","description":"Posted by <a title=\"http://www.lakemalawi.co.uk\" href=\"http://www.lakemalawi.co.uk\">Rdwh</a>BRADFORD, ENGLAND<a title=\"Built for Community Mapping\" href=\"http://www.platial.com\"><img src=\"http://media.geocommons.com/platial/images/logotype_small.jpg\"></a>","id":"a6896uok5hkf"},"type":"Feature","geometry":{"type":"Point","coordinates":[-1.752461,53.79381]}},{"properties":{"name":"ALVIN","description":"Posted by <a title=\"http://www.lakemalawi.co.uk\" href=\"http://www.lakemalawi.co.uk\">Rdwh</a>ROMSEY, ENGLAND<a title=\"Built for Community Mapping\" href=\"http://www.platial.com\"><img src=\"http://media.geocommons.com/platial/images/logotype_small.jpg\"></a>","id":"a6896uni6yt9"},"type":"Feature","geometry":{"type":"Point","coordinates":[-1.498872,50.988902]}},{"properties":{"name":"AMANDACLOSE","description":"Posted by <a title=\"http://www.lakemalawi.co.uk\" href=\"http://www.lakemalawi.co.uk\">Rdwh</a>MARYLAND, USA<a title=\"Built for Community Mapping\" href=\"http://www.platial.com\"><img src=\"http://media.geocommons.com/platial/images/logotype_small.jpg\"></a>","id":"a6896ujs6qfn"},"type":"Feature","geometry":{"type":"Point","coordinates":[-77.236968,38.805114]}},{"properties":{"name":"AMBOSELI","description":"Posted by <a title=\"http://www.lakemalawi.co.uk\" href=\"http://www.lakemalawi.co.uk\">Rdwh</a>ASHBY DE LA ZOUCH, ENGLAND<a title=\"Built for Community Mapping\" href=\"http://www.platial.com\"><img src=\"http://media.geocommons.com/platial/images/logotype_small.jpg\"></a>","id":"a6896uomemj3"},"type":"Feature","geometry":{"type":"Point","coordinates":[-1.473528,52.74664]}},{"properties":{"name":"AMETELECREEFLY","description":"Posted by <a title=\"http://www.lakemalawi.co.uk\" href=\"http://www.lakemalawi.co.uk\">Rdwh</a>DOMINICAN REPUBLIC, DOMINICAN REPUBLIC<a title=\"Built for Community Mapping\" href=\"http://www.platial.com\"><img src=\"http://media.geocommons.com/platial/images/logotype_small.jpg\"></a>","id":"a6896uqsm28c"},"type":"Feature","geometry":{"type":"Point","coordinates":[-70.162651,18.735693]}},{"properties":{"name":"AMONI1808","description":"Posted by <a title=\"http://www.lakemalawi.co.uk\" href=\"http://www.lakemalawi.co.uk\">Rdwh</a>DOMINICAN REPUBLIC, DOMINICAN REPUBLIC<a title=\"Built for Community Mapping\" href=\"http://www.platial.com\"><img src=\"http://media.geocommons.com/platial/images/logotype_small.jpg\"></a>","id":"a6896ueb6t5x"},"type":"Feature","geometry":{"type":"Point","coordinates":[-70.162651,18.735693]}},{"properties":{"name":"AMYW","description":"Posted by <a title=\"http://www.lakemalawi.co.uk\" href=\"http://www.lakemalawi.co.uk\">Rdwh</a>DERBY, ENGLAND<a title=\"Built for Community Mapping\" href=\"http://www.platial.com\"><img src=\"http://media.geocommons.com/platial/images/logotype_small.jpg\"></a>","id":"a6896uowffh1"},"type":"Feature","geometry":{"type":"Point","coordinates":[-1.475641,52.921899]}},{"properties":{"name":"ANDREW","description":"Posted by <a title=\"http://www.lakemalawi.co.uk\" href=\"http://www.lakemalawi.co.uk\">Rdwh</a>SYDNEY, AUSTRALIA<a title=\"Built for Community Mapping\" href=\"http://www.platial.com\"><img src=\"http://media.geocommons.com/platial/images/logotype_small.jpg\"></a>","id":"a6896utgbd2b"},"type":"Feature","geometry":{"type":"Point","coordinates":[151.210006,-33.869998]}},{"properties":{"name":"ANDREW MAWE","description":"Posted by <a title=\"http://www.lakemalawi.co.uk\" href=\"http://www.lakemalawi.co.uk\">Rdwh</a>YORKSHIRE, ENGLAND<a title=\"Built for Community Mapping\" href=\"http://www.platial.com\"><img src=\"http://media.geocommons.com/platial/images/logotype_small.jpg\"></a>","id":"a6896ukkh9ry"},"type":"Feature","geometry":{"type":"Point","coordinates":[-1.458004,53.663632]}},{"properties":{"name":"ANDREWCOXON","description":"Posted by <a title=\"http://www.lakemalawi.co.uk\" href=\"http://www.lakemalawi.co.uk\">Rdwh</a>COUNTY DURHAM, ENGLAND<a title=\"Built for Community Mapping\" href=\"http://www.platial.com\"><img src=\"http://media.geocommons.com/platial/images/logotype_small.jpg\"></a>","id":"a6896uhdiqke"},"type":"Feature","geometry":{"type":"Point","coordinates":[-1.820178,54.683638]}},{"properties":{"name":"ANDYBT1984","description":"Posted by <a title=\"http://www.lakemalawi.co.uk\" href=\"http://www.lakemalawi.co.uk\">Rdwh</a>ROCHDALE, ENGLAND<a title=\"Built for Community Mapping\" href=\"http://www.platial.com\"><img src=\"http://media.geocommons.com/platial/images/logotype_small.jpg\"></a>","id":"a6896ujy02r6"},"type":"Feature","geometry":{"type":"Point","coordinates":[-2.15871,53.616352]}},{"properties":{"name":"ANDYG","description":"Posted by <a title=\"http://www.lakemalawi.co.uk\" href=\"http://www.lakemalawi.co.uk\">Rdwh</a>MILTON KEYNES, ENGLAND<a title=\"Built for Community Mapping\" href=\"http://www.platial.com\"><img src=\"http://media.geocommons.com/platial/images/logotype_small.jpg\"></a>","id":"a6896ul25bgp"},"type":"Feature","geometry":{"type":"Point","coordinates":[-0.760468,52.041471]}},{"properties":{"name":"ANDYMAC","description":"Posted by <a title=\"http://www.lakemalawi.co.uk\" href=\"http://www.lakemalawi.co.uk\">Rdwh</a>SHEFFIELD, ENGLAND<a title=\"Built for Community Mapping\" href=\"http://www.platial.com\"><img src=\"http://media.geocommons.com/platial/images/logotype_small.jpg\"></a>","id":"a6896upzdo3o"},"type":"Feature","geometry":{"type":"Point","coordinates":[-1.464807,53.38304]}},{"properties":{"name":"ANDYPITSTOP","description":"Posted by <a title=\"http://www.lakemalawi.co.uk\" href=\"http://www.lakemalawi.co.uk\">Rdwh</a>BRIGHTON, ENGLAND<a title=\"Built for Community Mapping\" href=\"http://www.platial.com\"><img src=\"http://media.geocommons.com/platial/images/logotype_small.jpg\"></a>","id":"a6896ui8djlb"},"type":"Feature","geometry":{"type":"Point","coordinates":[-0.139901,50.820723]}},{"properties":{"name":"ANDYRYAN","description":"Posted by <a title=\"http://www.lakemalawi.co.uk\" href=\"http://www.lakemalawi.co.uk\">Rdwh</a>NUNEATON, ENGLAND<a title=\"Built for Community Mapping\" href=\"http://www.platial.com\"><img src=\"http://media.geocommons.com/platial/images/logotype_small.jpg\"></a>","id":"a6896ugpqsak"},"type":"Feature","geometry":{"type":"Point","coordinates":[-1.465095,52.523391]}},{"properties":{"name":"ANDYVECTRA","description":"Posted by <a title=\"http://www.lakemalawi.co.uk\" href=\"http://www.lakemalawi.co.uk\">Rdwh</a>LIVINGSTON, SCOTLAND<a title=\"Built for Community Mapping\" href=\"http://www.platial.com\"><img src=\"http://media.geocommons.com/platial/images/logotype_small.jpg\"></a>","id":"a6896ue8gpjk"},"type":"Feature","geometry":{"type":"Point","coordinates":[-3.517432,55.89765]}},{"properties":{"name":"ANGEL","description":"Posted by <a title=\"http://www.lakemalawi.co.uk\" href=\"http://www.lakemalawi.co.uk\">Rdwh</a>FORESTVILLE, USA<a title=\"Built for Community Mapping\" href=\"http://www.platial.com\"><img src=\"http://media.geocommons.com/platial/images/logotype_small.jpg\"></a>","id":"a6896upcyuxr"},"type":"Feature","geometry":{"type":"Point","coordinates":[-122.890272,38.473524]}},{"properties":{"name":"ANGELFREAK","description":"Posted by <a title=\"http://www.lakemalawi.co.uk\" href=\"http://www.lakemalawi.co.uk\">Rdwh</a>KANSAS, USA<a title=\"Built for Community Mapping\" href=\"http://www.platial.com\"><img src=\"http://media.geocommons.com/platial/images/logotype_small.jpg\"></a>","id":"a6896utffbfz"},"type":"Feature","geometry":{"type":"Point","coordinates":[-95.708156,39.038988]}},{"properties":{"name":"ANGELMOUSE","description":"Posted by <a title=\"http://www.lakemalawi.co.uk\" href=\"http://www.lakemalawi.co.uk\">Rdwh</a>BUCKINGHAMSHIRE, ENGLAND<a title=\"Built for Community Mapping\" href=\"http://www.platial.com\"><img src=\"http://media.geocommons.com/platial/images/logotype_small.jpg\"></a>","id":"a6896uq1ixlw"},"type":"Feature","geometry":{"type":"Point","coordinates":[-0.808262,51.7835]}},{"properties":{"name":"ANGELO","description":"Posted by <a title=\"http://www.lakemalawi.co.uk\" href=\"http://www.lakemalawi.co.uk\">Rdwh</a>STOKE, ENGLAND<a title=\"Built for Community Mapping\" href=\"http://www.platial.com\"><img src=\"http://media.geocommons.com/platial/images/logotype_small.jpg\"></a>","id":"a6896ur3y5nl"},"type":"Feature","geometry":{"type":"Point","coordinates":[0.621455,51.448139]}},{"properties":{"name":"ANGUS","description":"Posted by <a title=\"http://www.lakemalawi.co.uk\" href=\"http://www.lakemalawi.co.uk\">Rdwh</a>MAINE, USA<a title=\"Built for Community Mapping\" href=\"http://www.platial.com\"><img src=\"http://media.geocommons.com/platial/images/logotype_small.jpg\"></a>","id":"a6896ug0dxil"},"type":"Feature","geometry":{"type":"Point","coordinates":[-69.01249,45.254195]}},{"properties":{"name":"ANIMALSDAD","description":"Posted by <a title=\"http://www.lakemalawi.co.uk\" href=\"http://www.lakemalawi.co.uk\">Rdwh</a>BOLTON, ENGLAND<a title=\"Built for Community Mapping\" href=\"http://www.platial.com\"><img src=\"http://media.geocommons.com/platial/images/logotype_small.jpg\"></a>","id":"a6896un7zccr"},"type":"Feature","geometry":{"type":"Point","coordinates":[-2.429909,53.578474]}},{"properties":{"name":"ANNA","description":"Posted by <a title=\"http://www.lakemalawi.co.uk\" href=\"http://www.lakemalawi.co.uk\">Rdwh</a>LEICESTER, ENGLAND<a title=\"Built for Community Mapping\" href=\"http://www.platial.com\"><img src=\"http://media.geocommons.com/platial/images/logotype_small.jpg\"></a>","id":"a6896um6nzhu"},"type":"Feature","geometry":{"type":"Point","coordinates":[-1.129443,52.63457]}},{"properties":{"name":"ANTHONY","description":"Posted by <a title=\"http://www.lakemalawi.co.uk\" href=\"http://www.lakemalawi.co.uk\">Rdwh</a>USA, USA<a title=\"Built for Community Mapping\" href=\"http://www.platial.com\"><img src=\"http://media.geocommons.com/platial/images/logotype_small.jpg\"></a>","id":"a6896uhb26nf"},"type":"Feature","geometry":{"type":"Point","coordinates":[-95.712891,37.09024]}},{"properties":{"name":"ANTHONYFISHER","description":"Posted by <a title=\"http://www.lakemalawi.co.uk\" href=\"http://www.lakemalawi.co.uk\">Rdwh</a>TAMWORTH, ENGLAND<a title=\"Built for Community Mapping\" href=\"http://www.platial.com\"><img src=\"http://media.geocommons.com/platial/images/logotype_small.jpg\"></a>","id":"a6896umambc2"},"type":"Feature","geometry":{"type":"Point","coordinates":[-1.690712,52.634292]}},{"properties":{"name":"ANTHRAXX","description":"Posted by <a title=\"http://www.lakemalawi.co.uk\" href=\"http://www.lakemalawi.co.uk\">Rdwh</a>RUSTON, USA<a title=\"Built for Community Mapping\" href=\"http://www.platial.com\"><img src=\"http://media.geocommons.com/platial/images/logotype_small.jpg\"></a>","id":"a6896ueatj32"},"type":"Feature","geometry":{"type":"Point","coordinates":[-92.637922,32.531388]}},{"properties":{"name":"ANTILOGIC","description":"Posted by <a title=\"http://www.lakemalawi.co.uk\" href=\"http://www.lakemalawi.co.uk\">Rdwh</a>MICHIGAN, USA<a title=\"Built for Community Mapping\" href=\"http://www.platial.com\"><img src=\"http://media.geocommons.com/platial/images/logotype_small.jpg\"></a>","id":"a6896urlxxgt"},"type":"Feature","geometry":{"type":"Point","coordinates":[-86.270625,45.000965]}},{"properties":{"name":"ANTON002","description":"Posted by <a title=\"http://www.lakemalawi.co.uk\" href=\"http://www.lakemalawi.co.uk\">Rdwh</a>REDDITCH, ENGLAND<a title=\"Built for Community Mapping\" href=\"http://www.platial.com\"><img src=\"http://media.geocommons.com/platial/images/logotype_small.jpg\"></a>","id":"a6896ul60qic"},"type":"Feature","geometry":{"type":"Point","coordinates":[-1.944041,52.306585]}},{"properties":{"name":"ANTONIOSMITH","description":"Posted by <a title=\"http://www.lakemalawi.co.uk\" href=\"http://www.lakemalawi.co.uk\">Rdwh</a>USA, USA<a title=\"Built for Community Mapping\" href=\"http://www.platial.com\"><img src=\"http://media.geocommons.com/platial/images/logotype_small.jpg\"></a>","id":"a6896ueaectw"},"type":"Feature","geometry":{"type":"Point","coordinates":[-95.712891,37.09024]}},{"properties":{"name":"APCRUZ","description":"Posted by <a title=\"http://www.lakemalawi.co.uk\" href=\"http://www.lakemalawi.co.uk\">Rdwh</a>GEORGIA, USA<a title=\"Built for Community Mapping\" href=\"http://www.platial.com\"><img src=\"http://media.geocommons.com/platial/images/logotype_small.jpg\"></a>","id":"a6896uhjbbp5"},"type":"Feature","geometry":{"type":"Point","coordinates":[-84.427846,33.774215]}},{"properties":{"name":"APISTO","description":"Posted by <a title=\"http://www.lakemalawi.co.uk\" href=\"http://www.lakemalawi.co.uk\">Rdwh</a>SZCZECIN, POLAND<a title=\"Built for Community Mapping\" href=\"http://www.platial.com\"><img src=\"http://media.geocommons.com/platial/images/logotype_small.jpg\"></a>","id":"a6896un96p3j"},"type":"Feature","geometry":{"type":"Point","coordinates":[14.529999,53.43]}},{"properties":{"name":"APOLLO","description":"Posted by <a title=\"http://www.lakemalawi.co.uk\" href=\"http://www.lakemalawi.co.uk\">Rdwh</a>BRAZIL, BRAZIL<a title=\"Built for Community Mapping\" href=\"http://www.platial.com\"><img src=\"http://media.geocommons.com/platial/images/logotype_small.jpg\"></a>","id":"a6896ukc0r6f"},"type":"Feature","geometry":{"type":"Point","coordinates":[-87.125015,39.523652]}},{"properties":{"name":"AQUACLASS","description":"Posted by <a title=\"http://www.lakemalawi.co.uk\" href=\"http://www.lakemalawi.co.uk\">Rdwh</a>SOMERSET, ENGLAND<a title=\"Built for Community Mapping\" href=\"http://www.platial.com\"><img src=\"http://media.geocommons.com/platial/images/logotype_small.jpg\"></a>","id":"a6896uomrrwf"},"type":"Feature","geometry":{"type":"Point","coordinates":[-3.04212,51.076822]}},{"properties":{"name":"AQUATERRA","description":"Posted by <a title=\"http://www.lakemalawi.co.uk\" href=\"http://www.lakemalawi.co.uk\">Rdwh</a>LOS ANGELES, USA<a title=\"Built for Community Mapping\" href=\"http://www.platial.com\"><img src=\"http://media.geocommons.com/platial/images/logotype_small.jpg\"></a>","id":"a6896ulzrhxs"},"type":"Feature","geometry":{"type":"Point","coordinates":[-118.242778,34.052222]}},{"properties":{"name":"AQUATICALGAL","description":"Posted by <a title=\"http://www.lakemalawi.co.uk\" href=\"http://www.lakemalawi.co.uk\">Rdwh</a>IDAHO, USA<a title=\"Built for Community Mapping\" href=\"http://www.platial.com\"><img src=\"http://media.geocommons.com/platial/images/logotype_small.jpg\"></a>","id":"a6896ue5sxex"},"type":"Feature","geometry":{"type":"Point","coordinates":[-114.143262,45.494551]}},{"properties":{"name":"AQUATICANDREPTILE","description":"Posted by <a title=\"http://www.lakemalawi.co.uk\" href=\"http://www.lakemalawi.co.uk\">Rdwh</a>LEICESTER, ENGLAND<a title=\"Built for Community Mapping\" href=\"http://www.platial.com\"><img src=\"http://media.geocommons.com/platial/images/logotype_small.jpg\"></a>","id":"a6896ujmunjq"},"type":"Feature","geometry":{"type":"Point","coordinates":[-1.129443,52.63457]}},{"properties":{"name":"ARALFESA","description":"Posted by <a title=\"http://www.lakemalawi.co.uk\" href=\"http://www.lakemalawi.co.uk\">Rdwh</a>MEXICO, MEXICO<a title=\"Built for Community Mapping\" href=\"http://www.platial.com\"><img src=\"http://media.geocommons.com/platial/images/logotype_small.jpg\"></a>","id":"a6896uokizsd"},"type":"Feature","geometry":{"type":"Point","coordinates":[-99.723267,19.496873]}},{"properties":{"name":"ARTETA","description":"Posted by <a title=\"http://www.lakemalawi.co.uk\" href=\"http://www.lakemalawi.co.uk\">Rdwh</a>CHESTERFIELD, ENGLAND<a title=\"Built for Community Mapping\" href=\"http://www.platial.com\"><img src=\"http://media.geocommons.com/platial/images/logotype_small.jpg\"></a>","id":"a6896udlkc1e"},"type":"Feature","geometry":{"type":"Point","coordinates":[-1.424146,53.235358]}},{"properties":{"name":"ASAMAX","description":"Posted by <a title=\"http://www.lakemalawi.co.uk\" href=\"http://www.lakemalawi.co.uk\">Rdwh</a>PLYMOUTH, ENGLAND<a title=\"Built for Community Mapping\" href=\"http://www.platial.com\"><img src=\"http://media.geocommons.com/platial/images/logotype_small.jpg\"></a>","id":"a6896uqxdl7h"},"type":"Feature","geometry":{"type":"Point","coordinates":[-4.142653,50.370381]}},{"properties":{"name":"ASH01","description":"Posted by <a title=\"http://www.lakemalawi.co.uk\" href=\"http://www.lakemalawi.co.uk\">Rdwh</a>EDINBURGH, SCOTLAND<a title=\"Built for Community Mapping\" href=\"http://www.platial.com\"><img src=\"http://media.geocommons.com/platial/images/logotype_small.jpg\"></a>","id":"a6896up46v48"},"type":"Feature","geometry":{"type":"Point","coordinates":[-3.2,55.950001]}},{"properties":{"name":"ASHALAK","description":"Posted by <a title=\"http://www.lakemalawi.co.uk\" href=\"http://www.lakemalawi.co.uk\">Rdwh</a>LANCASHIRE, ENGLAND<a title=\"Built for Community Mapping\" href=\"http://www.platial.com\"><img src=\"http://media.geocommons.com/platial/images/logotype_small.jpg\"></a>","id":"a6896uqsdkm1"},"type":"Feature","geometry":{"type":"Point","coordinates":[-2.564811,53.861172]}},{"properties":{"name":"ASHLEY01","description":"Posted by <a title=\"http://www.lakemalawi.co.uk\" href=\"http://www.lakemalawi.co.uk\">Rdwh</a>ABEDARE, WALES<a title=\"Built for Community Mapping\" href=\"http://www.platial.com\"><img src=\"http://media.geocommons.com/platial/images/logotype_small.jpg\"></a>","id":"a6896umcgp1u"},"type":"Feature","geometry":{"type":"Point","coordinates":[-3.445089,51.713673]}},{"properties":{"name":"ASPECTS","description":"Posted by <a title=\"http://www.lakemalawi.co.uk\" href=\"http://www.lakemalawi.co.uk\">Rdwh</a>LONDON, ENGLAND<a title=\"Built for Community Mapping\" href=\"http://www.platial.com\"><img src=\"http://media.geocommons.com/platial/images/logotype_small.jpg\"></a>","id":"a6896umk44ok"},"type":"Feature","geometry":{"type":"Point","coordinates":[-0.116667,51.5]}},{"properties":{"name":"ASTRAMAN","description":"Posted by <a title=\"http://www.lakemalawi.co.uk\" href=\"http://www.lakemalawi.co.uk\">Rdwh</a>SHEFFIELD, ENGLAND<a title=\"Built for Community Mapping\" href=\"http://www.platial.com\"><img src=\"http://media.geocommons.com/platial/images/logotype_small.jpg\"></a>","id":"a6896uegkoz3"},"type":"Feature","geometry":{"type":"Point","coordinates":[-1.464807,53.38304]}},{"properties":{"name":"ATSEKOV","description":"Posted by <a title=\"http://www.lakemalawi.co.uk\" href=\"http://www.lakemalawi.co.uk\">Rdwh</a>BULGARIA, BULGARIA<a title=\"Built for Community Mapping\" href=\"http://www.platial.com\"><img src=\"http://media.geocommons.com/platial/images/logotype_small.jpg\"></a>","id":"a6896us0vjeu"},"type":"Feature","geometry":{"type":"Point","coordinates":[25.48583,42.733883]}},{"properties":{"name":"ATYD","description":"Posted by <a title=\"http://www.lakemalawi.co.uk\" href=\"http://www.lakemalawi.co.uk\">Rdwh</a>SURREY, ENGLAND<a title=\"Built for Community Mapping\" href=\"http://www.platial.com\"><img src=\"http://media.geocommons.com/platial/images/logotype_small.jpg\"></a>","id":"a6896uga5rgk"},"type":"Feature","geometry":{"type":"Point","coordinates":[-0.39541,51.271986]}},{"properties":{"name":"AULONOCARAZRUS","description":"Posted by <a title=\"http://www.lakemalawi.co.uk\" href=\"http://www.lakemalawi.co.uk\">Rdwh</a>BRIDGEND, WALES<a title=\"Built for Community Mapping\" href=\"http://www.platial.com\"><img src=\"http://media.geocommons.com/platial/images/logotype_small.jpg\"></a>","id":"a6896utgmm8f"},"type":"Feature","geometry":{"type":"Point","coordinates":[-3.581042,51.507264]}},{"properties":{"name":"AURA","description":"Posted by <a title=\"http://www.lakemalawi.co.uk\" href=\"http://www.lakemalawi.co.uk\">Rdwh</a>USA, USA<a title=\"Built for Community Mapping\" href=\"http://www.platial.com\"><img src=\"http://media.geocommons.com/platial/images/logotype_small.jpg\"></a>","id":"a6896ut9ilg7"},"type":"Feature","geometry":{"type":"Point","coordinates":[-95.712891,37.09024]}},{"properties":{"name":"AUSTIN3:16","description":"Posted by <a title=\"http://www.lakemalawi.co.uk\" href=\"http://www.lakemalawi.co.uk\">Rdwh</a>DELHI, INDIA<a title=\"Built for Community Mapping\" href=\"http://www.platial.com\"><img src=\"http://media.geocommons.com/platial/images/logotype_small.jpg\"></a>","id":"a6896uirweay"},"type":"Feature","geometry":{"type":"Point","coordinates":[77.209999,28.67]}},{"properties":{"name":"AUSTRALIA","description":"Posted by <a title=\"http://www.lakemalawi.co.uk\" href=\"http://www.lakemalawi.co.uk\">Rdwh</a>AUSTRALIA, AUSTRALIA<a title=\"Built for Community Mapping\" href=\"http://www.platial.com\"><img src=\"http://media.geocommons.com/platial/images/logotype_small.jpg\"></a>","id":"a6896ujg6kq5"},"type":"Feature","geometry":{"type":"Point","coordinates":[133.775136,-25.274398]}},{"properties":{"name":"AVI","description":"Posted by <a title=\"http://www.lakemalawi.co.uk\" href=\"http://www.lakemalawi.co.uk\">Rdwh</a>LONDON, ENGLAND<a title=\"Built for Community Mapping\" href=\"http://www.platial.com\"><img src=\"http://media.geocommons.com/platial/images/logotype_small.jpg\"></a>","id":"a6896ufxagnv"},"type":"Feature","geometry":{"type":"Point","coordinates":[-0.116667,51.5]}},{"properties":{"name":"B0GGITALCL0UGH","description":"Posted by <a title=\"http://www.lakemalawi.co.uk\" href=\"http://www.lakemalawi.co.uk\">Rdwh</a>carterton oxfordshire uk<a title=\"Built for Community Mapping\" href=\"http://www.platial.com\"><img src=\"http://media.geocommons.com/platial/images/logotype_small.jpg\"></a>","id":"a6896upceudd"},"type":"Feature","geometry":{"type":"Point","coordinates":[-1.594327,51.759548]}},{"properties":{"name":"B3N","description":"Posted by <a title=\"http://www.lakemalawi.co.uk\" href=\"http://www.lakemalawi.co.uk\">Rdwh</a>GUERNSEY, CHANNEL ISLANDS<a title=\"Built for Community Mapping\" href=\"http://www.platial.com\"><img src=\"http://media.geocommons.com/platial/images/logotype_small.jpg\"></a>","id":"a6896ue9au6w"},"type":"Feature","geometry":{"type":"Point","coordinates":[-2.5,49.5]}},{"properties":{"name":"BAD BOY","description":"Posted by <a title=\"http://www.lakemalawi.co.uk\" href=\"http://www.lakemalawi.co.uk\">Rdwh</a>GLASGOW, SCOTLAND<a title=\"Built for Community Mapping\" href=\"http://www.platial.com\"><img src=\"http://media.geocommons.com/platial/images/logotype_small.jpg\"></a>","id":"a6896unflpdi"},"type":"Feature","geometry":{"type":"Point","coordinates":[-4.25,55.833332]}},{"properties":{"name":"BADCLAD","description":"Posted by <a title=\"http://www.lakemalawi.co.uk\" href=\"http://www.lakemalawi.co.uk\">Rdwh</a>STOKE ON TRENT, ENGLAND<a title=\"Built for Community Mapping\" href=\"http://www.platial.com\"><img src=\"http://media.geocommons.com/platial/images/logotype_small.jpg\"></a>","id":"a6896uplqwq4"},"type":"Feature","geometry":{"type":"Point","coordinates":[-2.180053,53.003038]}},{"properties":{"name":"BADEN187","description":"Posted by <a title=\"http://www.lakemalawi.co.uk\" href=\"http://www.lakemalawi.co.uk\">Rdwh</a>SOUTH WALES, SOUTH WALES<a title=\"Built for Community Mapping\" href=\"http://www.platial.com\"><img src=\"http://media.geocommons.com/platial/images/logotype_small.jpg\"></a>","id":"a6896umtysyg"},"type":"Feature","geometry":{"type":"Point","coordinates":[-78.57808,42.708949]}},{"properties":{"name":"BAGGERS","description":"Posted by <a title=\"http://www.lakemalawi.co.uk\" href=\"http://www.lakemalawi.co.uk\">Rdwh</a>GLOSSOP, ENGLAND<a title=\"Built for Community Mapping\" href=\"http://www.platial.com\"><img src=\"http://media.geocommons.com/platial/images/logotype_small.jpg\"></a>","id":"a6896ujiyu9n"},"type":"Feature","geometry":{"type":"Point","coordinates":[-1.948855,53.443265]}},{"properties":{"name":"BAGLEY1980","description":"Posted by <a title=\"http://www.lakemalawi.co.uk\" href=\"http://www.lakemalawi.co.uk\">Rdwh</a>COVENTRY, ENGLAND<a title=\"Built for Community Mapping\" href=\"http://www.platial.com\"><img src=\"http://media.geocommons.com/platial/images/logotype_small.jpg\"></a>","id":"a6896unb7b57"},"type":"Feature","geometry":{"type":"Point","coordinates":[-1.512634,52.405833]}},{"properties":{"name":"BALACHEL","description":"Posted by <a title=\"http://www.lakemalawi.co.uk\" href=\"http://www.lakemalawi.co.uk\">Rdwh</a>CRYSTAL LAKE, USA<a title=\"Built for Community Mapping\" href=\"http://www.platial.com\"><img src=\"http://media.geocommons.com/platial/images/logotype_small.jpg\"></a>","id":"a6896utgnliv"},"type":"Feature","geometry":{"type":"Point","coordinates":[-88.316197,42.241134]}},{"properties":{"name":"BALDERMAN","description":"Posted by <a title=\"http://www.lakemalawi.co.uk\" href=\"http://www.lakemalawi.co.uk\">Rdwh</a>SCOTLAND, SCOTLAND<a title=\"Built for Community Mapping\" href=\"http://www.platial.com\"><img src=\"http://media.geocommons.com/platial/images/logotype_small.jpg\"></a>","id":"a6896ugils9z"},"type":"Feature","geometry":{"type":"Point","coordinates":[-97.717567,43.149715]}},{"properties":{"name":"BALDYMARTIN","description":"Posted by <a title=\"http://www.lakemalawi.co.uk\" href=\"http://www.lakemalawi.co.uk\">Rdwh</a>LEICESTER, ENGLAND<a title=\"Built for Community Mapping\" href=\"http://www.platial.com\"><img src=\"http://media.geocommons.com/platial/images/logotype_small.jpg\"></a>","id":"a6896ufsa9e1"},"type":"Feature","geometry":{"type":"Point","coordinates":[-1.129443,52.63457]}},{"properties":{"name":"BALLY","description":"Posted by <a title=\"http://www.lakemalawi.co.uk\" href=\"http://www.lakemalawi.co.uk\">Rdwh</a>DERBY, ENGLAND<a title=\"Built for Community Mapping\" href=\"http://www.platial.com\"><img src=\"http://media.geocommons.com/platial/images/logotype_small.jpg\"></a>","id":"a6896ugfu0z8"},"type":"Feature","geometry":{"type":"Point","coordinates":[-1.475641,52.921899]}},{"properties":{"name":"BALOO","description":"Posted by <a title=\"http://www.lakemalawi.co.uk\" href=\"http://www.lakemalawi.co.uk\">Rdwh</a>CORBY, ENGLAND<a title=\"Built for Community Mapping\" href=\"http://www.platial.com\"><img src=\"http://media.geocommons.com/platial/images/logotype_small.jpg\"></a>","id":"a6896ulisyds"},"type":"Feature","geometry":{"type":"Point","coordinates":[-0.679601,52.489201]}},{"properties":{"name":"BANGING","description":"Posted by <a title=\"http://www.lakemalawi.co.uk\" href=\"http://www.lakemalawi.co.uk\">Rdwh</a>BASILDON, ENGLAND<a title=\"Built for Community Mapping\" href=\"http://www.platial.com\"><img src=\"http://media.geocommons.com/platial/images/logotype_small.jpg\"></a>","id":"a6896uqjknc9"},"type":"Feature","geometry":{"type":"Point","coordinates":[0.462461,51.572181]}},{"properties":{"name":"BARBARA","description":"Posted by <a title=\"http://www.lakemalawi.co.uk\" href=\"http://www.lakemalawi.co.uk\">Rdwh</a>STEVENAGE, ENGLAND<a title=\"Built for Community Mapping\" href=\"http://www.platial.com\"><img src=\"http://media.geocommons.com/platial/images/logotype_small.jpg\"></a>","id":"a6896ul0xlt9"},"type":"Feature","geometry":{"type":"Point","coordinates":[-0.202583,51.899838]}},{"properties":{"name":"BARNESY","description":"Posted by <a title=\"http://www.lakemalawi.co.uk\" href=\"http://www.lakemalawi.co.uk\">Rdwh</a>IRELAND, IRELAND<a title=\"Built for Community Mapping\" href=\"http://www.platial.com\"><img src=\"http://media.geocommons.com/platial/images/logotype_small.jpg\"></a>","id":"a6896uqlc6k2"},"type":"Feature","geometry":{"type":"Point","coordinates":[-8.24389,53.41291]}},{"properties":{"name":"BARNSTABLE","description":"Posted by <a title=\"http://www.lakemalawi.co.uk\" href=\"http://www.lakemalawi.co.uk\">Rdwh</a>DEVON, ENGLAND<a title=\"Built for Community Mapping\" href=\"http://www.platial.com\"><img src=\"http://media.geocommons.com/platial/images/logotype_small.jpg\"></a>","id":"a6896usjbl1p"},"type":"Feature","geometry":{"type":"Point","coordinates":[-3.223764,50.703809]}},{"properties":{"name":"BARRICADE","description":"Posted by <a title=\"http://www.lakemalawi.co.uk\" href=\"http://www.lakemalawi.co.uk\">Rdwh</a>CAMBRIDGESHIRE, ENGLAND<a title=\"Built for Community Mapping\" href=\"http://www.platial.com\"><img src=\"http://media.geocommons.com/platial/images/logotype_small.jpg\"></a>","id":"a6896uja5k45"},"type":"Feature","geometry":{"type":"Point","coordinates":[0.096538,52.276193]}},{"properties":{"name":"BARRY","description":"Posted by <a title=\"http://www.lakemalawi.co.uk\" href=\"http://www.lakemalawi.co.uk\">Rdwh</a>LEIGHTON BUZZARD, ENGLAND<a title=\"Built for Community Mapping\" href=\"http://www.platial.com\"><img src=\"http://media.geocommons.com/platial/images/logotype_small.jpg\"></a>","id":"a6896uoue014"},"type":"Feature","geometry":{"type":"Point","coordinates":[-0.660928,51.917758]}},{"properties":{"name":"BARRY 1","description":"Posted by <a title=\"http://www.lakemalawi.co.uk\" href=\"http://www.lakemalawi.co.uk\">Rdwh</a>LEICESTER, ENGLAND<a title=\"Built for Community Mapping\" href=\"http://www.platial.com\"><img src=\"http://media.geocommons.com/platial/images/logotype_small.jpg\"></a>","id":"a6896ukvb3w9"},"type":"Feature","geometry":{"type":"Point","coordinates":[-1.129443,52.63457]}},{"properties":{"name":"BARRYT","description":"Posted by <a title=\"http://www.lakemalawi.co.uk\" href=\"http://www.lakemalawi.co.uk\">Rdwh</a>MANCHESTER, ENGLAND<a title=\"Built for Community Mapping\" href=\"http://www.platial.com\"><img src=\"http://media.geocommons.com/platial/images/logotype_small.jpg\"></a>","id":"a6896uj8u0zt"},"type":"Feature","geometry":{"type":"Point","coordinates":[-2.216667,53.5]}},{"properties":{"name":"BATHO","description":"Posted by <a title=\"http://www.lakemalawi.co.uk\" href=\"http://www.lakemalawi.co.uk\">Rdwh</a>KIRKBY, ENGLAND<a title=\"Built for Community Mapping\" href=\"http://www.platial.com\"><img src=\"http://media.geocommons.com/platial/images/logotype_small.jpg\"></a>","id":"a6896uj5zn93"},"type":"Feature","geometry":{"type":"Point","coordinates":[-2.88185,53.481592]}},{"properties":{"name":"BAVY","description":"Posted by <a title=\"http://www.lakemalawi.co.uk\" href=\"http://www.lakemalawi.co.uk\">Rdwh</a>PORTSMOUTH, ENGLAND<a title=\"Built for Community Mapping\" href=\"http://www.platial.com\"><img src=\"http://media.geocommons.com/platial/images/logotype_small.jpg\"></a>","id":"a6896ul2zf20"},"type":"Feature","geometry":{"type":"Point","coordinates":[-1.082599,50.789364]}},{"properties":{"name":"BBANDU","description":"Posted by <a title=\"http://www.lakemalawi.co.uk\" href=\"http://www.lakemalawi.co.uk\">Rdwh</a>PORTLAND, USA<a title=\"Built for Community Mapping\" href=\"http://www.platial.com\"><img src=\"http://media.geocommons.com/platial/images/logotype_small.jpg\"></a>","id":"a6896usvplln"},"type":"Feature","geometry":{"type":"Point","coordinates":[-122.67568,45.51181]}},{"properties":{"name":"BEACH","description":"Posted by <a title=\"http://www.lakemalawi.co.uk\" href=\"http://www.lakemalawi.co.uk\">Rdwh</a>MICHIGAN, USA<a title=\"Built for Community Mapping\" href=\"http://www.platial.com\"><img src=\"http://media.geocommons.com/platial/images/logotype_small.jpg\"></a>","id":"a6896ummujdp"},"type":"Feature","geometry":{"type":"Point","coordinates":[-86.270625,45.000965]}},{"properties":{"name":"BEACHCOMBER","description":"Posted by <a title=\"http://www.lakemalawi.co.uk\" href=\"http://www.lakemalawi.co.uk\">Rdwh</a>SCOTLAND, SCOTLAND<a title=\"Built for Community Mapping\" href=\"http://www.platial.com\"><img src=\"http://media.geocommons.com/platial/images/logotype_small.jpg\"></a>","id":"a6896ukk3oba"},"type":"Feature","geometry":{"type":"Point","coordinates":[-97.717567,43.149715]}},{"properties":{"name":"BEAGLE","description":"Posted by <a title=\"http://www.lakemalawi.co.uk\" href=\"http://www.lakemalawi.co.uk\">Rdwh</a>Fraserburgh, ENGLAND<a title=\"Built for Community Mapping\" href=\"http://www.platial.com\"><img src=\"http://media.geocommons.com/platial/images/logotype_small.jpg\"></a>","id":"a6896ui6aeie"},"type":"Feature","geometry":{"type":"Point","coordinates":[-0.312458,52.547331]}},{"properties":{"name":"BEBAL","description":"Posted by <a title=\"http://www.lakemalawi.co.uk\" href=\"http://www.lakemalawi.co.uk\">Rdwh</a>NEW YORK, USA<a title=\"Built for Community Mapping\" href=\"http://www.platial.com\"><img src=\"http://media.geocommons.com/platial/images/logotype_small.jpg\"></a>","id":"a6896usbovy9"},"type":"Feature","geometry":{"type":"Point","coordinates":[-74.006389,40.714167]}},{"properties":{"name":"BECCA","description":"Posted by <a title=\"http://www.lakemalawi.co.uk\" href=\"http://www.lakemalawi.co.uk\">Rdwh</a>SURREY, ENGLAND<a title=\"Built for Community Mapping\" href=\"http://www.platial.com\"><img src=\"http://media.geocommons.com/platial/images/logotype_small.jpg\"></a>","id":"a6896unh3yze"},"type":"Feature","geometry":{"type":"Point","coordinates":[-0.39541,51.271986]}},{"properties":{"name":"BEGINNER08","description":"Posted by <a title=\"http://www.lakemalawi.co.uk\" href=\"http://www.lakemalawi.co.uk\">Rdwh</a>ESSEX, ENGLAND<a title=\"Built for Community Mapping\" href=\"http://www.platial.com\"><img src=\"http://media.geocommons.com/platial/images/logotype_small.jpg\"></a>","id":"a6896uhspjua"},"type":"Feature","geometry":{"type":"Point","coordinates":[0.636477,51.796696]}},{"properties":{"name":"BEN.D","description":"Posted by <a title=\"http://www.lakemalawi.co.uk\" href=\"http://www.lakemalawi.co.uk\">Rdwh</a>YORK, ENGLAND<a title=\"Built for Community Mapping\" href=\"http://www.platial.com\"><img src=\"http://media.geocommons.com/platial/images/logotype_small.jpg\"></a>","id":"a6896un3w3pr"},"type":"Feature","geometry":{"type":"Point","coordinates":[-1.082329,53.957744]}},{"properties":{"name":"BENDYLAN","description":"Posted by <a title=\"http://www.lakemalawi.co.uk\" href=\"http://www.lakemalawi.co.uk\">Rdwh</a>arbroath uk<a title=\"Built for Community Mapping\" href=\"http://www.platial.com\"><img src=\"http://media.geocommons.com/platial/images/logotype_small.jpg\"></a>","id":"a6896uspuapw"},"type":"Feature","geometry":{"type":"Point","coordinates":[-2.579433,56.561671]}},{"properties":{"name":"BENNYLAD","description":"Posted by <a title=\"http://www.lakemalawi.co.uk\" href=\"http://www.lakemalawi.co.uk\">Rdwh</a>WISHAW, SCOTLAND<a title=\"Built for Community Mapping\" href=\"http://www.platial.com\"><img src=\"http://media.geocommons.com/platial/images/logotype_small.jpg\"></a>","id":"a6896uhqtr7v"},"type":"Feature","geometry":{"type":"Point","coordinates":[-3.919437,55.773523]}},{"properties":{"name":"BENTY","description":"Posted by <a title=\"http://www.lakemalawi.co.uk\" href=\"http://www.lakemalawi.co.uk\">Rdwh</a>MATLOCK, ENGLAND<a title=\"Built for Community Mapping\" href=\"http://www.platial.com\"><img src=\"http://media.geocommons.com/platial/images/logotype_small.jpg\"></a>","id":"a6896unmwui9"},"type":"Feature","geometry":{"type":"Point","coordinates":[-1.554984,53.138174]}},{"properties":{"name":"BERKASGERI","description":"Posted by <a title=\"http://www.lakemalawi.co.uk\" href=\"http://www.lakemalawi.co.uk\">Rdwh</a>HUNGARY, HUNGARY<a title=\"Built for Community Mapping\" href=\"http://www.platial.com\"><img src=\"http://media.geocommons.com/platial/images/logotype_small.jpg\"></a>","id":"a6896ugv3drv"},"type":"Feature","geometry":{"type":"Point","coordinates":[19.503304,47.162494]}},{"properties":{"name":"BEXINDRA","description":"Posted by <a title=\"http://www.lakemalawi.co.uk\" href=\"http://www.lakemalawi.co.uk\">Rdwh</a>CUMBRIA, ENGLAND<a title=\"Built for Community Mapping\" href=\"http://www.platial.com\"><img src=\"http://media.geocommons.com/platial/images/logotype_small.jpg\"></a>","id":"a6896uldemhw"},"type":"Feature","geometry":{"type":"Point","coordinates":[-2.89982,54.614309]}},{"properties":{"name":"BIA 11","description":"Posted by <a title=\"http://www.lakemalawi.co.uk\" href=\"http://www.lakemalawi.co.uk\">Rdwh</a>VASLUI, GREECE<a title=\"Built for Community Mapping\" href=\"http://www.platial.com\"><img src=\"http://media.geocommons.com/platial/images/logotype_small.jpg\"></a>","id":"a6896uhvkbtz"},"type":"Feature","geometry":{"type":"Point","coordinates":[27.737203,46.642339]}},{"properties":{"name":"BIG BEAR","description":"Posted by <a title=\"http://www.lakemalawi.co.uk\" href=\"http://www.lakemalawi.co.uk\">Rdwh</a>DERBY, ENGLAND<a title=\"Built for Community Mapping\" href=\"http://www.platial.com\"><img src=\"http://media.geocommons.com/platial/images/logotype_small.jpg\"></a>","id":"a6896uqwc7l1"},"type":"Feature","geometry":{"type":"Point","coordinates":[-1.475641,52.921899]}},{"properties":{"name":"BIG JIM","description":"Posted by <a title=\"http://www.lakemalawi.co.uk\" href=\"http://www.lakemalawi.co.uk\">Rdwh</a>CALIFORNIA, USA<a title=\"Built for Community Mapping\" href=\"http://www.platial.com\"><img src=\"http://media.geocommons.com/platial/images/logotype_small.jpg\"></a>","id":"a6896upzhyy6"},"type":"Feature","geometry":{"type":"Point","coordinates":[-121.436583,38.561787]}},{"properties":{"name":"BIG KEV","description":"Posted by <a title=\"http://www.lakemalawi.co.uk\" href=\"http://www.lakemalawi.co.uk\">Rdwh</a>LINCOLN, ENGLAND<a title=\"Built for Community Mapping\" href=\"http://www.platial.com\"><img src=\"http://media.geocommons.com/platial/images/logotype_small.jpg\"></a>","id":"a6896ul5i99b"},"type":"Feature","geometry":{"type":"Point","coordinates":[-0.538436,53.234863]}},{"properties":{"name":"BIG-O","description":"Posted by <a title=\"http://www.lakemalawi.co.uk\" href=\"http://www.lakemalawi.co.uk\">Rdwh</a>ALBERTA, CANADA<a title=\"Built for Community Mapping\" href=\"http://www.platial.com\"><img src=\"http://media.geocommons.com/platial/images/logotype_small.jpg\"></a>","id":"a6896upd2qgz"},"type":"Feature","geometry":{"type":"Point","coordinates":[-113.503383,53.53279]}},{"properties":{"name":"BIG.DAVE","description":"Posted by <a title=\"http://www.lakemalawi.co.uk\" href=\"http://www.lakemalawi.co.uk\">Rdwh</a>ESSEX, ENGLAND<a title=\"Built for Community Mapping\" href=\"http://www.platial.com\"><img src=\"http://media.geocommons.com/platial/images/logotype_small.jpg\"></a>","id":"a6896uoaexn5"},"type":"Feature","geometry":{"type":"Point","coordinates":[0.636477,51.796696]}},{"properties":{"name":"BIGDARLIN","description":"Posted by <a title=\"http://www.lakemalawi.co.uk\" href=\"http://www.lakemalawi.co.uk\">Rdwh</a>LANARKSHIRE, SCOTLAND<a title=\"Built for Community Mapping\" href=\"http://www.platial.com\"><img src=\"http://media.geocommons.com/platial/images/logotype_small.jpg\"></a>","id":"a6896untgufd"},"type":"Feature","geometry":{"type":"Point","coordinates":[-3.703508,55.524304]}},{"properties":{"name":"BIGEV","description":"Posted by <a title=\"http://www.lakemalawi.co.uk\" href=\"http://www.lakemalawi.co.uk\">Rdwh</a>LEICESTER, ENGLAND<a title=\"Built for Community Mapping\" href=\"http://www.platial.com\"><img src=\"http://media.geocommons.com/platial/images/logotype_small.jpg\"></a>","id":"a6896up84z7v"},"type":"Feature","geometry":{"type":"Point","coordinates":[-1.129443,52.63457]}},{"properties":{"name":"BIGGLES","description":"Posted by <a title=\"http://www.lakemalawi.co.uk\" href=\"http://www.lakemalawi.co.uk\">Rdwh</a>WILTSHIRE, ENGLAND<a title=\"Built for Community Mapping\" href=\"http://www.platial.com\"><img src=\"http://media.geocommons.com/platial/images/logotype_small.jpg\"></a>","id":"a6896ujob3ho"},"type":"Feature","geometry":{"type":"Point","coordinates":[-1.925668,51.324127]}},{"properties":{"name":"BIGRODBURNER","description":"Posted by <a title=\"http://www.lakemalawi.co.uk\" href=\"http://www.lakemalawi.co.uk\">Rdwh</a>LEITH, SCOTLAND<a title=\"Built for Community Mapping\" href=\"http://www.platial.com\"><img src=\"http://media.geocommons.com/platial/images/logotype_small.jpg\"></a>","id":"a6896uo486dp"},"type":"Feature","geometry":{"type":"Point","coordinates":[-3.161042,55.974558]}},{"properties":{"name":"BIGTANK","description":"Posted by <a title=\"http://www.lakemalawi.co.uk\" href=\"http://www.lakemalawi.co.uk\">Rdwh</a>GLASGOW, SCOTLAND<a title=\"Built for Community Mapping\" href=\"http://www.platial.com\"><img src=\"http://media.geocommons.com/platial/images/logotype_small.jpg\"></a>","id":"a6896uf8yl68"},"type":"Feature","geometry":{"type":"Point","coordinates":[-4.25,55.833332]}},{"properties":{"name":"BILLY33","description":"Posted by <a title=\"http://www.lakemalawi.co.uk\" href=\"http://www.lakemalawi.co.uk\">Rdwh</a>UTAH, USA<a title=\"Built for Community Mapping\" href=\"http://www.platial.com\"><img src=\"http://media.geocommons.com/platial/images/logotype_small.jpg\"></a>","id":"a6896ul93dow"},"type":"Feature","geometry":{"type":"Point","coordinates":[-111.54732,39.49974]}},{"properties":{"name":"BILLYC33","description":"Posted by <a title=\"http://www.lakemalawi.co.uk\" href=\"http://www.lakemalawi.co.uk\">Rdwh</a>GLASGOW, SCOTALND<a title=\"Built for Community Mapping\" href=\"http://www.platial.com\"><img src=\"http://media.geocommons.com/platial/images/logotype_small.jpg\"></a>","id":"a6896uqeabta"},"type":"Feature","geometry":{"type":"Point","coordinates":[-4.257223,55.865627]}},{"properties":{"name":"BILLYH","description":"Posted by <a title=\"http://www.lakemalawi.co.uk\" href=\"http://www.lakemalawi.co.uk\">Rdwh</a>ALBERTA, CANADA<a title=\"Built for Community Mapping\" href=\"http://www.platial.com\"><img src=\"http://media.geocommons.com/platial/images/logotype_small.jpg\"></a>","id":"a6896ukn87bm"},"type":"Feature","geometry":{"type":"Point","coordinates":[-113.503383,53.53279]}},{"properties":{"name":"BINKIHO","description":"Posted by <a title=\"http://www.lakemalawi.co.uk\" href=\"http://www.lakemalawi.co.uk\">Rdwh</a>SWANSEA, WALES<a title=\"Built for Community Mapping\" href=\"http://www.platial.com\"><img src=\"http://media.geocommons.com/platial/images/logotype_small.jpg\"></a>","id":"a6896ujb283p"},"type":"Feature","geometry":{"type":"Point","coordinates":[-3.937406,51.622218]}},{"properties":{"name":"BKERBER","description":"Posted by <a title=\"http://www.lakemalawi.co.uk\" href=\"http://www.lakemalawi.co.uk\">Rdwh</a>FLORIDA, USA<a title=\"Built for Community Mapping\" href=\"http://www.platial.com\"><img src=\"http://media.geocommons.com/platial/images/logotype_small.jpg\"></a>","id":"a6896utq7knu"},"type":"Feature","geometry":{"type":"Point","coordinates":[-83.83305,27.75143]}},{"properties":{"name":"BKOPSICK","description":"Posted by <a title=\"http://www.lakemalawi.co.uk\" href=\"http://www.lakemalawi.co.uk\">Rdwh</a>NEW JERSEY, USA<a title=\"Built for Community Mapping\" href=\"http://www.platial.com\"><img src=\"http://media.geocommons.com/platial/images/logotype_small.jpg\"></a>","id":"a6896urc0w33"},"type":"Feature","geometry":{"type":"Point","coordinates":[-74.728565,40.07241]}},{"properties":{"name":"BL00DR0CK","description":"Posted by <a title=\"http://www.lakemalawi.co.uk\" href=\"http://www.lakemalawi.co.uk\">Rdwh</a>STRASBURG, USA<a title=\"Built for Community Mapping\" href=\"http://www.platial.com\"><img src=\"http://media.geocommons.com/platial/images/logotype_small.jpg\"></a>","id":"a6896uj9jywb"},"type":"Feature","geometry":{"type":"Point","coordinates":[-78.358616,38.98872]}},{"properties":{"name":"BL36","description":"Posted by <a title=\"http://www.lakemalawi.co.uk\" href=\"http://www.lakemalawi.co.uk\">Rdwh</a>FLORIDA, USA<a title=\"Built for Community Mapping\" href=\"http://www.platial.com\"><img src=\"http://media.geocommons.com/platial/images/logotype_small.jpg\"></a>","id":"a6896uqxd64n"},"type":"Feature","geometry":{"type":"Point","coordinates":[-83.83305,27.75143]}},{"properties":{"name":"BLACKADDER","description":"Posted by <a title=\"http://www.lakemalawi.co.uk\" href=\"http://www.lakemalawi.co.uk\">Rdwh</a>FAULDHOUSE, SCOTLAND<a title=\"Built for Community Mapping\" href=\"http://www.platial.com\"><img src=\"http://media.geocommons.com/platial/images/logotype_small.jpg\"></a>","id":"a6896umdxnma"},"type":"Feature","geometry":{"type":"Point","coordinates":[-3.707941,55.828348]}},{"properties":{"name":"BLACKGAGT1","description":"Posted by <a title=\"http://www.lakemalawi.co.uk\" href=\"http://www.lakemalawi.co.uk\">Rdwh</a>ILLINOIS, USA<a title=\"Built for Community Mapping\" href=\"http://www.platial.com\"><img src=\"http://media.geocommons.com/platial/images/logotype_small.jpg\"></a>","id":"a6896uhgg7xi"},"type":"Feature","geometry":{"type":"Point","coordinates":[-89.319835,39.739255]}},{"properties":{"name":"BLKHWK11","description":"Posted by <a title=\"http://www.lakemalawi.co.uk\" href=\"http://www.lakemalawi.co.uk\">Rdwh</a>BURLINGTON, CANADA<a title=\"Built for Community Mapping\" href=\"http://www.platial.com\"><img src=\"http://media.geocommons.com/platial/images/logotype_small.jpg\"></a>","id":"a6896uj8x2qx"},"type":"Feature","geometry":{"type":"Point","coordinates":[-79.796058,43.324456]}},{"properties":{"name":"BLODWEN","description":"Posted by <a title=\"http://www.lakemalawi.co.uk\" href=\"http://www.lakemalawi.co.uk\">Rdwh</a>WORTHING, ENGLAND<a title=\"Built for Community Mapping\" href=\"http://www.platial.com\"><img src=\"http://media.geocommons.com/platial/images/logotype_small.jpg\"></a>","id":"a6896um7b8mu"},"type":"Feature","geometry":{"type":"Point","coordinates":[-0.371387,50.814711]}},{"properties":{"name":"BLOWFISH1018","description":"Posted by <a title=\"http://www.lakemalawi.co.uk\" href=\"http://www.lakemalawi.co.uk\">Rdwh</a>YORK , ENGLAND<a title=\"Built for Community Mapping\" href=\"http://www.platial.com\"><img src=\"http://media.geocommons.com/platial/images/logotype_small.jpg\"></a>","id":"a6896utu26aw"},"type":"Feature","geometry":{"type":"Point","coordinates":[-1.082329,53.957744]}},{"properties":{"name":"BLUE2FYRE","description":"Posted by <a title=\"http://www.lakemalawi.co.uk\" href=\"http://www.lakemalawi.co.uk\">Rdwh</a>MADISON, USA<a title=\"Built for Community Mapping\" href=\"http://www.platial.com\"><img src=\"http://media.geocommons.com/platial/images/logotype_small.jpg\"></a>","id":"a6896ugz22b7"},"type":"Feature","geometry":{"type":"Point","coordinates":[-89.40123,43.073052]}},{"properties":{"name":"BLUECOW","description":"Posted by <a title=\"http://www.lakemalawi.co.uk\" href=\"http://www.lakemalawi.co.uk\">Rdwh</a>SWINDON, ENGLAND<a title=\"Built for Community Mapping\" href=\"http://www.platial.com\"><img src=\"http://media.geocommons.com/platial/images/logotype_small.jpg\"></a>","id":"a6896uos8pnx"},"type":"Feature","geometry":{"type":"Point","coordinates":[-1.765775,51.56143]}},{"properties":{"name":"BLUEFLAME77","description":"Posted by <a title=\"http://www.lakemalawi.co.uk\" href=\"http://www.lakemalawi.co.uk\">Rdwh</a>OHIO, USA<a title=\"Built for Community Mapping\" href=\"http://www.platial.com\"><img src=\"http://media.geocommons.com/platial/images/logotype_small.jpg\"></a>","id":"a6896uqpoixl"},"type":"Feature","geometry":{"type":"Point","coordinates":[-82.988826,40.00218]}},{"properties":{"name":"BLUENIGE","description":"Posted by <a title=\"http://www.lakemalawi.co.uk\" href=\"http://www.lakemalawi.co.uk\">Rdwh</a>SUTTON COLDFIELD, ENGLAND<a title=\"Built for Community Mapping\" href=\"http://www.platial.com\"><img src=\"http://media.geocommons.com/platial/images/logotype_small.jpg\"></a>","id":"a6896uk7bsnp"},"type":"Feature","geometry":{"type":"Point","coordinates":[-1.825187,52.563564]}},{"properties":{"name":"BLUERAM","description":"Posted by <a title=\"http://www.lakemalawi.co.uk\" href=\"http://www.lakemalawi.co.uk\">Rdwh</a>LONDON, ENGLAND<a title=\"Built for Community Mapping\" href=\"http://www.platial.com\"><img src=\"http://media.geocommons.com/platial/images/logotype_small.jpg\"></a>","id":"a6896umkzpur"},"type":"Feature","geometry":{"type":"Point","coordinates":[-0.116667,51.5]}},{"properties":{"name":"BLUEY","description":"Posted by <a title=\"http://www.lakemalawi.co.uk\" href=\"http://www.lakemalawi.co.uk\">Rdwh</a>SYDNEY, AUSTRALIA<a title=\"Built for Community Mapping\" href=\"http://www.platial.com\"><img src=\"http://media.geocommons.com/platial/images/logotype_small.jpg\"></a>","id":"a6896usealbd"},"type":"Feature","geometry":{"type":"Point","coordinates":[151.210006,-33.869998]}},{"properties":{"name":"BMOSCA","description":"Posted by <a title=\"http://www.lakemalawi.co.uk\" href=\"http://www.lakemalawi.co.uk\">Rdwh</a>ITALY, ITALY<a title=\"Built for Community Mapping\" href=\"http://www.platial.com\"><img src=\"http://media.geocommons.com/platial/images/logotype_small.jpg\"></a>","id":"a6896uohpkhu"},"type":"Feature","geometry":{"type":"Point","coordinates":[-96.885113,32.184217]}},{"properties":{"name":"BM_M3_GTR_","description":"Posted by <a title=\"http://www.lakemalawi.co.uk\" href=\"http://www.lakemalawi.co.uk\">Rdwh</a>LEICESTER, ENGLAND<a title=\"Built for Community Mapping\" href=\"http://www.platial.com\"><img src=\"http://media.geocommons.com/platial/images/logotype_small.jpg\"></a>","id":"a6896upqp5w9"},"type":"Feature","geometry":{"type":"Point","coordinates":[-1.129443,52.63457]}},{"properties":{"name":"BOB2","description":"Posted by <a title=\"http://www.lakemalawi.co.uk\" href=\"http://www.lakemalawi.co.uk\">Rdwh</a>YORKSHIRE, ENGLAND<a title=\"Built for Community Mapping\" href=\"http://www.platial.com\"><img src=\"http://media.geocommons.com/platial/images/logotype_small.jpg\"></a>","id":"a6896ue3ltr7"},"type":"Feature","geometry":{"type":"Point","coordinates":[-1.458004,53.663632]}},{"properties":{"name":"BOBBY","description":"Posted by <a title=\"http://www.lakemalawi.co.uk\" href=\"http://www.lakemalawi.co.uk\">Rdwh</a>TEXAS, USA<a title=\"Built for Community Mapping\" href=\"http://www.platial.com\"><img src=\"http://media.geocommons.com/platial/images/logotype_small.jpg\"></a>","id":"a6896urf0mod"},"type":"Feature","geometry":{"type":"Point","coordinates":[-100.07715,31.168895]}},{"properties":{"name":"BOBBY MAC","description":"Posted by <a title=\"http://www.lakemalawi.co.uk\" href=\"http://www.lakemalawi.co.uk\">Rdwh</a>MERSEYSIDE, ENGLAND<a title=\"Built for Community Mapping\" href=\"http://www.platial.com\"><img src=\"http://media.geocommons.com/platial/images/logotype_small.jpg\"></a>","id":"a6896uo8bh9w"},"type":"Feature","geometry":{"type":"Point","coordinates":[-2.829,53.454247]}},{"properties":{"name":"BOBBY1","description":"Posted by <a title=\"http://www.lakemalawi.co.uk\" href=\"http://www.lakemalawi.co.uk\">Rdwh</a>ROCHDALE, ENGLAND<a title=\"Built for Community Mapping\" href=\"http://www.platial.com\"><img src=\"http://media.geocommons.com/platial/images/logotype_small.jpg\"></a>","id":"a6896upbtpfo"},"type":"Feature","geometry":{"type":"Point","coordinates":[-2.15871,53.616352]}},{"properties":{"name":"BOBBYHOOT","description":"Posted by <a title=\"http://www.lakemalawi.co.uk\" href=\"http://www.lakemalawi.co.uk\">Rdwh</a>ROTHERHAM, ENGLAND<a title=\"Built for Community Mapping\" href=\"http://www.platial.com\"><img src=\"http://media.geocommons.com/platial/images/logotype_small.jpg\"></a>","id":"a6896upl4ajl"},"type":"Feature","geometry":{"type":"Point","coordinates":[-1.356896,53.43017]}},{"properties":{"name":"BOBBYV","description":"Posted by <a title=\"http://www.lakemalawi.co.uk\" href=\"http://www.lakemalawi.co.uk\">Rdwh</a>NEW YORK, USA<a title=\"Built for Community Mapping\" href=\"http://www.platial.com\"><img src=\"http://media.geocommons.com/platial/images/logotype_small.jpg\"></a>","id":"a6896uh8dwh2"},"type":"Feature","geometry":{"type":"Point","coordinates":[-74.006389,40.714167]}},{"properties":{"name":"BOEBRUMMIE","description":"Posted by <a title=\"http://www.lakemalawi.co.uk\" href=\"http://www.lakemalawi.co.uk\">Rdwh</a>BIRMINGHAM, ENGLAND<a title=\"Built for Community Mapping\" href=\"http://www.platial.com\"><img src=\"http://media.geocommons.com/platial/images/logotype_small.jpg\"></a>","id":"a6896ukgdqzb"},"type":"Feature","geometry":{"type":"Point","coordinates":[-1.916667,52.466667]}},{"properties":{"name":"BOGMAN","description":"Posted by <a title=\"http://www.lakemalawi.co.uk\" href=\"http://www.lakemalawi.co.uk\">Rdwh</a>USA, USA<a title=\"Built for Community Mapping\" href=\"http://www.platial.com\"><img src=\"http://media.geocommons.com/platial/images/logotype_small.jpg\"></a>","id":"a6896umx9b9z"},"type":"Feature","geometry":{"type":"Point","coordinates":[-95.712891,37.09024]}},{"properties":{"name":"BOGWOODBRUCE","description":"Posted by <a title=\"http://www.lakemalawi.co.uk\" href=\"http://www.lakemalawi.co.uk\">Rdwh</a>ROTHERHAM, ENGLAND<a title=\"Built for Community Mapping\" href=\"http://www.platial.com\"><img src=\"http://media.geocommons.com/platial/images/logotype_small.jpg\"></a>","id":"a6896upr1l3k"},"type":"Feature","geometry":{"type":"Point","coordinates":[-1.356896,53.43017]}},{"properties":{"name":"BONES06","description":"Posted by <a title=\"http://www.lakemalawi.co.uk\" href=\"http://www.lakemalawi.co.uk\">Rdwh</a>OHIO, USA<a title=\"Built for Community Mapping\" href=\"http://www.platial.com\"><img src=\"http://media.geocommons.com/platial/images/logotype_small.jpg\"></a>","id":"a6896ujex17i"},"type":"Feature","geometry":{"type":"Point","coordinates":[-82.988826,40.00218]}},{"properties":{"name":"BOOKSI","description":"Posted by <a title=\"http://www.lakemalawi.co.uk\" href=\"http://www.lakemalawi.co.uk\">Rdwh</a>MILTON KEYNES, ENGLAND<a title=\"Built for Community Mapping\" href=\"http://www.platial.com\"><img src=\"http://media.geocommons.com/platial/images/logotype_small.jpg\"></a>","id":"a6896uehcljq"},"type":"Feature","geometry":{"type":"Point","coordinates":[-0.760468,52.041471]}},{"properties":{"name":"BOOMBANGAGAIN","description":"Posted by <a title=\"http://www.lakemalawi.co.uk\" href=\"http://www.lakemalawi.co.uk\">Rdwh</a>SURREY, ENGLAND<a title=\"Built for Community Mapping\" href=\"http://www.platial.com\"><img src=\"http://media.geocommons.com/platial/images/logotype_small.jpg\"></a>","id":"a6896uisbndc"},"type":"Feature","geometry":{"type":"Point","coordinates":[-0.39541,51.271986]}},{"properties":{"name":"BOOTIT250","description":"Posted by <a title=\"http://www.lakemalawi.co.uk\" href=\"http://www.lakemalawi.co.uk\">Rdwh</a>NORWICH, ENGLAND<a title=\"Built for Community Mapping\" href=\"http://www.platial.com\"><img src=\"http://media.geocommons.com/platial/images/logotype_small.jpg\"></a>","id":"a6896ur7s9ds"},"type":"Feature","geometry":{"type":"Point","coordinates":[1.299349,52.628101]}},{"properties":{"name":"BOVSBAITBOXES","description":"Posted by <a title=\"http://www.lakemalawi.co.uk\" href=\"http://www.lakemalawi.co.uk\">Rdwh</a>NEW JERSEY, USA<a title=\"Built for Community Mapping\" href=\"http://www.platial.com\"><img src=\"http://media.geocommons.com/platial/images/logotype_small.jpg\"></a>","id":"a6896uowshjo"},"type":"Feature","geometry":{"type":"Point","coordinates":[-74.728565,40.07241]}},{"properties":{"name":"BRABBINK","description":"Posted by <a title=\"http://www.lakemalawi.co.uk\" href=\"http://www.lakemalawi.co.uk\">Rdwh</a>SUFFOLK, ENGLAND<a title=\"Built for Community Mapping\" href=\"http://www.platial.com\"><img src=\"http://media.geocommons.com/platial/images/logotype_small.jpg\"></a>","id":"a6896ukmzthl"},"type":"Feature","geometry":{"type":"Point","coordinates":[1.054453,52.241042]}},{"properties":{"name":"BRADBURY1982","description":"Posted by <a title=\"http://www.lakemalawi.co.uk\" href=\"http://www.lakemalawi.co.uk\">Rdwh</a>BIRMINGHAM, ENGLAND<a title=\"Built for Community Mapping\" href=\"http://www.platial.com\"><img src=\"http://media.geocommons.com/platial/images/logotype_small.jpg\"></a>","id":"a6896uljcm1p"},"type":"Feature","geometry":{"type":"Point","coordinates":[-1.916667,52.466667]}},{"properties":{"name":"BRANDFORDIAN_YIDO","description":"Posted by <a title=\"http://www.lakemalawi.co.uk\" href=\"http://www.lakemalawi.co.uk\">Rdwh</a>NORTHAMPTON, ENGLAND<a title=\"Built for Community Mapping\" href=\"http://www.platial.com\"><img src=\"http://media.geocommons.com/platial/images/logotype_small.jpg\"></a>","id":"a6896uolk6x7"},"type":"Feature","geometry":{"type":"Point","coordinates":[-0.89739,52.236874]}},{"properties":{"name":"BRAZ","description":"Posted by <a title=\"http://www.lakemalawi.co.uk\" href=\"http://www.lakemalawi.co.uk\">Rdwh</a>AUSTRALIA, AUSTRALIA<a title=\"Built for Community Mapping\" href=\"http://www.platial.com\"><img src=\"http://media.geocommons.com/platial/images/logotype_small.jpg\"></a>","id":"a6896utl294g"},"type":"Feature","geometry":{"type":"Point","coordinates":[133.775136,-25.274398]}},{"properties":{"name":"BRETTPROUD","description":"Posted by <a title=\"http://www.lakemalawi.co.uk\" href=\"http://www.lakemalawi.co.uk\">Rdwh</a>NEWCASTLE, ENGLAND<a title=\"Built for Community Mapping\" href=\"http://www.platial.com\"><img src=\"http://media.geocommons.com/platial/images/logotype_small.jpg\"></a>","id":"a6896uqus49v"},"type":"Feature","geometry":{"type":"Point","coordinates":[-3.106247,52.434728]}},{"properties":{"name":"BRIAN","description":"Posted by <a title=\"http://www.lakemalawi.co.uk\" href=\"http://www.lakemalawi.co.uk\">Rdwh</a>LEEDS, ENGLAND<a title=\"Built for Community Mapping\" href=\"http://www.platial.com\"><img src=\"http://media.geocommons.com/platial/images/logotype_small.jpg\"></a>","id":"a6896ue13sao"},"type":"Feature","geometry":{"type":"Point","coordinates":[-1.54911,53.799637]}},{"properties":{"name":"BRIANINOKC","description":"Posted by <a title=\"http://www.lakemalawi.co.uk\" href=\"http://www.lakemalawi.co.uk\">Rdwh</a>OKLAHOMA, USA<a title=\"Built for Community Mapping\" href=\"http://www.platial.com\"><img src=\"http://media.geocommons.com/platial/images/logotype_small.jpg\"></a>","id":"a6896uofa289"},"type":"Feature","geometry":{"type":"Point","coordinates":[-98.717005,35.30914]}},{"properties":{"name":"BRIANSBELLE","description":"Posted by <a title=\"http://www.lakemalawi.co.uk\" href=\"http://www.lakemalawi.co.uk\">Rdwh</a>OHIO, USA<a title=\"Built for Community Mapping\" href=\"http://www.platial.com\"><img src=\"http://media.geocommons.com/platial/images/logotype_small.jpg\"></a>","id":"a6896uqpnbx7"},"type":"Feature","geometry":{"type":"Point","coordinates":[-82.988826,40.00218]}},{"properties":{"name":"BRISTOLCICHLIDS","description":"Posted by <a title=\"http://www.lakemalawi.co.uk\" href=\"http://www.lakemalawi.co.uk\">Rdwh</a>KEYNSHAM, ENGLAND<a title=\"Built for Community Mapping\" href=\"http://www.platial.com\"><img src=\"http://media.geocommons.com/platial/images/logotype_small.jpg\"></a>","id":"a6896ugajg58"},"type":"Feature","geometry":{"type":"Point","coordinates":[-2.49883,51.416303]}},{"properties":{"name":"BROMBY","description":"Posted by <a title=\"http://www.lakemalawi.co.uk\" href=\"http://www.lakemalawi.co.uk\">Rdwh</a>CREWE, ENGLAND<a title=\"Built for Community Mapping\" href=\"http://www.platial.com\"><img src=\"http://media.geocommons.com/platial/images/logotype_small.jpg\"></a>","id":"a6896ujdln40"},"type":"Feature","geometry":{"type":"Point","coordinates":[-2.441768,53.095056]}},{"properties":{"name":"BROUGHTONGR33N","description":"Posted by <a title=\"http://www.lakemalawi.co.uk\" href=\"http://www.lakemalawi.co.uk\">Rdwh</a>PRESTON, ENGLAND<a title=\"Built for Community Mapping\" href=\"http://www.platial.com\"><img src=\"http://media.geocommons.com/platial/images/logotype_small.jpg\"></a>","id":"a6896uf3es32"},"type":"Feature","geometry":{"type":"Point","coordinates":[-2.703453,53.757736]}},{"properties":{"name":"BROWNIE","description":"Posted by <a title=\"http://www.lakemalawi.co.uk\" href=\"http://www.lakemalawi.co.uk\">Rdwh</a>LIVERPOOL, ENGLAND<a title=\"Built for Community Mapping\" href=\"http://www.platial.com\"><img src=\"http://media.geocommons.com/platial/images/logotype_small.jpg\"></a>","id":"a6896ujmefnh"},"type":"Feature","geometry":{"type":"Point","coordinates":[-3.0,53.416668]}},{"properties":{"name":"BRUM","description":"Posted by <a title=\"http://www.lakemalawi.co.uk\" href=\"http://www.lakemalawi.co.uk\">Rdwh</a>BIRMINGHAM, ENGLAND<a title=\"Built for Community Mapping\" href=\"http://www.platial.com\"><img src=\"http://media.geocommons.com/platial/images/logotype_small.jpg\"></a>","id":"a6896uosoldc"},"type":"Feature","geometry":{"type":"Point","coordinates":[-1.916667,52.466667]}},{"properties":{"name":"BUCKEYEREAVIS","description":"Posted by <a title=\"http://www.lakemalawi.co.uk\" href=\"http://www.lakemalawi.co.uk\">Rdwh</a>RHODE ISLAND, USA<a title=\"Built for Community Mapping\" href=\"http://www.platial.com\"><img src=\"http://media.geocommons.com/platial/images/logotype_small.jpg\"></a>","id":"a6896ui4l3hm"},"type":"Feature","geometry":{"type":"Point","coordinates":[-71.497913,41.557321]}},{"properties":{"name":"BUD8910","description":"Posted by <a title=\"http://www.lakemalawi.co.uk\" href=\"http://www.lakemalawi.co.uk\">Rdwh</a>HULL, ENGLAND<a title=\"Built for Community Mapping\" href=\"http://www.platial.com\"><img src=\"http://media.geocommons.com/platial/images/logotype_small.jpg\"></a>","id":"a6896ul6q61c"},"type":"Feature","geometry":{"type":"Point","coordinates":[-0.332442,53.744341]}},{"properties":{"name":"BULLER55","description":"Posted by <a title=\"http://www.lakemalawi.co.uk\" href=\"http://www.lakemalawi.co.uk\">Rdwh</a>LONDON, ENGLAND<a title=\"Built for Community Mapping\" href=\"http://www.platial.com\"><img src=\"http://media.geocommons.com/platial/images/logotype_small.jpg\"></a>","id":"a6896ug7kigo"},"type":"Feature","geometry":{"type":"Point","coordinates":[-0.116667,51.5]}},{"properties":{"name":"BUNGY","description":"Posted by <a title=\"http://www.lakemalawi.co.uk\" href=\"http://www.lakemalawi.co.uk\">Rdwh</a>PORTSMOUTH, ENGLAND<a title=\"Built for Community Mapping\" href=\"http://www.platial.com\"><img src=\"http://media.geocommons.com/platial/images/logotype_small.jpg\"></a>","id":"a6896ukd300s"},"type":"Feature","geometry":{"type":"Point","coordinates":[-1.082599,50.789364]}},{"properties":{"name":"BUSHIE","description":"Posted by <a title=\"http://www.lakemalawi.co.uk\" href=\"http://www.lakemalawi.co.uk\">Rdwh</a>ENGLAND, ENGLAND<a title=\"Built for Community Mapping\" href=\"http://www.platial.com\"><img src=\"http://media.geocommons.com/platial/images/logotype_small.jpg\"></a>","id":"a6896ueozqhe"},"type":"Feature","geometry":{"type":"Point","coordinates":[-92.03917,34.53337]}},{"properties":{"name":"CABBIE","description":"Posted by <a title=\"http://www.lakemalawi.co.uk\" href=\"http://www.lakemalawi.co.uk\">Rdwh</a>BLACKPOOL, ENGLAND<a title=\"Built for Community Mapping\" href=\"http://www.platial.com\"><img src=\"http://media.geocommons.com/platial/images/logotype_small.jpg\"></a>","id":"a6896ulawsxy"},"type":"Feature","geometry":{"type":"Point","coordinates":[-3.053514,53.814165]}},{"properties":{"name":"CAMPBELL1234","description":"Posted by <a title=\"http://www.lakemalawi.co.uk\" href=\"http://www.lakemalawi.co.uk\">Rdwh</a>NOTTINGHAM, ENGLAND<a title=\"Built for Community Mapping\" href=\"http://www.platial.com\"><img src=\"http://media.geocommons.com/platial/images/logotype_small.jpg\"></a>","id":"a6896umyhfi9"},"type":"Feature","geometry":{"type":"Point","coordinates":[-1.1493,52.955073]}},{"properties":{"name":"CANARY","description":"Posted by <a title=\"http://www.lakemalawi.co.uk\" href=\"http://www.lakemalawi.co.uk\">Rdwh</a>CAMBRIDGE, ENGLAND<a title=\"Built for Community Mapping\" href=\"http://www.platial.com\"><img src=\"http://media.geocommons.com/platial/images/logotype_small.jpg\"></a>","id":"a6896uorjppp"},"type":"Feature","geometry":{"type":"Point","coordinates":[0.131236,52.202544]}},{"properties":{"name":"CANDACEG77","description":"Posted by <a title=\"http://www.lakemalawi.co.uk\" href=\"http://www.lakemalawi.co.uk\">Rdwh</a>PENNSYLVANIA, USA<a title=\"Built for Community Mapping\" href=\"http://www.platial.com\"><img src=\"http://media.geocommons.com/platial/images/logotype_small.jpg\"></a>","id":"a6896uh8z5g7"},"type":"Feature","geometry":{"type":"Point","coordinates":[-76.824793,40.296156]}},{"properties":{"name":"CANNY","description":"Posted by <a title=\"http://www.lakemalawi.co.uk\" href=\"http://www.lakemalawi.co.uk\">Rdwh</a>WITHAM, ENGLAND<a title=\"Built for Community Mapping\" href=\"http://www.platial.com\"><img src=\"http://media.geocommons.com/platial/images/logotype_small.jpg\"></a>","id":"a6896ulrj9d8"},"type":"Feature","geometry":{"type":"Point","coordinates":[0.638568,51.798357]}},{"properties":{"name":"CAPADICHROMIS","description":"Posted by <a title=\"http://www.lakemalawi.co.uk\" href=\"http://www.lakemalawi.co.uk\">Rdwh</a>CAMBRIDGESHIRE, ENGLAND<a title=\"Built for Community Mapping\" href=\"http://www.platial.com\"><img src=\"http://media.geocommons.com/platial/images/logotype_small.jpg\"></a>","id":"a6896umol6mv"},"type":"Feature","geometry":{"type":"Point","coordinates":[0.096538,52.276193]}},{"properties":{"name":"CAPESTER","description":"Posted by <a title=\"http://www.lakemalawi.co.uk\" href=\"http://www.lakemalawi.co.uk\">Rdwh</a>DERBY, ENGLAND<a title=\"Built for Community Mapping\" href=\"http://www.platial.com\"><img src=\"http://media.geocommons.com/platial/images/logotype_small.jpg\"></a>","id":"a6896umo5fw0"},"type":"Feature","geometry":{"type":"Point","coordinates":[-1.475641,52.921899]}},{"properties":{"name":"CAPTIN BIRDSEYE","description":"Posted by <a title=\"http://www.lakemalawi.co.uk\" href=\"http://www.lakemalawi.co.uk\">Rdwh</a>MIDDLETON, USA<a title=\"Built for Community Mapping\" href=\"http://www.platial.com\"><img src=\"http://media.geocommons.com/platial/images/logotype_small.jpg\"></a>","id":"a6896uq08v1b"},"type":"Feature","geometry":{"type":"Point","coordinates":[-89.504288,43.097217]}},{"properties":{"name":"CARIAD","description":"Posted by <a title=\"http://www.lakemalawi.co.uk\" href=\"http://www.lakemalawi.co.uk\">Rdwh</a>NORTH WALES, WALES<a title=\"Built for Community Mapping\" href=\"http://www.platial.com\"><img src=\"http://media.geocommons.com/platial/images/logotype_small.jpg\"></a>","id":"a6896uhgafg3"},"type":"Feature","geometry":{"type":"Point","coordinates":[-168.094952,65.623319]}},{"properties":{"name":"CARLA","description":"Posted by <a title=\"http://www.lakemalawi.co.uk\" href=\"http://www.lakemalawi.co.uk\">Rdwh</a>HYTHE, ENGLAND<a title=\"Built for Community Mapping\" href=\"http://www.platial.com\"><img src=\"http://media.geocommons.com/platial/images/logotype_small.jpg\"></a>","id":"a6896uiynmui"},"type":"Feature","geometry":{"type":"Point","coordinates":[1.088118,51.072173]}},{"properties":{"name":"CARLOSUK","description":"Posted by <a title=\"http://www.lakemalawi.co.uk\" href=\"http://www.lakemalawi.co.uk\">Rdwh</a>ASHFORD, ENGLAND<a title=\"Built for Community Mapping\" href=\"http://www.platial.com\"><img src=\"http://media.geocommons.com/platial/images/logotype_small.jpg\"></a>","id":"a6896ujpb16f"},"type":"Feature","geometry":{"type":"Point","coordinates":[0.875563,51.148354]}},{"properties":{"name":"CARLYP","description":"Posted by <a title=\"http://www.lakemalawi.co.uk\" href=\"http://www.lakemalawi.co.uk\">Rdwh</a>AUSTIN, USA<a title=\"Built for Community Mapping\" href=\"http://www.platial.com\"><img src=\"http://media.geocommons.com/platial/images/logotype_small.jpg\"></a>","id":"a6896ukraxzi"},"type":"Feature","geometry":{"type":"Point","coordinates":[-97.745209,30.268735]}},{"properties":{"name":"CARMONA_S","description":"Posted by <a title=\"http://www.lakemalawi.co.uk\" href=\"http://www.lakemalawi.co.uk\">Rdwh</a>SPAIN, SPAIN<a title=\"Built for Community Mapping\" href=\"http://www.platial.com\"><img src=\"http://media.geocommons.com/platial/images/logotype_small.jpg\"></a>","id":"a6896ufm5alc"},"type":"Feature","geometry":{"type":"Point","coordinates":[-3.650329,40.518844]}},{"properties":{"name":"CASJAS","description":"Posted by <a title=\"http://www.lakemalawi.co.uk\" href=\"http://www.lakemalawi.co.uk\">Rdwh</a>NOTTINGHAM, ENGLAND<a title=\"Built for Community Mapping\" href=\"http://www.platial.com\"><img src=\"http://media.geocommons.com/platial/images/logotype_small.jpg\"></a>","id":"a6896uejdmk6"},"type":"Feature","geometry":{"type":"Point","coordinates":[-1.1493,52.955073]}},{"properties":{"name":"CASS1","description":"Posted by <a title=\"http://www.lakemalawi.co.uk\" href=\"http://www.lakemalawi.co.uk\">Rdwh</a>MALTA, MALTA<a title=\"Built for Community Mapping\" href=\"http://www.platial.com\"><img src=\"http://media.geocommons.com/platial/images/logotype_small.jpg\"></a>","id":"a6896ufo2j42"},"type":"Feature","geometry":{"type":"Point","coordinates":[-107.919345,48.366941]}},{"properties":{"name":"CATHD","description":"Posted by <a title=\"http://www.lakemalawi.co.uk\" href=\"http://www.lakemalawi.co.uk\">Rdwh</a>LLANHARAN, SOUTH WALES<a title=\"Built for Community Mapping\" href=\"http://www.platial.com\"><img src=\"http://media.geocommons.com/platial/images/logotype_small.jpg\"></a>","id":"a6896ufzmklu"},"type":"Feature","geometry":{"type":"Point","coordinates":[-3.43939,51.538365]}},{"properties":{"name":"CATHRYNM","description":"Posted by <a title=\"http://www.lakemalawi.co.uk\" href=\"http://www.lakemalawi.co.uk\">Rdwh</a>BANBURY, ENGLAND<a title=\"Built for Community Mapping\" href=\"http://www.platial.com\"><img src=\"http://media.geocommons.com/platial/images/logotype_small.jpg\"></a>","id":"a6896uh8vu4t"},"type":"Feature","geometry":{"type":"Point","coordinates":[-1.340449,52.060021]}},{"properties":{"name":"CBKENTUCKY","description":"Posted by <a title=\"http://www.lakemalawi.co.uk\" href=\"http://www.lakemalawi.co.uk\">Rdwh</a>LOUISVILLE, USA<a title=\"Built for Community Mapping\" href=\"http://www.platial.com\"><img src=\"http://media.geocommons.com/platial/images/logotype_small.jpg\"></a>","id":"a6896ukkm0rp"},"type":"Feature","geometry":{"type":"Point","coordinates":[-85.759407,38.254238]}},{"properties":{"name":"CC_WOMAN","description":"Posted by <a title=\"http://www.lakemalawi.co.uk\" href=\"http://www.lakemalawi.co.uk\">Rdwh</a>ALBERTA, CANADA<a title=\"Built for Community Mapping\" href=\"http://www.platial.com\"><img src=\"http://media.geocommons.com/platial/images/logotype_small.jpg\"></a>","id":"a6896uhdoehi"},"type":"Feature","geometry":{"type":"Point","coordinates":[-113.503383,53.53279]}},{"properties":{"name":"CDIENZO","description":"Posted by <a title=\"http://www.lakemalawi.co.uk\" href=\"http://www.lakemalawi.co.uk\">Rdwh</a>LONG BEACH, USA<a title=\"Built for Community Mapping\" href=\"http://www.platial.com\"><img src=\"http://media.geocommons.com/platial/images/logotype_small.jpg\"></a>","id":"a6896ulxmnfu"},"type":"Feature","geometry":{"type":"Point","coordinates":[-118.189235,33.766962]}},{"properties":{"name":"CELIA","description":"Posted by <a title=\"http://www.lakemalawi.co.uk\" href=\"http://www.lakemalawi.co.uk\">Rdwh</a>SOUTH AFRICA, SOUTH AFRICA<a title=\"Built for Community Mapping\" href=\"http://www.platial.com\"><img src=\"http://media.geocommons.com/platial/images/logotype_small.jpg\"></a>","id":"a6896upkclrj"},"type":"Feature","geometry":{"type":"Point","coordinates":[22.937506,-30.559482]}},{"properties":{"name":"CELIA 75","description":"Posted by <a title=\"http://www.lakemalawi.co.uk\" href=\"http://www.lakemalawi.co.uk\">Rdwh</a>CORSHAM, ENGLAND<a title=\"Built for Community Mapping\" href=\"http://www.platial.com\"><img src=\"http://media.geocommons.com/platial/images/logotype_small.jpg\"></a>","id":"a6896ujhjpay"},"type":"Feature","geometry":{"type":"Point","coordinates":[-2.185791,51.431021]}},{"properties":{"name":"CELTIC 1888","description":"Posted by <a title=\"http://www.lakemalawi.co.uk\" href=\"http://www.lakemalawi.co.uk\">Rdwh</a>BELFAST, IRELAND<a title=\"Built for Community Mapping\" href=\"http://www.platial.com\"><img src=\"http://media.geocommons.com/platial/images/logotype_small.jpg\"></a>","id":"a6896uq20gwh"},"type":"Feature","geometry":{"type":"Point","coordinates":[-6.035062,54.594381]}},{"properties":{"name":"CEVVIN","description":"Posted by <a title=\"http://www.lakemalawi.co.uk\" href=\"http://www.lakemalawi.co.uk\">Rdwh</a>PITTSBURGH, USA<a title=\"Built for Community Mapping\" href=\"http://www.platial.com\"><img src=\"http://media.geocommons.com/platial/images/logotype_small.jpg\"></a>","id":"a6896ul0zgi1"},"type":"Feature","geometry":{"type":"Point","coordinates":[-79.99755,40.43837]}},{"properties":{"name":"CHALMERS1967","description":"Posted by <a title=\"http://www.lakemalawi.co.uk\" href=\"http://www.lakemalawi.co.uk\">Rdwh</a>LIVINGSTON, ENGLAND<a title=\"Built for Community Mapping\" href=\"http://www.platial.com\"><img src=\"http://media.geocommons.com/platial/images/logotype_small.jpg\"></a>","id":"a6896up0uxve"},"type":"Feature","geometry":{"type":"Point","coordinates":[-2.945607,53.378857]}},{"properties":{"name":"CHAMBERS","description":"Posted by <a title=\"http://www.lakemalawi.co.uk\" href=\"http://www.lakemalawi.co.uk\">Rdwh</a>ESSEX, ENGLAND<a title=\"Built for Community Mapping\" href=\"http://www.platial.com\"><img src=\"http://media.geocommons.com/platial/images/logotype_small.jpg\"></a>","id":"a6896ursmq9e"},"type":"Feature","geometry":{"type":"Point","coordinates":[0.636477,51.796696]}},{"properties":{"name":"CHAMPS","description":"Posted by <a title=\"http://www.lakemalawi.co.uk\" href=\"http://www.lakemalawi.co.uk\">Rdwh</a>NORTHAMPTON, ENGLAND<a title=\"Built for Community Mapping\" href=\"http://www.platial.com\"><img src=\"http://media.geocommons.com/platial/images/logotype_small.jpg\"></a>","id":"a6896uok34tb"},"type":"Feature","geometry":{"type":"Point","coordinates":[-0.89739,52.236874]}},{"properties":{"name":"CHANA86","description":"Posted by <a title=\"http://www.lakemalawi.co.uk\" href=\"http://www.lakemalawi.co.uk\">Rdwh</a>LONDON, ENGLAND<a title=\"Built for Community Mapping\" href=\"http://www.platial.com\"><img src=\"http://media.geocommons.com/platial/images/logotype_small.jpg\"></a>","id":"a6896unsf9sl"},"type":"Feature","geometry":{"type":"Point","coordinates":[-0.116667,51.5]}},{"properties":{"name":"CHAPPO","description":"Posted by <a title=\"http://www.lakemalawi.co.uk\" href=\"http://www.lakemalawi.co.uk\">Rdwh</a>HAMPSHIRE, ENGLAND<a title=\"Built for Community Mapping\" href=\"http://www.platial.com\"><img src=\"http://media.geocommons.com/platial/images/logotype_small.jpg\"></a>","id":"a6896us81hff"},"type":"Feature","geometry":{"type":"Point","coordinates":[-1.343313,51.044737]}},{"properties":{"name":"CHARACINS","description":"Posted by <a title=\"http://www.lakemalawi.co.uk\" href=\"http://www.lakemalawi.co.uk\">Rdwh</a>DEVON, ENGLAND<a title=\"Built for Community Mapping\" href=\"http://www.platial.com\"><img src=\"http://media.geocommons.com/platial/images/logotype_small.jpg\"></a>","id":"a6896upsu00i"},"type":"Feature","geometry":{"type":"Point","coordinates":[-3.223764,50.703809]}},{"properties":{"name":"CHARBAGS","description":"Posted by <a title=\"http://www.lakemalawi.co.uk\" href=\"http://www.lakemalawi.co.uk\">Rdwh</a>AUSTRALIA, AUSTRALIA<a title=\"Built for Community Mapping\" href=\"http://www.platial.com\"><img src=\"http://media.geocommons.com/platial/images/logotype_small.jpg\"></a>","id":"a6896uh70ejk"},"type":"Feature","geometry":{"type":"Point","coordinates":[133.775136,-25.274398]}},{"properties":{"name":"CHARLIEJAY","description":"Posted by <a title=\"http://www.lakemalawi.co.uk\" href=\"http://www.lakemalawi.co.uk\">Rdwh</a>POOLE, ENGLAND<a title=\"Built for Community Mapping\" href=\"http://www.platial.com\"><img src=\"http://media.geocommons.com/platial/images/logotype_small.jpg\"></a>","id":"a6896umu4h9g"},"type":"Feature","geometry":{"type":"Point","coordinates":[-1.98113,50.719412]}},