{"type":"FeatureCollection","data_type":"Dataset","url_type":null,"permissions":[{"permissions":{"download":true,"view":true},"group_id":"everyone"}],"classification":null,"title":"\nfotherington's places\n","count":763,"stream_id":25717,"contributor":{"url":"http://geocommons.com/users/11444","name":"platial"},"data_attributes":null,"calculation_params":null,"icon_link":null,"link":"http://geocommons.com/overlays/25717.json","extent":[-7.30051,22.3119,114.251,58.5178],"geometry_types":["point"],"unique_name":null,"name":"\nfotherington's places\n","feature_count":763,"description":"\nA Map by Fotherington\n\n\n","next_feature":null,"is_raster":false,"short_classification":"Y","stats":{},"features":[{"properties":{"name":"A &amp; S Training and Development Solutions Limited","description":"Posted by <a title=\"http://claywell.me.uk/tom\" href=\"http://claywell.me.uk/tom\">Fotherington</a>NW10 7PN, UK<a title=\"Built for Community Mapping\" href=\"http://www.platial.com\"><img src=\"http://media.geocommons.com/platial/images/logotype_small.jpg\"></a>","id":"a66zb7cnfvav"},"type":"Feature","geometry":{"type":"Point","coordinates":[-0.275126,51.53488]}},{"properties":{"name":"A-1 Training College","description":"Posted by <a title=\"http://claywell.me.uk/tom\" href=\"http://claywell.me.uk/tom\">Fotherington</a>LU1 2BJ, UK<a title=\"Built for Community Mapping\" href=\"http://www.platial.com\"><img src=\"http://media.geocommons.com/platial/images/logotype_small.jpg\"></a>","id":"a66zb75c6ir6"},"type":"Feature","geometry":{"type":"Point","coordinates":[-0.394825,51.861061]}},{"properties":{"name":"A-MARK International College","description":"Posted by <a title=\"http://claywell.me.uk/tom\" href=\"http://claywell.me.uk/tom\">Fotherington</a>NW10 6ND, UK<a title=\"Built for Community Mapping\" href=\"http://www.platial.com\"><img src=\"http://media.geocommons.com/platial/images/logotype_small.jpg\"></a>","id":"a66zb7660e1r"},"type":"Feature","geometry":{"type":"Point","coordinates":[-0.275126,51.53488]}},{"properties":{"name":"ACA Institute","description":"Posted by <a title=\"http://claywell.me.uk/tom\" href=\"http://claywell.me.uk/tom\">Fotherington</a>E17 6DS, UK<a title=\"Built for Community Mapping\" href=\"http://www.platial.com\"><img src=\"http://media.geocommons.com/platial/images/logotype_small.jpg\"></a>","id":"a66zb72p6etg"},"type":"Feature","geometry":{"type":"Point","coordinates":[-0.030569,51.598365]}},{"properties":{"name":"ACS Distance Education","description":"Posted by <a title=\"http://claywell.me.uk/tom\" href=\"http://claywell.me.uk/tom\">Fotherington</a>DY8 2WZ, UK<a title=\"Built for Community Mapping\" href=\"http://www.platial.com\"><img src=\"http://media.geocommons.com/platial/images/logotype_small.jpg\"></a>","id":"a66zb7gc816h"},"type":"Feature","geometry":{"type":"Point","coordinates":[-2.153298,52.466477]}},{"properties":{"name":"ACT Recruitment &amp; Training","description":"Posted by <a title=\"http://claywell.me.uk/tom\" href=\"http://claywell.me.uk/tom\">Fotherington</a>CV1 2NT, UK<a title=\"Built for Community Mapping\" href=\"http://www.platial.com\"><img src=\"http://media.geocommons.com/platial/images/logotype_small.jpg\"></a>","id":"a66zb7cqeofj"},"type":"Feature","geometry":{"type":"Point","coordinates":[-1.500137,52.412479]}},{"properties":{"name":"APS Computer Solutions Ltd","description":"Posted by <a title=\"http://claywell.me.uk/tom\" href=\"http://claywell.me.uk/tom\">Fotherington</a>PE1 1DA, UK<a title=\"Built for Community Mapping\" href=\"http://www.platial.com\"><img src=\"http://media.geocommons.com/platial/images/logotype_small.jpg\"></a>","id":"a66zb7dps3nt"},"type":"Feature","geometry":{"type":"Point","coordinates":[-0.222176,52.589912]}},{"properties":{"name":"ASKUS Limited","description":"Posted by <a title=\"http://claywell.me.uk/tom\" href=\"http://claywell.me.uk/tom\">Fotherington</a>BL1 4AQ, UK<a title=\"Built for Community Mapping\" href=\"http://www.platial.com\"><img src=\"http://media.geocommons.com/platial/images/logotype_small.jpg\"></a>","id":"a66zb741ygaf"},"type":"Feature","geometry":{"type":"Point","coordinates":[-2.432469,53.596907]}},{"properties":{"name":"ASM Training Limited","description":"Posted by <a title=\"http://claywell.me.uk/tom\" href=\"http://claywell.me.uk/tom\">Fotherington</a>N12 8LJ, UK<a title=\"Built for Community Mapping\" href=\"http://www.platial.com\"><img src=\"http://media.geocommons.com/platial/images/logotype_small.jpg\"></a>","id":"a66zb7d47gsk"},"type":"Feature","geometry":{"type":"Point","coordinates":[-0.168143,51.608466]}},{"properties":{"name":"AT Institute","description":"Posted by <a title=\"http://claywell.me.uk/tom\" href=\"http://claywell.me.uk/tom\">Fotherington</a>EC2A 3HU, UK<a title=\"Built for Community Mapping\" href=\"http://www.platial.com\"><img src=\"http://media.geocommons.com/platial/images/logotype_small.jpg\"></a>","id":"a66zb78zouv7"},"type":"Feature","geometry":{"type":"Point","coordinates":[-0.081169,51.524323]}},{"properties":{"name":"Abbafield Training Centre","description":"Posted by <a title=\"http://claywell.me.uk/tom\" href=\"http://claywell.me.uk/tom\">Fotherington</a>BN24 5QX, UK<a title=\"Built for Community Mapping\" href=\"http://www.platial.com\"><img src=\"http://media.geocommons.com/platial/images/logotype_small.jpg\"></a>","id":"a66zb7hqchwp"},"type":"Feature","geometry":{"type":"Point","coordinates":[0.302922,50.822881]}},{"properties":{"name":"Abbot Institute of Modern Sciences","description":"Posted by <a title=\"http://claywell.me.uk/tom\" href=\"http://claywell.me.uk/tom\">Fotherington</a>IG1 1QT, UK<a title=\"Built for Community Mapping\" href=\"http://www.platial.com\"><img src=\"http://media.geocommons.com/platial/images/logotype_small.jpg\"></a>","id":"a66zb7ft7aqx"},"type":"Feature","geometry":{"type":"Point","coordinates":[0.079251,51.551329]}},{"properties":{"name":"Acadecom Training Ltd/Pitman Training Bristol","description":"Posted by <a title=\"http://claywell.me.uk/tom\" href=\"http://claywell.me.uk/tom\">Fotherington</a>BS1 2BQ, UK<a title=\"Built for Community Mapping\" href=\"http://www.platial.com\"><img src=\"http://media.geocommons.com/platial/images/logotype_small.jpg\"></a>","id":"a66zb73t3iv2"},"type":"Feature","geometry":{"type":"Point","coordinates":[-2.600933,51.45045]}},{"properties":{"name":"Academia International Ltd","description":"Posted by <a title=\"http://claywell.me.uk/tom\" href=\"http://claywell.me.uk/tom\">Fotherington</a>SL1 3PB, UK<a title=\"Built for Community Mapping\" href=\"http://www.platial.com\"><img src=\"http://media.geocommons.com/platial/images/logotype_small.jpg\"></a>","id":"a66zb7alzqxu"},"type":"Feature","geometry":{"type":"Point","coordinates":[-0.603601,51.506359]}},{"properties":{"name":"Academic College of London","description":"Posted by <a title=\"http://claywell.me.uk/tom\" href=\"http://claywell.me.uk/tom\">Fotherington</a>HA9 7ND, UK<a title=\"Built for Community Mapping\" href=\"http://www.platial.com\"><img src=\"http://media.geocommons.com/platial/images/logotype_small.jpg\"></a>","id":"a66zb789vlo6"},"type":"Feature","geometry":{"type":"Point","coordinates":[-0.295711,51.565422]}},{"properties":{"name":"Academy International","description":"Posted by <a title=\"http://claywell.me.uk/tom\" href=\"http://claywell.me.uk/tom\">Fotherington</a>W2 3BA, UK<a title=\"Built for Community Mapping\" href=\"http://www.platial.com\"><img src=\"http://media.geocommons.com/platial/images/logotype_small.jpg\"></a>","id":"a66zb7b5q7om"},"type":"Feature","geometry":{"type":"Point","coordinates":[-0.167668,51.510105]}},{"properties":{"name":"Academy of Management Studies","description":"Posted by <a title=\"http://claywell.me.uk/tom\" href=\"http://claywell.me.uk/tom\">Fotherington</a>NW6 4HY, UK<a title=\"Built for Community Mapping\" href=\"http://www.platial.com\"><img src=\"http://media.geocommons.com/platial/images/logotype_small.jpg\"></a>","id":"a66zb77xfqc9"},"type":"Feature","geometry":{"type":"Point","coordinates":[-0.194701,51.532911]}},{"properties":{"name":"Accounting Skills Training UK Ltd","description":"Posted by <a title=\"http://claywell.me.uk/tom\" href=\"http://claywell.me.uk/tom\">Fotherington</a>DE1 2GX, UK<a title=\"Built for Community Mapping\" href=\"http://www.platial.com\"><img src=\"http://media.geocommons.com/platial/images/logotype_small.jpg\"></a>","id":"a66zb7gaeih9"},"type":"Feature","geometry":{"type":"Point","coordinates":[-1.480192,52.930678]}},{"properties":{"name":"Adam Smith College","description":"Posted by <a title=\"http://claywell.me.uk/tom\" href=\"http://claywell.me.uk/tom\">Fotherington</a>KY1 1EX, UK<a title=\"Built for Community Mapping\" href=\"http://www.platial.com\"><img src=\"http://media.geocommons.com/platial/images/logotype_small.jpg\"></a>","id":"a66zb7f509en"},"type":"Feature","geometry":{"type":"Point","coordinates":[-3.134503,56.138028]}},{"properties":{"name":"Adelaide College","description":"Posted by <a title=\"http://claywell.me.uk/tom\" href=\"http://claywell.me.uk/tom\">Fotherington</a>KA21 5HS, UK<a title=\"Built for Community Mapping\" href=\"http://www.platial.com\"><img src=\"http://media.geocommons.com/platial/images/logotype_small.jpg\"></a>","id":"a66zb73osccz"},"type":"Feature","geometry":{"type":"Point","coordinates":[-4.768894,55.665998]}},{"properties":{"name":"Adrian Pitt Training Limited","description":"Posted by <a title=\"http://claywell.me.uk/tom\" href=\"http://claywell.me.uk/tom\">Fotherington</a>NN4 7YD, UK<a title=\"Built for Community Mapping\" href=\"http://www.platial.com\"><img src=\"http://media.geocommons.com/platial/images/logotype_small.jpg\"></a>","id":"a66zb74jeijf"},"type":"Feature","geometry":{"type":"Point","coordinates":[-0.87513,52.197769]}},{"properties":{"name":"Adrian Pitt Training Ltd","description":"Posted by <a title=\"http://claywell.me.uk/tom\" href=\"http://claywell.me.uk/tom\">Fotherington</a>BA9 8ET, UK<a title=\"Built for Community Mapping\" href=\"http://www.platial.com\"><img src=\"http://media.geocommons.com/platial/images/logotype_small.jpg\"></a>","id":"a66zb7fkphs7"},"type":"Feature","geometry":{"type":"Point","coordinates":[-2.416244,51.068915]}},{"properties":{"name":"Adullam's Cave Leadership Training College","description":"Posted by <a title=\"http://claywell.me.uk/tom\" href=\"http://claywell.me.uk/tom\">Fotherington</a>SE14 6FY, UK<a title=\"Built for Community Mapping\" href=\"http://www.platial.com\"><img src=\"http://media.geocommons.com/platial/images/logotype_small.jpg\"></a>","id":"a66zb793h2z3"},"type":"Feature","geometry":{"type":"Point","coordinates":[-0.034931,51.474924]}},{"properties":{"name":"Advanced Studies in England Limited","description":"Posted by <a title=\"http://claywell.me.uk/tom\" href=\"http://claywell.me.uk/tom\">Fotherington</a>BA1 1LB, UK<a title=\"Built for Community Mapping\" href=\"http://www.platial.com\"><img src=\"http://media.geocommons.com/platial/images/logotype_small.jpg\"></a>","id":"a66zb798ew1d"},"type":"Feature","geometry":{"type":"Point","coordinates":[-2.311262,51.410308]}},{"properties":{"name":"Aga Khan University (International) in the United Kingdom","description":"Posted by <a title=\"http://claywell.me.uk/tom\" href=\"http://claywell.me.uk/tom\">Fotherington</a>WC1B 3RA, UK<a title=\"Built for Community Mapping\" href=\"http://www.platial.com\"><img src=\"http://media.geocommons.com/platial/images/logotype_small.jpg\"></a>","id":"a66zb7f2o6xr"},"type":"Feature","geometry":{"type":"Point","coordinates":[-0.128205,51.518355]}},{"properties":{"name":"Albemarle Independent College","description":"Posted by <a title=\"http://claywell.me.uk/tom\" href=\"http://claywell.me.uk/tom\">Fotherington</a>W1K 7FE, UK<a title=\"Built for Community Mapping\" href=\"http://www.platial.com\"><img src=\"http://media.geocommons.com/platial/images/logotype_small.jpg\"></a>","id":"a66zb78wj4h6"},"type":"Feature","geometry":{"type":"Point","coordinates":[-0.149897,51.506099]}},{"properties":{"name":"Albion College Ltd","description":"Posted by <a title=\"http://claywell.me.uk/tom\" href=\"http://claywell.me.uk/tom\">Fotherington</a>WC1A 2PJ, UK<a title=\"Built for Community Mapping\" href=\"http://www.platial.com\"><img src=\"http://media.geocommons.com/platial/images/logotype_small.jpg\"></a>","id":"a66zb7ecyved"},"type":"Feature","geometry":{"type":"Point","coordinates":[-0.126435,51.517145]}},{"properties":{"name":"Alchemea College of Audio Engineering","description":"Posted by <a title=\"http://claywell.me.uk/tom\" href=\"http://claywell.me.uk/tom\">Fotherington</a>N1 8QG, UK<a title=\"Built for Community Mapping\" href=\"http://www.platial.com\"><img src=\"http://media.geocommons.com/platial/images/logotype_small.jpg\"></a>","id":"a66zb73mgp9b"},"type":"Feature","geometry":{"type":"Point","coordinates":[-0.095322,51.542234]}},{"properties":{"name":"Allen College of Homoeopathy","description":"Posted by <a title=\"http://claywell.me.uk/tom\" href=\"http://claywell.me.uk/tom\">Fotherington</a>CM2 9RA, UK<a title=\"Built for Community Mapping\" href=\"http://www.platial.com\"><img src=\"http://media.geocommons.com/platial/images/logotype_small.jpg\"></a>","id":"a66zb79k9mqg"},"type":"Feature","geometry":{"type":"Point","coordinates":[0.504655,51.739502]}},{"properties":{"name":"Allen Hall","description":"Posted by <a title=\"http://claywell.me.uk/tom\" href=\"http://claywell.me.uk/tom\">Fotherington</a>SW3 5AA, UK<a title=\"Built for Community Mapping\" href=\"http://www.platial.com\"><img src=\"http://media.geocommons.com/platial/images/logotype_small.jpg\"></a>","id":"a66zb7afhr93"},"type":"Feature","geometry":{"type":"Point","coordinates":[-0.164561,51.494937]}},{"properties":{"name":"Alpha Omega Education Ltd","description":"Posted by <a title=\"http://claywell.me.uk/tom\" href=\"http://claywell.me.uk/tom\">Fotherington</a>CF10 2DW, UK<a title=\"Built for Community Mapping\" href=\"http://www.platial.com\"><img src=\"http://media.geocommons.com/platial/images/logotype_small.jpg\"></a>","id":"a66zb73z1abq"},"type":"Feature","geometry":{"type":"Point","coordinates":[-3.153113,51.462597]}},{"properties":{"name":"Alvan Blanch Overseas Ltd","description":"Posted by <a title=\"http://claywell.me.uk/tom\" href=\"http://claywell.me.uk/tom\">Fotherington</a>SN16 9SG, UK<a title=\"Built for Community Mapping\" href=\"http://www.platial.com\"><img src=\"http://media.geocommons.com/platial/images/logotype_small.jpg\"></a>","id":"a66zb725tjv9"},"type":"Feature","geometry":{"type":"Point","coordinates":[-2.023517,51.611109]}},{"properties":{"name":"Amco Recruitment Training Institute","description":"Posted by <a title=\"http://claywell.me.uk/tom\" href=\"http://claywell.me.uk/tom\">Fotherington</a>N15 4QL, UK<a title=\"Built for Community Mapping\" href=\"http://www.platial.com\"><img src=\"http://media.geocommons.com/platial/images/logotype_small.jpg\"></a>","id":"a66zb77fmqzb"},"type":"Feature","geometry":{"type":"Point","coordinates":[-0.073776,51.585806]}},{"properties":{"name":"American Institute for Foreign Study Partnership Programmes Division","description":"Posted by <a title=\"http://claywell.me.uk/tom\" href=\"http://claywell.me.uk/tom\">Fotherington</a>WC1E 7JN, UK<a title=\"Built for Community Mapping\" href=\"http://www.platial.com\"><img src=\"http://media.geocommons.com/platial/images/logotype_small.jpg\"></a>","id":"a66zb7d62h6c"},"type":"Feature","geometry":{"type":"Point","coordinates":[-0.133249,51.522641]}},{"properties":{"name":"American Institute for Foreign Study Partnership Programmes Division","description":"Posted by <a title=\"http://claywell.me.uk/tom\" href=\"http://claywell.me.uk/tom\">Fotherington</a>SW7 5HR, UK<a title=\"Built for Community Mapping\" href=\"http://www.platial.com\"><img src=\"http://media.geocommons.com/platial/images/logotype_small.jpg\"></a>","id":"a66zb75m4ie5"},"type":"Feature","geometry":{"type":"Point","coordinates":[-0.173696,51.49778]}},{"properties":{"name":"American International University of Management &amp; Technology","description":"Posted by <a title=\"http://claywell.me.uk/tom\" href=\"http://claywell.me.uk/tom\">Fotherington</a>SW4 7SS, UK<a title=\"Built for Community Mapping\" href=\"http://www.platial.com\"><img src=\"http://media.geocommons.com/platial/images/logotype_small.jpg\"></a>","id":"a66zb7552te2"},"type":"Feature","geometry":{"type":"Point","coordinates":[-0.145729,51.456855]}},{"properties":{"name":"Amsh Limited","description":"Posted by <a title=\"http://claywell.me.uk/tom\" href=\"http://claywell.me.uk/tom\">Fotherington</a>WC1N 1PG, UK<a title=\"Built for Community Mapping\" href=\"http://www.platial.com\"><img src=\"http://media.geocommons.com/platial/images/logotype_small.jpg\"></a>","id":"a66zb79du2wv"},"type":"Feature","geometry":{"type":"Point","coordinates":[-0.121519,51.524402]}},{"properties":{"name":"Anchor Bible Training Centre","description":"Posted by <a title=\"http://claywell.me.uk/tom\" href=\"http://claywell.me.uk/tom\">Fotherington</a>BS4 5NL, UK<a title=\"Built for Community Mapping\" href=\"http://www.platial.com\"><img src=\"http://media.geocommons.com/platial/images/logotype_small.jpg\"></a>","id":"a66zb76v5t2z"},"type":"Feature","geometry":{"type":"Point","coordinates":[-2.58731,51.424695]}},{"properties":{"name":"Andrew Wakely Associates","description":"Posted by <a title=\"http://claywell.me.uk/tom\" href=\"http://claywell.me.uk/tom\">Fotherington</a>RH1 6AQ, UK<a title=\"Built for Community Mapping\" href=\"http://www.platial.com\"><img src=\"http://media.geocommons.com/platial/images/logotype_small.jpg\"></a>","id":"a66zb7638700"},"type":"Feature","geometry":{"type":"Point","coordinates":[-0.138071,51.205038]}},{"properties":{"name":"Anglo Computer Training Ltd","description":"Posted by <a title=\"http://claywell.me.uk/tom\" href=\"http://claywell.me.uk/tom\">Fotherington</a>E11 1HG, UK<a title=\"Built for Community Mapping\" href=\"http://www.platial.com\"><img src=\"http://media.geocommons.com/platial/images/logotype_small.jpg\"></a>","id":"a66zb78nfb3z"},"type":"Feature","geometry":{"type":"Point","coordinates":[0.033428,51.575653]}},{"properties":{"name":"Anglo-British Academy of Advance Studies","description":"Posted by <a title=\"http://claywell.me.uk/tom\" href=\"http://claywell.me.uk/tom\">Fotherington</a>E12 5AQ, UK<a title=\"Built for Community Mapping\" href=\"http://www.platial.com\"><img src=\"http://media.geocommons.com/platial/images/logotype_small.jpg\"></a>","id":"a66zb77m5q5g"},"type":"Feature","geometry":{"type":"Point","coordinates":[0.049462,51.558057]}},{"properties":{"name":"Arakelian Programmes Ltd","description":"Posted by <a title=\"http://claywell.me.uk/tom\" href=\"http://claywell.me.uk/tom\">Fotherington</a>OX5 1LG, UK<a title=\"Built for Community Mapping\" href=\"http://www.platial.com\"><img src=\"http://media.geocommons.com/platial/images/logotype_small.jpg\"></a>","id":"a66zb7gv56ju"},"type":"Feature","geometry":{"type":"Point","coordinates":[-1.305252,51.823044]}},{"properties":{"name":"Arbours Association Ltd","description":"Posted by <a title=\"http://claywell.me.uk/tom\" href=\"http://claywell.me.uk/tom\">Fotherington</a>N8 7BU, UK<a title=\"Built for Community Mapping\" href=\"http://www.platial.com\"><img src=\"http://media.geocommons.com/platial/images/logotype_small.jpg\"></a>","id":"a66zb729mou0"},"type":"Feature","geometry":{"type":"Point","coordinates":[-0.127357,51.580914]}},{"properties":{"name":"Arcadia University Center for Education Abroad","description":"Posted by <a title=\"http://claywell.me.uk/tom\" href=\"http://claywell.me.uk/tom\">Fotherington</a>EC1V 0HB, UK<a title=\"Built for Community Mapping\" href=\"http://www.platial.com\"><img src=\"http://media.geocommons.com/platial/images/logotype_small.jpg\"></a>","id":"a66zb72aiowm"},"type":"Feature","geometry":{"type":"Point","coordinates":[-0.088568,51.525573]}},{"properties":{"name":"Architectural Association","description":"Posted by <a title=\"http://claywell.me.uk/tom\" href=\"http://claywell.me.uk/tom\">Fotherington</a>WC1B 3ES, UK<a title=\"Built for Community Mapping\" href=\"http://www.platial.com\"><img src=\"http://media.geocommons.com/platial/images/logotype_small.jpg\"></a>","id":"a66zb7cv3dvl"},"type":"Feature","geometry":{"type":"Point","coordinates":[-0.128205,51.518355]}},{"properties":{"name":"Argent College","description":"Posted by <a title=\"http://claywell.me.uk/tom\" href=\"http://claywell.me.uk/tom\">Fotherington</a>W1D 1BF, UK<a title=\"Built for Community Mapping\" href=\"http://www.platial.com\"><img src=\"http://media.geocommons.com/platial/images/logotype_small.jpg\"></a>","id":"a66zb7gfd7t9"},"type":"Feature","geometry":{"type":"Point","coordinates":[-0.135506,51.516155]}},{"properties":{"name":"Argyll - Ruane Ltd","description":"Posted by <a title=\"http://claywell.me.uk/tom\" href=\"http://claywell.me.uk/tom\">Fotherington</a>S61 1DL, UK<a title=\"Built for Community Mapping\" href=\"http://www.platial.com\"><img src=\"http://media.geocommons.com/platial/images/logotype_small.jpg\"></a>","id":"a66zb7gkxlk5"},"type":"Feature","geometry":{"type":"Point","coordinates":[-1.417683,53.447342]}},{"properties":{"name":"Ari College Ltd","description":"Posted by <a title=\"http://claywell.me.uk/tom\" href=\"http://claywell.me.uk/tom\">Fotherington</a>E1 8EW, UK<a title=\"Built for Community Mapping\" href=\"http://www.platial.com\"><img src=\"http://media.geocommons.com/platial/images/logotype_small.jpg\"></a>","id":"a66zb7bhbu4n"},"type":"Feature","geometry":{"type":"Point","coordinates":[-0.046323,51.52224]}},{"properties":{"name":"Ark House","description":"Posted by <a title=\"http://claywell.me.uk/tom\" href=\"http://claywell.me.uk/tom\">Fotherington</a>BN14 9EY, UK<a title=\"Built for Community Mapping\" href=\"http://www.platial.com\"><img src=\"http://media.geocommons.com/platial/images/logotype_small.jpg\"></a>","id":"a66zb7g5pcei"},"type":"Feature","geometry":{"type":"Point","coordinates":[-0.388572,50.865868]}},{"properties":{"name":"Artemis School of Speech and Drama","description":"Posted by <a title=\"http://claywell.me.uk/tom\" href=\"http://claywell.me.uk/tom\">Fotherington</a><img src=\"http://media.geocommons.com/platial/images/categories/ICON_family_verD.gif\"> RH19 4NF, UK<a title=\"Built for Community Mapping\" href=\"http://www.platial.com\"><img src=\"http://media.geocommons.com/platial/images/logotype_small.jpg\"></a>","id":"a66zb75zam8r"},"type":"Feature","geometry":{"type":"Point","coordinates":[0.02593,51.129371]}},{"properties":{"name":"Ashley School of Hospitality","description":"Posted by <a title=\"http://claywell.me.uk/tom\" href=\"http://claywell.me.uk/tom\">Fotherington</a><img src=\"http://media.geocommons.com/platial/images/categories/ICON_family_verD.gif\"> M13 0EW, UK<a title=\"Built for Community Mapping\" href=\"http://www.platial.com\"><img src=\"http://media.geocommons.com/platial/images/logotype_small.jpg\"></a>","id":"a66zb7g96fzw"},"type":"Feature","geometry":{"type":"Point","coordinates":[-2.212051,53.454818]}},{"properties":{"name":"Aspire Training","description":"Posted by <a title=\"http://claywell.me.uk/tom\" href=\"http://claywell.me.uk/tom\">Fotherington</a>B18 5AQ, UK<a title=\"Built for Community Mapping\" href=\"http://www.platial.com\"><img src=\"http://media.geocommons.com/platial/images/logotype_small.jpg\"></a>","id":"a66zb7a5dp11"},"type":"Feature","geometry":{"type":"Point","coordinates":[-1.92517,52.495227]}},{"properties":{"name":"Astrik Network System","description":"Posted by <a title=\"http://claywell.me.uk/tom\" href=\"http://claywell.me.uk/tom\">Fotherington</a>SW16 6LQ, UK<a title=\"Built for Community Mapping\" href=\"http://www.platial.com\"><img src=\"http://media.geocommons.com/platial/images/logotype_small.jpg\"></a>","id":"a66zb78ys0ze"},"type":"Feature","geometry":{"type":"Point","coordinates":[-0.117687,51.416899]}},{"properties":{"name":"Aswan Learning Centre","description":"Posted by <a title=\"http://claywell.me.uk/tom\" href=\"http://claywell.me.uk/tom\">Fotherington</a>CR7 7EQ, UK<a title=\"Built for Community Mapping\" href=\"http://www.platial.com\"><img src=\"http://media.geocommons.com/platial/images/logotype_small.jpg\"></a>","id":"a66zb7boeuhw"},"type":"Feature","geometry":{"type":"Point","coordinates":[-0.102641,51.404119]}},{"properties":{"name":"Athene College of Management Studies","description":"Posted by <a title=\"http://claywell.me.uk/tom\" href=\"http://claywell.me.uk/tom\">Fotherington</a>HA9 0EF, UK<a title=\"Built for Community Mapping\" href=\"http://www.platial.com\"><img src=\"http://media.geocommons.com/platial/images/logotype_small.jpg\"></a>","id":"a66zb7g7dp1m"},"type":"Feature","geometry":{"type":"Point","coordinates":[-0.295711,51.565422]}},{"properties":{"name":"Athene College of Management Studies","description":"Posted by <a title=\"http://claywell.me.uk/tom\" href=\"http://claywell.me.uk/tom\">Fotherington</a>B11 3EA, UK<a title=\"Built for Community Mapping\" href=\"http://www.platial.com\"><img src=\"http://media.geocommons.com/platial/images/logotype_small.jpg\"></a>","id":"a66zb77cyki7"},"type":"Feature","geometry":{"type":"Point","coordinates":[-1.871127,52.463162]}},{"properties":{"name":"Avalon Institute","description":"Posted by <a title=\"http://claywell.me.uk/tom\" href=\"http://claywell.me.uk/tom\">Fotherington</a>WC2H 7JA, UK<a title=\"Built for Community Mapping\" href=\"http://www.platial.com\"><img src=\"http://media.geocommons.com/platial/images/logotype_small.jpg\"></a>","id":"a66zb79adi4i"},"type":"Feature","geometry":{"type":"Point","coordinates":[-0.125563,51.513708]}},{"properties":{"name":"CHSS LTD","description":"Posted by <a title=\"http://claywell.me.uk/tom\" href=\"http://claywell.me.uk/tom\">Fotherington</a>CF15 7QQ, UK<a title=\"Built for Community Mapping\" href=\"http://www.platial.com\"><img src=\"http://media.geocommons.com/platial/images/logotype_small.jpg\"></a>","id":"a66zb79pteao"},"type":"Feature","geometry":{"type":"Point","coordinates":[-3.262685,51.557294]}},{"properties":{"name":"CP Training Consortium","description":"Posted by <a title=\"http://claywell.me.uk/tom\" href=\"http://claywell.me.uk/tom\">Fotherington</a>BN27 1RA, UK<a title=\"Built for Community Mapping\" href=\"http://www.platial.com\"><img src=\"http://media.geocommons.com/platial/images/logotype_small.jpg\"></a>","id":"a66zb737l3xm"},"type":"Feature","geometry":{"type":"Point","coordinates":[0.206849,50.864665]}},{"properties":{"name":"CPL Training Limited","description":"Posted by <a title=\"http://claywell.me.uk/tom\" href=\"http://claywell.me.uk/tom\">Fotherington</a>CH41 1FN, UK<a title=\"Built for Community Mapping\" href=\"http://www.platial.com\"><img src=\"http://media.geocommons.com/platial/images/logotype_small.jpg\"></a>","id":"a66zb7a9l8vk"},"type":"Feature","geometry":{"type":"Point","coordinates":[-3.037884,53.403119]}},{"properties":{"name":"Cabair College of Air Training","description":"Posted by <a title=\"http://claywell.me.uk/tom\" href=\"http://claywell.me.uk/tom\">Fotherington</a>MK43 0JR, UK<a title=\"Built for Community Mapping\" href=\"http://www.platial.com\"><img src=\"http://media.geocommons.com/platial/images/logotype_small.jpg\"></a>","id":"a66zb7hx6pxk"},"type":"Feature","geometry":{"type":"Point","coordinates":[-0.583462,52.051265]}},{"properties":{"name":"Cabair College of Air Training","description":"Posted by <a title=\"http://claywell.me.uk/tom\" href=\"http://claywell.me.uk/tom\">Fotherington</a>BH23 6NW, UK<a title=\"Built for Community Mapping\" href=\"http://www.platial.com\"><img src=\"http://media.geocommons.com/platial/images/logotype_small.jpg\"></a>","id":"a66zb7ffi35e"},"type":"Feature","geometry":{"type":"Point","coordinates":[-1.730956,50.736994]}},{"properties":{"name":"Caledonia Training &amp; Consultancy LTD","description":"Posted by <a title=\"http://claywell.me.uk/tom\" href=\"http://claywell.me.uk/tom\">Fotherington</a>AB23 8EW, UK<a title=\"Built for Community Mapping\" href=\"http://www.platial.com\"><img src=\"http://media.geocommons.com/platial/images/logotype_small.jpg\"></a>","id":"a66zb7atwtof"},"type":"Feature","geometry":{"type":"Point","coordinates":[-2.069925,57.238105]}},{"properties":{"name":"Callan School","description":"Posted by <a title=\"http://claywell.me.uk/tom\" href=\"http://claywell.me.uk/tom\">Fotherington</a><img src=\"http://media.geocommons.com/platial/images/categories/ICON_family_verD.gif\"> CB3 9ND, UK<a title=\"Built for Community Mapping\" href=\"http://www.platial.com\"><img src=\"http://media.geocommons.com/platial/images/logotype_small.jpg\"></a>","id":"a66zb77il4t5"},"type":"Feature","geometry":{"type":"Point","coordinates":[-0.014747,52.181049]}},{"properties":{"name":"Calvary Chapel Bible College York","description":"Posted by <a title=\"http://claywell.me.uk/tom\" href=\"http://claywell.me.uk/tom\">Fotherington</a>YO1 9XR, UK<a title=\"Built for Community Mapping\" href=\"http://www.platial.com\"><img src=\"http://media.geocommons.com/platial/images/logotype_small.jpg\"></a>","id":"a66zb75jbkj1"},"type":"Feature","geometry":{"type":"Point","coordinates":[-1.078508,53.956928]}},{"properties":{"name":"Cambridge Advanced Technology Training","description":"Posted by <a title=\"http://claywell.me.uk/tom\" href=\"http://claywell.me.uk/tom\">Fotherington</a>CB5 8HE, UK<a title=\"Built for Community Mapping\" href=\"http://www.platial.com\"><img src=\"http://media.geocommons.com/platial/images/logotype_small.jpg\"></a>","id":"a66zb7brk2re"},"type":"Feature","geometry":{"type":"Point","coordinates":[0.233363,52.267436]}},{"properties":{"name":"Cambridge College for Advanced Studies","description":"Posted by <a title=\"http://claywell.me.uk/tom\" href=\"http://claywell.me.uk/tom\">Fotherington</a>IG1 4LZ, UK<a title=\"Built for Community Mapping\" href=\"http://www.platial.com\"><img src=\"http://media.geocommons.com/platial/images/logotype_small.jpg\"></a>","id":"a66zb72g3t8l"},"type":"Feature","geometry":{"type":"Point","coordinates":[0.079251,51.551329]}},{"properties":{"name":"Cambridge College of Learning","description":"Posted by <a title=\"http://claywell.me.uk/tom\" href=\"http://claywell.me.uk/tom\">Fotherington</a>EC2A 3QL, UK<a title=\"Built for Community Mapping\" href=\"http://www.platial.com\"><img src=\"http://media.geocommons.com/platial/images/logotype_small.jpg\"></a>","id":"a66zb77f3efu"},"type":"Feature","geometry":{"type":"Point","coordinates":[-0.081169,51.524323]}},{"properties":{"name":"Cambridge International College LTD","description":"Posted by <a title=\"http://claywell.me.uk/tom\" href=\"http://claywell.me.uk/tom\">Fotherington</a>EC2A 3JT, UK<a title=\"Built for Community Mapping\" href=\"http://www.platial.com\"><img src=\"http://media.geocommons.com/platial/images/logotype_small.jpg\"></a>","id":"a66zb78agz3u"},"type":"Feature","geometry":{"type":"Point","coordinates":[-0.081169,51.524323]}},{"properties":{"name":"Campbell Harris Tutors Ltd","description":"Posted by <a title=\"http://claywell.me.uk/tom\" href=\"http://claywell.me.uk/tom\">Fotherington</a>W8 6SH, UK<a title=\"Built for Community Mapping\" href=\"http://www.platial.com\"><img src=\"http://media.geocommons.com/platial/images/logotype_small.jpg\"></a>","id":"a66zb7co5f7c"},"type":"Feature","geometry":{"type":"Point","coordinates":[-0.199333,51.503951]}},{"properties":{"name":"Camphill Eurythmy School","description":"Posted by <a title=\"http://claywell.me.uk/tom\" href=\"http://claywell.me.uk/tom\">Fotherington</a><img src=\"http://media.geocommons.com/platial/images/categories/ICON_family_verD.gif\"> YO21 2NJ, UK<a title=\"Built for Community Mapping\" href=\"http://www.platial.com\"><img src=\"http://media.geocommons.com/platial/images/logotype_small.jpg\"></a>","id":"a66zb73v7lq1"},"type":"Feature","geometry":{"type":"Point","coordinates":[-0.915988,54.453653]}},{"properties":{"name":"Canning","description":"Posted by <a title=\"http://claywell.me.uk/tom\" href=\"http://claywell.me.uk/tom\">Fotherington</a>SW6 5UA, UK<a title=\"Built for Community Mapping\" href=\"http://www.platial.com\"><img src=\"http://media.geocommons.com/platial/images/logotype_small.jpg\"></a>","id":"a66zb76xxeny"},"type":"Feature","geometry":{"type":"Point","coordinates":[-0.187642,51.472926]}},{"properties":{"name":"Capcis Limited","description":"Posted by <a title=\"http://claywell.me.uk/tom\" href=\"http://claywell.me.uk/tom\">Fotherington</a>M1 7DP, UK<a title=\"Built for Community Mapping\" href=\"http://www.platial.com\"><img src=\"http://media.geocommons.com/platial/images/logotype_small.jpg\"></a>","id":"a66zb7bx4f6i"},"type":"Feature","geometry":{"type":"Point","coordinates":[-2.226899,53.478686]}},{"properties":{"name":"Capernwray Bible School","description":"Posted by <a title=\"http://claywell.me.uk/tom\" href=\"http://claywell.me.uk/tom\">Fotherington</a><img src=\"http://media.geocommons.com/platial/images/categories/ICON_family_verD.gif\"> LA6 1AG, UK<a title=\"Built for Community Mapping\" href=\"http://www.platial.com\"><img src=\"http://media.geocommons.com/platial/images/logotype_small.jpg\"></a>","id":"a66zb76ptfmc"},"type":"Feature","geometry":{"type":"Point","coordinates":[-2.69218,54.164166]}},{"properties":{"name":"Capital College UK","description":"Posted by <a title=\"http://claywell.me.uk/tom\" href=\"http://claywell.me.uk/tom\">Fotherington</a>SE15 1NZ, UK<a title=\"Built for Community Mapping\" href=\"http://www.platial.com\"><img src=\"http://media.geocommons.com/platial/images/logotype_small.jpg\"></a>","id":"a66zb7a8cf3p"},"type":"Feature","geometry":{"type":"Point","coordinates":[-0.055727,51.462009]}},{"properties":{"name":"Capital English Language Tutors","description":"Posted by <a title=\"http://claywell.me.uk/tom\" href=\"http://claywell.me.uk/tom\">Fotherington</a>CB1 5AX, UK<a title=\"Built for Community Mapping\" href=\"http://www.platial.com\"><img src=\"http://media.geocommons.com/platial/images/logotype_small.jpg\"></a>","id":"a66zb7ag713w"},"type":"Feature","geometry":{"type":"Point","coordinates":[0.304042,52.104922]}},{"properties":{"name":"Capital School of English","description":"Posted by <a title=\"http://claywell.me.uk/tom\" href=\"http://claywell.me.uk/tom\">Fotherington</a><img src=\"http://media.geocommons.com/platial/images/categories/ICON_family_verD.gif\"> EH6 6BZ, UK<a title=\"Built for Community Mapping\" href=\"http://www.platial.com\"><img src=\"http://media.geocommons.com/platial/images/logotype_small.jpg\"></a>","id":"a66zb7gjkdka"},"type":"Feature","geometry":{"type":"Point","coordinates":[-3.178661,55.978583]}},{"properties":{"name":"Cardiff Academy","description":"Posted by <a title=\"http://claywell.me.uk/tom\" href=\"http://claywell.me.uk/tom\">Fotherington</a>CF24 3AB, UK<a title=\"Built for Community Mapping\" href=\"http://www.platial.com\"><img src=\"http://media.geocommons.com/platial/images/logotype_small.jpg\"></a>","id":"a66zb7fqlogd"},"type":"Feature","geometry":{"type":"Point","coordinates":[-3.138665,51.48157]}},{"properties":{"name":"Cardiff Language Academy","description":"Posted by <a title=\"http://claywell.me.uk/tom\" href=\"http://claywell.me.uk/tom\">Fotherington</a>CF10 1AX, UK<a title=\"Built for Community Mapping\" href=\"http://www.platial.com\"><img src=\"http://media.geocommons.com/platial/images/logotype_small.jpg\"></a>","id":"a66zb733h5uq"},"type":"Feature","geometry":{"type":"Point","coordinates":[-3.153113,51.462597]}},{"properties":{"name":"Carmel Bible College - CBC","description":"Posted by <a title=\"http://claywell.me.uk/tom\" href=\"http://claywell.me.uk/tom\">Fotherington</a>BS4 5NL, UK<a title=\"Built for Community Mapping\" href=\"http://www.platial.com\"><img src=\"http://media.geocommons.com/platial/images/logotype_small.jpg\"></a>","id":"a66zb72qab1g"},"type":"Feature","geometry":{"type":"Point","coordinates":[-2.58731,51.424695]}},{"properties":{"name":"Carmel College of Excellence London","description":"Posted by <a title=\"http://claywell.me.uk/tom\" href=\"http://claywell.me.uk/tom\">Fotherington</a>IG1 4EG, UK<a title=\"Built for Community Mapping\" href=\"http://www.platial.com\"><img src=\"http://media.geocommons.com/platial/images/logotype_small.jpg\"></a>","id":"a66zb77fw534"},"type":"Feature","geometry":{"type":"Point","coordinates":[0.079251,51.551329]}},{"properties":{"name":"Cavendish School of English","description":"Posted by <a title=\"http://claywell.me.uk/tom\" href=\"http://claywell.me.uk/tom\">Fotherington</a><img src=\"http://media.geocommons.com/platial/images/categories/ICON_family_verD.gif\"> BH1 1RA, UK<a title=\"Built for Community Mapping\" href=\"http://www.platial.com\"><img src=\"http://media.geocommons.com/platial/images/logotype_small.jpg\"></a>","id":"a66zb73504fw"},"type":"Feature","geometry":{"type":"Point","coordinates":[-1.847307,50.728748]}},{"properties":{"name":"Caxton College of Education","description":"Posted by <a title=\"http://claywell.me.uk/tom\" href=\"http://claywell.me.uk/tom\">Fotherington</a>CR4 3ED, UK<a title=\"Built for Community Mapping\" href=\"http://www.platial.com\"><img src=\"http://media.geocommons.com/platial/images/logotype_small.jpg\"></a>","id":"a66zb71ujvqi"},"type":"Feature","geometry":{"type":"Point","coordinates":[-0.172338,51.408602]}},{"properties":{"name":"Caxton Health Service","description":"Posted by <a title=\"http://claywell.me.uk/tom\" href=\"http://claywell.me.uk/tom\">Fotherington</a><img src=\"http://media.geocommons.com/platial/images/categories/ICON_health_verD.gif\"> SE11 5SR, UK<a title=\"Built for Community Mapping\" href=\"http://www.platial.com\"><img src=\"http://media.geocommons.com/platial/images/logotype_small.jpg\"></a>","id":"a66zb7604xyw"},"type":"Feature","geometry":{"type":"Point","coordinates":[-0.107448,51.488703]}},{"properties":{"name":"Celeste NVQ Training and Assessment Centre","description":"Posted by <a title=\"http://claywell.me.uk/tom\" href=\"http://claywell.me.uk/tom\">Fotherington</a>SE15 4UA, UK<a title=\"Built for Community Mapping\" href=\"http://www.platial.com\"><img src=\"http://media.geocommons.com/platial/images/logotype_small.jpg\"></a>","id":"a66zb7die5zs"},"type":"Feature","geometry":{"type":"Point","coordinates":[-0.055727,51.462009]}},{"properties":{"name":"Central Birmingham College","description":"Posted by <a title=\"http://claywell.me.uk/tom\" href=\"http://claywell.me.uk/tom\">Fotherington</a>B18 6NF, UK<a title=\"Built for Community Mapping\" href=\"http://www.platial.com\"><img src=\"http://media.geocommons.com/platial/images/logotype_small.jpg\"></a>","id":"a66zb755holj"},"type":"Feature","geometry":{"type":"Point","coordinates":[-1.92517,52.495227]}},{"properties":{"name":"Central College of Iowa","description":"Posted by <a title=\"http://claywell.me.uk/tom\" href=\"http://claywell.me.uk/tom\">Fotherington</a>SW1H 0AH, UK<a title=\"Built for Community Mapping\" href=\"http://www.platial.com\"><img src=\"http://media.geocommons.com/platial/images/logotype_small.jpg\"></a>","id":"a66zb79dsm3b"},"type":"Feature","geometry":{"type":"Point","coordinates":[-0.133797,51.500654]}},{"properties":{"name":"Central London College of Reflexology Ltd.","description":"Posted by <a title=\"http://claywell.me.uk/tom\" href=\"http://claywell.me.uk/tom\">Fotherington</a>WC2H 9LN, UK<a title=\"Built for Community Mapping\" href=\"http://www.platial.com\"><img src=\"http://media.geocommons.com/platial/images/logotype_small.jpg\"></a>","id":"a66zb72yvo7n"},"type":"Feature","geometry":{"type":"Point","coordinates":[-0.125563,51.513708]}},{"properties":{"name":"Central School of Professional Studies","description":"Posted by <a title=\"http://claywell.me.uk/tom\" href=\"http://claywell.me.uk/tom\">Fotherington</a><img src=\"http://media.geocommons.com/platial/images/categories/ICON_family_verD.gif\"> NW10 1PH, UK<a title=\"Built for Community Mapping\" href=\"http://www.platial.com\"><img src=\"http://media.geocommons.com/platial/images/logotype_small.jpg\"></a>","id":"a66zb7flxf8l"},"type":"Feature","geometry":{"type":"Point","coordinates":[-0.275126,51.53488]}},{"properties":{"name":"Centre for Freudian Analysis and Research","description":"Posted by <a title=\"http://claywell.me.uk/tom\" href=\"http://claywell.me.uk/tom\">Fotherington</a>SE15 3BS, UK<a title=\"Built for Community Mapping\" href=\"http://www.platial.com\"><img src=\"http://media.geocommons.com/platial/images/logotype_small.jpg\"></a>","id":"a66zb73b6ka7"},"type":"Feature","geometry":{"type":"Point","coordinates":[-0.055727,51.462009]}},{"properties":{"name":"Centre for Medieval and Renaissance Studies Ltd","description":"Posted by <a title=\"http://claywell.me.uk/tom\" href=\"http://claywell.me.uk/tom\">Fotherington</a>OX1 2DP, UK<a title=\"Built for Community Mapping\" href=\"http://www.platial.com\"><img src=\"http://media.geocommons.com/platial/images/logotype_small.jpg\"></a>","id":"a66zb75a38ql"},"type":"Feature","geometry":{"type":"Point","coordinates":[-1.281516,51.721568]}},{"properties":{"name":"Centre for Nutrition Education and Lifestyle Management","description":"Posted by <a title=\"http://claywell.me.uk/tom\" href=\"http://claywell.me.uk/tom\">Fotherington</a>RG40 1AP, UK<a title=\"Built for Community Mapping\" href=\"http://www.platial.com\"><img src=\"http://media.geocommons.com/platial/images/logotype_small.jpg\"></a>","id":"a66zb78dir5m"},"type":"Feature","geometry":{"type":"Point","coordinates":[-0.821597,51.380887]}},{"properties":{"name":"Centre for the Alexander Technique","description":"Posted by <a title=\"http://claywell.me.uk/tom\" href=\"http://claywell.me.uk/tom\">Fotherington</a>SW6 6HA, UK<a title=\"Built for Community Mapping\" href=\"http://www.platial.com\"><img src=\"http://media.geocommons.com/platial/images/logotype_small.jpg\"></a>","id":"a66zb7hkc44v"},"type":"Feature","geometry":{"type":"Point","coordinates":[-0.187642,51.472926]}},{"properties":{"name":"Champneys International College of Health and Beauty","description":"Posted by <a title=\"http://claywell.me.uk/tom\" href=\"http://claywell.me.uk/tom\">Fotherington</a><img src=\"http://media.geocommons.com/platial/images/categories/ICON_health_verD.gif\"> HP23 6HY, UK<a title=\"Built for Community Mapping\" href=\"http://www.platial.com\"><img src=\"http://media.geocommons.com/platial/images/logotype_small.jpg\"></a>","id":"a66zb72r53yl"},"type":"Feature","geometry":{"type":"Point","coordinates":[-0.628595,51.79861]}},{"properties":{"name":"Chancery College of London Limited","description":"Posted by <a title=\"http://claywell.me.uk/tom\" href=\"http://claywell.me.uk/tom\">Fotherington</a>E13 8SD, UK<a title=\"Built for Community Mapping\" href=\"http://www.platial.com\"><img src=\"http://media.geocommons.com/platial/images/logotype_small.jpg\"></a>","id":"a66zb796r5y9"},"type":"Feature","geometry":{"type":"Point","coordinates":[0.026927,51.523421]}},{"properties":{"name":"Charles Dickens College","description":"Posted by <a title=\"http://claywell.me.uk/tom\" href=\"http://claywell.me.uk/tom\">Fotherington</a>E1 6NR, UK<a title=\"Built for Community Mapping\" href=\"http://www.platial.com\"><img src=\"http://media.geocommons.com/platial/images/logotype_small.jpg\"></a>","id":"a66zb774h3f3"},"type":"Feature","geometry":{"type":"Point","coordinates":[-0.046323,51.52224]}},{"properties":{"name":"Chaucer College Canterbury","description":"Posted by <a title=\"http://claywell.me.uk/tom\" href=\"http://claywell.me.uk/tom\">Fotherington</a>CT2 7 LJ, UK<a title=\"Built for Community Mapping\" href=\"http://www.platial.com\"><img src=\"http://media.geocommons.com/platial/images/logotype_small.jpg\"></a>","id":"a66zb7f3qzkm"},"type":"Feature","geometry":{"type":"Point","coordinates":[1.081362,51.291517]}},{"properties":{"name":"Checkendon Equestrian Centre","description":"Posted by <a title=\"http://claywell.me.uk/tom\" href=\"http://claywell.me.uk/tom\">Fotherington</a>RG8 0NE, UK<a title=\"Built for Community Mapping\" href=\"http://www.platial.com\"><img src=\"http://media.geocommons.com/platial/images/logotype_small.jpg\"></a>","id":"a66zb782kv76"},"type":"Feature","geometry":{"type":"Point","coordinates":[-1.122732,51.470315]}},{"properties":{"name":"Chisholme Institute Ltd","description":"Posted by <a title=\"http://claywell.me.uk/tom\" href=\"http://claywell.me.uk/tom\">Fotherington</a>TD9 7PH, UK<a title=\"Built for Community Mapping\" href=\"http://www.platial.com\"><img src=\"http://media.geocommons.com/platial/images/logotype_small.jpg\"></a>","id":"a66zb7dev5lw"},"type":"Feature","geometry":{"type":"Point","coordinates":[-2.827224,55.266213]}},{"properties":{"name":"Christ the Redeemer Bible College","description":"Posted by <a title=\"http://claywell.me.uk/tom\" href=\"http://claywell.me.uk/tom\">Fotherington</a>SE11 4LS, UK<a title=\"Built for Community Mapping\" href=\"http://www.platial.com\"><img src=\"http://media.geocommons.com/platial/images/logotype_small.jpg\"></a>","id":"a66zb78h8o3o"},"type":"Feature","geometry":{"type":"Point","coordinates":[-0.107448,51.488703]}},{"properties":{"name":"Christie's Education","description":"Posted by <a title=\"http://claywell.me.uk/tom\" href=\"http://claywell.me.uk/tom\">Fotherington</a>W1W 5BD, UK<a title=\"Built for Community Mapping\" href=\"http://www.platial.com\"><img src=\"http://media.geocommons.com/platial/images/logotype_small.jpg\"></a>","id":"a66zb72cyt4h"},"type":"Feature","geometry":{"type":"Point","coordinates":[-0.141547,51.519967]}},{"properties":{"name":"Church of the Nations Maidstone Training Centre","description":"Posted by <a title=\"http://claywell.me.uk/tom\" href=\"http://claywell.me.uk/tom\">Fotherington</a>ME15 8JW, UK<a title=\"Built for Community Mapping\" href=\"http://www.platial.com\"><img src=\"http://media.geocommons.com/platial/images/logotype_small.jpg\"></a>","id":"a66zb7dmbwxl"},"type":"Feature","geometry":{"type":"Point","coordinates":[0.565263,51.254719]}},{"properties":{"name":"Churchill College Ltd","description":"Posted by <a title=\"http://claywell.me.uk/tom\" href=\"http://claywell.me.uk/tom\">Fotherington</a>BD7 1BG, UK<a title=\"Built for Community Mapping\" href=\"http://www.platial.com\"><img src=\"http://media.geocommons.com/platial/images/logotype_small.jpg\"></a>","id":"a66zb77l3p4l"},"type":"Feature","geometry":{"type":"Point","coordinates":[-1.789252,53.788295]}},{"properties":{"name":"Circomedia","description":"Posted by <a title=\"http://claywell.me.uk/tom\" href=\"http://claywell.me.uk/tom\">Fotherington</a>BS15 8DB, UK<a title=\"Built for Community Mapping\" href=\"http://www.platial.com\"><img src=\"http://media.geocommons.com/platial/images/logotype_small.jpg\"></a>","id":"a66zb7cie74u"},"type":"Feature","geometry":{"type":"Point","coordinates":[-2.490573,51.469288]}},{"properties":{"name":"City Banking College Limited","description":"Posted by <a title=\"http://claywell.me.uk/tom\" href=\"http://claywell.me.uk/tom\">Fotherington</a>SE1 3QP, UK<a title=\"Built for Community Mapping\" href=\"http://www.platial.com\"><img src=\"http://media.geocommons.com/platial/images/logotype_small.jpg\"></a>","id":"a66zb7bzhj9r"},"type":"Feature","geometry":{"type":"Point","coordinates":[-0.071765,51.489245]}},{"properties":{"name":"City College of London","description":"Posted by <a title=\"http://claywell.me.uk/tom\" href=\"http://claywell.me.uk/tom\">Fotherington</a>E1 2LH, UK<a title=\"Built for Community Mapping\" href=\"http://www.platial.com\"><img src=\"http://media.geocommons.com/platial/images/logotype_small.jpg\"></a>","id":"a66zb7cab0jo"},"type":"Feature","geometry":{"type":"Point","coordinates":[-0.046323,51.52224]}},{"properties":{"name":"City College of Management","description":"Posted by <a title=\"http://claywell.me.uk/tom\" href=\"http://claywell.me.uk/tom\">Fotherington</a>Hounslow, UK<a title=\"Built for Community Mapping\" href=\"http://www.platial.com\"><img src=\"http://media.geocommons.com/platial/images/logotype_small.jpg\"></a>","id":"a66zb73afxjn"},"type":"Feature","geometry":{"type":"Point","coordinates":[-0.361799,51.467586]}},{"properties":{"name":"City of East London College","description":"Posted by <a title=\"http://claywell.me.uk/tom\" href=\"http://claywell.me.uk/tom\">Fotherington</a>E1 1RD, UK<a title=\"Built for Community Mapping\" href=\"http://www.platial.com\"><img src=\"http://media.geocommons.com/platial/images/logotype_small.jpg\"></a>","id":"a66zb7c2s1fr"},"type":"Feature","geometry":{"type":"Point","coordinates":[-0.046323,51.52224]}},{"properties":{"name":"City of London Institute Ltd (CLL)","description":"Posted by <a title=\"http://claywell.me.uk/tom\" href=\"http://claywell.me.uk/tom\">Fotherington</a>EC4Y 0DT, UK<a title=\"Built for Community Mapping\" href=\"http://www.platial.com\"><img src=\"http://media.geocommons.com/platial/images/logotype_small.jpg\"></a>","id":"a66zb76oc1yj"},"type":"Feature","geometry":{"type":"Point","coordinates":[-0.108172,51.513506]}},{"properties":{"name":"Clevedon Riding Centre","description":"Posted by <a title=\"http://claywell.me.uk/tom\" href=\"http://claywell.me.uk/tom\">Fotherington</a><img src=\"http://media.geocommons.com/platial/images/categories/ICON_recreation_verD.gif\"> BS21 7AG, UK<a title=\"Built for Community Mapping\" href=\"http://www.platial.com\"><img src=\"http://media.geocommons.com/platial/images/logotype_small.jpg\"></a>","id":"a66zb72rxxbl"},"type":"Feature","geometry":{"type":"Point","coordinates":[-2.834866,51.417066]}},{"properties":{"name":"Cliff College","description":"Posted by <a title=\"http://claywell.me.uk/tom\" href=\"http://claywell.me.uk/tom\">Fotherington</a>S32 3XG, UK<a title=\"Built for Community Mapping\" href=\"http://www.platial.com\"><img src=\"http://media.geocommons.com/platial/images/logotype_small.jpg\"></a>","id":"a66zb7gjo3lt"},"type":"Feature","geometry":{"type":"Point","coordinates":[-1.661506,53.328865]}},{"properties":{"name":"Cll Face-to-Face Training","description":"Posted by <a title=\"http://claywell.me.uk/tom\" href=\"http://claywell.me.uk/tom\">Fotherington</a>EC2V 7HY, UK<a title=\"Built for Community Mapping\" href=\"http://www.platial.com\"><img src=\"http://media.geocommons.com/platial/images/logotype_small.jpg\"></a>","id":"a66zb7h28gio"},"type":"Feature","geometry":{"type":"Point","coordinates":[-0.09489,51.514757]}},{"properties":{"name":"Coleg Sir Gar","description":"Posted by <a title=\"http://claywell.me.uk/tom\" href=\"http://claywell.me.uk/tom\">Fotherington</a>SA31 2NH, UK<a title=\"Built for Community Mapping\" href=\"http://www.platial.com\"><img src=\"http://media.geocommons.com/platial/images/logotype_small.jpg\"></a>","id":"a66zb74uexuv"},"type":"Feature","geometry":{"type":"Point","coordinates":[-4.284913,51.852308]}},{"properties":{"name":"Colege Meirion-Dwyfor","description":"Posted by <a title=\"http://claywell.me.uk/tom\" href=\"http://claywell.me.uk/tom\">Fotherington</a>LL54 5DU, UK<a title=\"Built for Community Mapping\" href=\"http://www.platial.com\"><img src=\"http://media.geocommons.com/platial/images/logotype_small.jpg\"></a>","id":"a66zb757r1sq"},"type":"Feature","geometry":{"type":"Point","coordinates":[-4.359116,53.049577]}},{"properties":{"name":"College for International Cooperation and Development","description":"Posted by <a title=\"http://claywell.me.uk/tom\" href=\"http://claywell.me.uk/tom\">Fotherington</a>HU12 0NP, UK<a title=\"Built for Community Mapping\" href=\"http://www.platial.com\"><img src=\"http://media.geocommons.com/platial/images/logotype_small.jpg\"></a>","id":"a66zb78p4oo6"},"type":"Feature","geometry":{"type":"Point","coordinates":[-0.204403,53.730021]}},{"properties":{"name":"College of Accountancy","description":"Posted by <a title=\"http://claywell.me.uk/tom\" href=\"http://claywell.me.uk/tom\">Fotherington</a>HA5 1LH, UK<a title=\"Built for Community Mapping\" href=\"http://www.platial.com\"><img src=\"http://media.geocommons.com/platial/images/logotype_small.jpg\"></a>","id":"a66zb792w758"},"type":"Feature","geometry":{"type":"Point","coordinates":[-0.373254,51.610651]}},{"properties":{"name":"College of Cranio-Scaral Therapy","description":"Posted by <a title=\"http://claywell.me.uk/tom\" href=\"http://claywell.me.uk/tom\">Fotherington</a>NW1 8XE, UK<a title=\"Built for Community Mapping\" href=\"http://www.platial.com\"><img src=\"http://media.geocommons.com/platial/images/logotype_small.jpg\"></a>","id":"a66zb72uv0t5"},"type":"Feature","geometry":{"type":"Point","coordinates":[-0.149522,51.54236]}},{"properties":{"name":"College of East London","description":"Posted by <a title=\"http://claywell.me.uk/tom\" href=\"http://claywell.me.uk/tom\">Fotherington</a>E15 2TF, UK<a title=\"Built for Community Mapping\" href=\"http://www.platial.com\"><img src=\"http://media.geocommons.com/platial/images/logotype_small.jpg\"></a>","id":"a66zb7e1ak05"},"type":"Feature","geometry":{"type":"Point","coordinates":[-0.008907,51.542177]}},{"properties":{"name":"College of Employment Training (Global) Ltd (CET Global)","description":"Posted by <a title=\"http://claywell.me.uk/tom\" href=\"http://claywell.me.uk/tom\">Fotherington</a>E8 3QE, UK<a title=\"Built for Community Mapping\" href=\"http://www.platial.com\"><img src=\"http://media.geocommons.com/platial/images/logotype_small.jpg\"></a>","id":"a66zb750g6a4"},"type":"Feature","geometry":{"type":"Point","coordinates":[-0.064838,51.542123]}},{"properties":{"name":"College of Professional and Management Studies","description":"Posted by <a title=\"http://claywell.me.uk/tom\" href=\"http://claywell.me.uk/tom\">Fotherington</a>IG1 4DL, UK<a title=\"Built for Community Mapping\" href=\"http://www.platial.com\"><img src=\"http://media.geocommons.com/platial/images/logotype_small.jpg\"></a>","id":"a66zb7h0d6zn"},"type":"Feature","geometry":{"type":"Point","coordinates":[0.079251,51.551329]}},{"properties":{"name":"College of Venereal Disease Prevention","description":"Posted by <a title=\"http://claywell.me.uk/tom\" href=\"http://claywell.me.uk/tom\">Fotherington</a><img src=\"http://media.geocommons.com/platial/images/categories/ICON_health_verD.gif\"> E2 9DQ, UK<a title=\"Built for Community Mapping\" href=\"http://www.platial.com\"><img src=\"http://media.geocommons.com/platial/images/logotype_small.jpg\"></a>","id":"a66zb7g5v9jc"},"type":"Feature","geometry":{"type":"Point","coordinates":[-0.05387,51.528019]}},{"properties":{"name":"Commonwealth College","description":"Posted by <a title=\"http://claywell.me.uk/tom\" href=\"http://claywell.me.uk/tom\">Fotherington</a>LU1 2SA, UK<a title=\"Built for Community Mapping\" href=\"http://www.platial.com\"><img src=\"http://media.geocommons.com/platial/images/logotype_small.jpg\"></a>","id":"a66zb76g82y8"},"type":"Feature","geometry":{"type":"Point","coordinates":[-0.394825,51.861061]}},{"properties":{"name":"Complementary Therapies","description":"Posted by <a title=\"http://claywell.me.uk/tom\" href=\"http://claywell.me.uk/tom\">Fotherington</a>SL9 7LR, UK<a title=\"Built for Community Mapping\" href=\"http://www.platial.com\"><img src=\"http://media.geocommons.com/platial/images/logotype_small.jpg\"></a>","id":"a66zb75cbyuz"},"type":"Feature","geometry":{"type":"Point","coordinates":[-0.537918,51.606374]}},{"properties":{"name":"Computer Technology Training","description":"Posted by <a title=\"http://claywell.me.uk/tom\" href=\"http://claywell.me.uk/tom\">Fotherington</a>WC1X 9DE, UK<a title=\"Built for Community Mapping\" href=\"http://www.platial.com\"><img src=\"http://media.geocommons.com/platial/images/logotype_small.jpg\"></a>","id":"a66zb7en1xjf"},"type":"Feature","geometry":{"type":"Point","coordinates":[-0.115395,51.528552]}},{"properties":{"name":"Concept Care College","description":"Posted by <a title=\"http://claywell.me.uk/tom\" href=\"http://claywell.me.uk/tom\">Fotherington</a>HA3 7RG, UK<a title=\"Built for Community Mapping\" href=\"http://www.platial.com\"><img src=\"http://media.geocommons.com/platial/images/logotype_small.jpg\"></a>","id":"a66zb7h10auw"},"type":"Feature","geometry":{"type":"Point","coordinates":[-0.347629,51.616172]}},{"properties":{"name":"Concepta College Greenwich (Pitman Training)","description":"Posted by <a title=\"http://claywell.me.uk/tom\" href=\"http://claywell.me.uk/tom\">Fotherington</a>SE10 8JA, UK<a title=\"Built for Community Mapping\" href=\"http://www.platial.com\"><img src=\"http://media.geocommons.com/platial/images/logotype_small.jpg\"></a>","id":"a66zb78lh5yr"},"type":"Feature","geometry":{"type":"Point","coordinates":[0.009192,51.494583]}},{"properties":{"name":"Confederation of Professional Licensees Limited","description":"Posted by <a title=\"http://claywell.me.uk/tom\" href=\"http://claywell.me.uk/tom\">Fotherington</a>CH41 1FN, UK<a title=\"Built for Community Mapping\" href=\"http://www.platial.com\"><img src=\"http://media.geocommons.com/platial/images/logotype_small.jpg\"></a>","id":"a66zb7cgvrr5"},"type":"Feature","geometry":{"type":"Point","coordinates":[-3.037884,53.403119]}},{"properties":{"name":"Conlan International Ltd","description":"Posted by <a title=\"http://claywell.me.uk/tom\" href=\"http://claywell.me.uk/tom\">Fotherington</a>LL22 7HA, UK<a title=\"Built for Community Mapping\" href=\"http://www.platial.com\"><img src=\"http://media.geocommons.com/platial/images/logotype_small.jpg\"></a>","id":"a66zb7anwao9"},"type":"Feature","geometry":{"type":"Point","coordinates":[-3.661301,53.202539]}},{"properties":{"name":"Connectivity","description":"Posted by <a title=\"http://claywell.me.uk/tom\" href=\"http://claywell.me.uk/tom\">Fotherington</a>E14 9XL, UK<a title=\"Built for Community Mapping\" href=\"http://www.platial.com\"><img src=\"http://media.geocommons.com/platial/images/logotype_small.jpg\"></a>","id":"a66zb7fd61ft"},"type":"Feature","geometry":{"type":"Point","coordinates":[-0.00644,51.512866]}},{"properties":{"name":"Contessa Riding Centre","description":"Posted by <a title=\"http://claywell.me.uk/tom\" href=\"http://claywell.me.uk/tom\">Fotherington</a><img src=\"http://media.geocommons.com/platial/images/categories/ICON_recreation_verD.gif\"> SG11 1EN, UK<a title=\"Built for Community Mapping\" href=\"http://www.platial.com\"><img src=\"http://media.geocommons.com/platial/images/logotype_small.jpg\"></a>","id":"a66zb73mynsf"},"type":"Feature","geometry":{"type":"Point","coordinates":[-0.005076,51.881306]}},{"properties":{"name":"Corinium Language Associates","description":"Posted by <a title=\"http://claywell.me.uk/tom\" href=\"http://claywell.me.uk/tom\">Fotherington</a>GL7 3NR, UK<a title=\"Built for Community Mapping\" href=\"http://www.platial.com\"><img src=\"http://media.geocommons.com/platial/images/logotype_small.jpg\"></a>","id":"a66zb75jr0ia"},"type":"Feature","geometry":{"type":"Point","coordinates":[-1.854041,51.723798]}},{"properties":{"name":"Cornhill School of Management","description":"Posted by <a title=\"http://claywell.me.uk/tom\" href=\"http://claywell.me.uk/tom\">Fotherington</a><img src=\"http://media.geocommons.com/platial/images/categories/ICON_family_verD.gif\"> IG1 1BA, UK<a title=\"Built for Community Mapping\" href=\"http://www.platial.com\"><img src=\"http://media.geocommons.com/platial/images/logotype_small.jpg\"></a>","id":"a66zb7hkw749"},"type":"Feature","geometry":{"type":"Point","coordinates":[0.079251,51.551329]}},{"properties":{"name":"Cotech Modern College of Technology","description":"Posted by <a title=\"http://claywell.me.uk/tom\" href=\"http://claywell.me.uk/tom\">Fotherington</a>SE10 8PE, UK<a title=\"Built for Community Mapping\" href=\"http://www.platial.com\"><img src=\"http://media.geocommons.com/platial/images/logotype_small.jpg\"></a>","id":"a66zb7g1qgpa"},"type":"Feature","geometry":{"type":"Point","coordinates":[0.009192,51.494583]}},{"properties":{"name":"Cotswold International Language School","description":"Posted by <a title=\"http://claywell.me.uk/tom\" href=\"http://claywell.me.uk/tom\">Fotherington</a><img src=\"http://media.geocommons.com/platial/images/categories/ICON_family_verD.gif\"> GL7 2BX, UK<a title=\"Built for Community Mapping\" href=\"http://www.platial.com\"><img src=\"http://media.geocommons.com/platial/images/logotype_small.jpg\"></a>","id":"a66zb7dz06v7"},"type":"Feature","geometry":{"type":"Point","coordinates":[-1.854041,51.723798]}},{"properties":{"name":"Courses for Horses","description":"Posted by <a title=\"http://claywell.me.uk/tom\" href=\"http://claywell.me.uk/tom\">Fotherington</a>ST6 8TF, UK<a title=\"Built for Community Mapping\" href=\"http://www.platial.com\"><img src=\"http://media.geocommons.com/platial/images/logotype_small.jpg\"></a>","id":"a66zb7cubiwx"},"type":"Feature","geometry":{"type":"Point","coordinates":[-2.19287,53.070517]}},{"properties":{"name":"Covenant College","description":"Posted by <a title=\"http://claywell.me.uk/tom\" href=\"http://claywell.me.uk/tom\">Fotherington</a>CV7 9JL, UK<a title=\"Built for Community Mapping\" href=\"http://www.platial.com\"><img src=\"http://media.geocommons.com/platial/images/logotype_small.jpg\"></a>","id":"a66zb75sx85k"},"type":"Feature","geometry":{"type":"Point","coordinates":[-1.650195,52.416024]}},{"properties":{"name":"Covenant Schools of Ministries School of the Word","description":"Posted by <a title=\"http://claywell.me.uk/tom\" href=\"http://claywell.me.uk/tom\">Fotherington</a><img src=\"http://media.geocommons.com/platial/images/categories/ICON_family_verD.gif\"> CF14 3NY, UK<a title=\"Built for Community Mapping\" href=\"http://www.platial.com\"><img src=\"http://media.geocommons.com/platial/images/logotype_small.jpg\"></a>","id":"a66zb7h2b0xo"},"type":"Feature","geometry":{"type":"Point","coordinates":[-3.21381,51.512795]}},{"properties":{"name":"Cranbrook Business School","description":"Posted by <a title=\"http://claywell.me.uk/tom\" href=\"http://claywell.me.uk/tom\">Fotherington</a><img src=\"http://media.geocommons.com/platial/images/categories/ICON_family_verD.gif\"> SL1 1DN, UK<a title=\"Built for Community Mapping\" href=\"http://www.platial.com\"><img src=\"http://media.geocommons.com/platial/images/logotype_small.jpg\"></a>","id":"a66zb73kdbuy"},"type":"Feature","geometry":{"type":"Point","coordinates":[-0.603601,51.506359]}},{"properties":{"name":"Cromwell College of IT and Management","description":"Posted by <a title=\"http://claywell.me.uk/tom\" href=\"http://claywell.me.uk/tom\">Fotherington</a>E8 3QE, UK<a title=\"Built for Community Mapping\" href=\"http://www.platial.com\"><img src=\"http://media.geocommons.com/platial/images/logotype_small.jpg\"></a>","id":"a66zb781w1dt"},"type":"Feature","geometry":{"type":"Point","coordinates":[-0.064838,51.542123]}},{"properties":{"name":"Cross Way College","description":"Posted by <a title=\"http://claywell.me.uk/tom\" href=\"http://claywell.me.uk/tom\">Fotherington</a>N17 0DH, UK<a title=\"Built for Community Mapping\" href=\"http://www.platial.com\"><img src=\"http://media.geocommons.com/platial/images/logotype_small.jpg\"></a>","id":"a66zb75kmx17"},"type":"Feature","geometry":{"type":"Point","coordinates":[-0.056251,51.591414]}},{"properties":{"name":"Croydon International College","description":"Posted by <a title=\"http://claywell.me.uk/tom\" href=\"http://claywell.me.uk/tom\">Fotherington</a>CR0 1BG, UK<a title=\"Built for Community Mapping\" href=\"http://www.platial.com\"><img src=\"http://media.geocommons.com/platial/images/logotype_small.jpg\"></a>","id":"a66zb78njpd0"},"type":"Feature","geometry":{"type":"Point","coordinates":[-0.130762,51.372194]}},{"properties":{"name":"DCAS Business School","description":"Posted by <a title=\"http://claywell.me.uk/tom\" href=\"http://claywell.me.uk/tom\">Fotherington</a><img src=\"http://media.geocommons.com/platial/images/categories/ICON_family_verD.gif\"> E17 6DS, UK<a title=\"Built for Community Mapping\" href=\"http://www.platial.com\"><img src=\"http://media.geocommons.com/platial/images/logotype_small.jpg\"></a>","id":"a66zb7hdl08u"},"type":"Feature","geometry":{"type":"Point","coordinates":[-0.030569,51.598365]}},{"properties":{"name":"DTH College","description":"Posted by <a title=\"http://claywell.me.uk/tom\" href=\"http://claywell.me.uk/tom\">Fotherington</a>IG11 8QN, UK<a title=\"Built for Community Mapping\" href=\"http://www.platial.com\"><img src=\"http://media.geocommons.com/platial/images/logotype_small.jpg\"></a>","id":"a66zb7a8xxl2"},"type":"Feature","geometry":{"type":"Point","coordinates":[0.104785,51.522867]}},{"properties":{"name":"DTK Training &amp; Development","description":"Posted by <a title=\"http://claywell.me.uk/tom\" href=\"http://claywell.me.uk/tom\">Fotherington</a>E1 1JE, UK<a title=\"Built for Community Mapping\" href=\"http://www.platial.com\"><img src=\"http://media.geocommons.com/platial/images/logotype_small.jpg\"></a>","id":"a66zb775v4e5"},"type":"Feature","geometry":{"type":"Point","coordinates":[-0.046323,51.52224]}},{"properties":{"name":"DTK Training &amp; Development","description":"Posted by <a title=\"http://claywell.me.uk/tom\" href=\"http://claywell.me.uk/tom\">Fotherington</a>E13 OAD, UK<a title=\"Built for Community Mapping\" href=\"http://www.platial.com\"><img src=\"http://media.geocommons.com/platial/images/logotype_small.jpg\"></a>","id":"a66zb7fodr9h"},"type":"Feature","geometry":{"type":"Point","coordinates":[-1.246049,53.072998]}},{"properties":{"name":"David Bennington Savage","description":"Posted by <a title=\"http://claywell.me.uk/tom\" href=\"http://claywell.me.uk/tom\">Fotherington</a>EX21 5RE, UK<a title=\"Built for Community Mapping\" href=\"http://www.platial.com\"><img src=\"http://media.geocommons.com/platial/images/logotype_small.jpg\"></a>","id":"a66zb7i7ltyo"},"type":"Feature","geometry":{"type":"Point","coordinates":[-4.210724,50.797029]}},{"properties":{"name":"De-Divine","description":"Posted by <a title=\"http://claywell.me.uk/tom\" href=\"http://claywell.me.uk/tom\">Fotherington</a>NW10 4WJ, UK<a title=\"Built for Community Mapping\" href=\"http://www.platial.com\"><img src=\"http://media.geocommons.com/platial/images/logotype_small.jpg\"></a>","id":"a66zb742uxbq"},"type":"Feature","geometry":{"type":"Point","coordinates":[-0.275126,51.53488]}},{"properties":{"name":"Delamar Academy","description":"Posted by <a title=\"http://claywell.me.uk/tom\" href=\"http://claywell.me.uk/tom\">Fotherington</a>W5 5EP, UK<a title=\"Built for Community Mapping\" href=\"http://www.platial.com\"><img src=\"http://media.geocommons.com/platial/images/logotype_small.jpg\"></a>","id":"a66zb7bupcyj"},"type":"Feature","geometry":{"type":"Point","coordinates":[-0.305093,51.527891]}},{"properties":{"name":"Dental Excellence (Technology) Ltd","description":"Posted by <a title=\"http://claywell.me.uk/tom\" href=\"http://claywell.me.uk/tom\">Fotherington</a>EC4M 9EE, UK<a title=\"Built for Community Mapping\" href=\"http://www.platial.com\"><img src=\"http://media.geocommons.com/platial/images/logotype_small.jpg\"></a>","id":"a66zb7ekr477"},"type":"Feature","geometry":{"type":"Point","coordinates":[-0.101006,51.514705]}},{"properties":{"name":"Devon School of Shiatsu","description":"Posted by <a title=\"http://claywell.me.uk/tom\" href=\"http://claywell.me.uk/tom\">Fotherington</a><img src=\"http://media.geocommons.com/platial/images/categories/ICON_family_verD.gif\"> TQ9 6ND, UK<a title=\"Built for Community Mapping\" href=\"http://www.platial.com\"><img src=\"http://media.geocommons.com/platial/images/logotype_small.jpg\"></a>","id":"a66zb7fs141j"},"type":"Feature","geometry":{"type":"Point","coordinates":[-3.712403,50.36322]}},{"properties":{"name":"Dialogue Language Training Ltd","description":"Posted by <a title=\"http://claywell.me.uk/tom\" href=\"http://claywell.me.uk/tom\">Fotherington</a>SN1 5JA, UK<a title=\"Built for Community Mapping\" href=\"http://www.platial.com\"><img src=\"http://media.geocommons.com/platial/images/logotype_small.jpg\"></a>","id":"a66zb72gxo7u"},"type":"Feature","geometry":{"type":"Point","coordinates":[-1.769811,51.565202]}},{"properties":{"name":"Digital Automation Training Ltd","description":"Posted by <a title=\"http://claywell.me.uk/tom\" href=\"http://claywell.me.uk/tom\">Fotherington</a>ST5 0HP, UK<a title=\"Built for Community Mapping\" href=\"http://www.platial.com\"><img src=\"http://media.geocommons.com/platial/images/logotype_small.jpg\"></a>","id":"a66zb7fxvzop"},"type":"Feature","geometry":{"type":"Point","coordinates":[-2.253352,53.044068]}},{"properties":{"name":"Docklands College of Advanced Studies","description":"Posted by <a title=\"http://claywell.me.uk/tom\" href=\"http://claywell.me.uk/tom\">Fotherington</a>E14 8PX, UK<a title=\"Built for Community Mapping\" href=\"http://www.platial.com\"><img src=\"http://media.geocommons.com/platial/images/logotype_small.jpg\"></a>","id":"a66zb72art9b"},"type":"Feature","geometry":{"type":"Point","coordinates":[-0.00644,51.512866]}},{"properties":{"name":"Docklands International College","description":"Posted by <a title=\"http://claywell.me.uk/tom\" href=\"http://claywell.me.uk/tom\">Fotherington</a>E15 2TF, UK<a title=\"Built for Community Mapping\" href=\"http://www.platial.com\"><img src=\"http://media.geocommons.com/platial/images/logotype_small.jpg\"></a>","id":"a66zb78uo6iz"},"type":"Feature","geometry":{"type":"Point","coordinates":[-0.008907,51.542177]}},{"properties":{"name":"Drumtech","description":"Posted by <a title=\"http://claywell.me.uk/tom\" href=\"http://claywell.me.uk/tom\">Fotherington</a>W3 7SZ, UK<a title=\"Built for Community Mapping\" href=\"http://www.platial.com\"><img src=\"http://media.geocommons.com/platial/images/logotype_small.jpg\"></a>","id":"a66zb72ln6z0"},"type":"Feature","geometry":{"type":"Point","coordinates":[-0.254459,51.512982]}},{"properties":{"name":"Duchy College","description":"Posted by <a title=\"http://claywell.me.uk/tom\" href=\"http://claywell.me.uk/tom\">Fotherington</a>PL17 8PB, UK<a title=\"Built for Community Mapping\" href=\"http://www.platial.com\"><img src=\"http://media.geocommons.com/platial/images/logotype_small.jpg\"></a>","id":"a66zb7hkt102"},"type":"Feature","geometry":{"type":"Point","coordinates":[-4.31595,50.53657]}},{"properties":{"name":"EAC Language Centres Ltd","description":"Posted by <a title=\"http://claywell.me.uk/tom\" href=\"http://claywell.me.uk/tom\">Fotherington</a>EH2 1EP, UK<a title=\"Built for Community Mapping\" href=\"http://www.platial.com\"><img src=\"http://media.geocommons.com/platial/images/logotype_small.jpg\"></a>","id":"a66zb77lrehq"},"type":"Feature","geometry":{"type":"Point","coordinates":[-3.195002,55.952298]}},{"properties":{"name":"ECL Resources Management Limited (now part of RPS Energy Group)","description":"Posted by <a title=\"http://claywell.me.uk/tom\" href=\"http://claywell.me.uk/tom\">Fotherington</a>RG9 4PR, UK<a title=\"Built for Community Mapping\" href=\"http://www.platial.com\"><img src=\"http://media.geocommons.com/platial/images/logotype_small.jpg\"></a>","id":"a66zb73yvlcm"},"type":"Feature","geometry":{"type":"Point","coordinates":[-0.973772,51.592175]}},{"properties":{"name":"EF International Language Schools","description":"Posted by <a title=\"http://claywell.me.uk/tom\" href=\"http://claywell.me.uk/tom\">Fotherington</a>BN2 1FJ, UK<a title=\"Built for Community Mapping\" href=\"http://www.platial.com\"><img src=\"http://media.geocommons.com/platial/images/logotype_small.jpg\"></a>","id":"a66zb77n190r"},"type":"Feature","geometry":{"type":"Point","coordinates":[-0.098991,50.81681]}},{"properties":{"name":"EF Language Travel","description":"Posted by <a title=\"http://claywell.me.uk/tom\" href=\"http://claywell.me.uk/tom\">Fotherington</a>TQ1 3BG, UK<a title=\"Built for Community Mapping\" href=\"http://www.platial.com\"><img src=\"http://media.geocommons.com/platial/images/logotype_small.jpg\"></a>","id":"a66zb7dtzfel"},"type":"Feature","geometry":{"type":"Point","coordinates":[-3.513203,50.49951]}},{"properties":{"name":"EJEF Study Centre","description":"Posted by <a title=\"http://claywell.me.uk/tom\" href=\"http://claywell.me.uk/tom\">Fotherington</a>HP14 3HH, UK<a title=\"Built for Community Mapping\" href=\"http://www.platial.com\"><img src=\"http://media.geocommons.com/platial/images/logotype_small.jpg\"></a>","id":"a66zb75a9nyk"},"type":"Feature","geometry":{"type":"Point","coordinates":[-0.866132,51.635872]}},{"properties":{"name":"ENO Baylis","description":"Posted by <a title=\"http://claywell.me.uk/tom\" href=\"http://claywell.me.uk/tom\">Fotherington</a>WC2N 4ES, UK<a title=\"Built for Community Mapping\" href=\"http://www.platial.com\"><img src=\"http://media.geocommons.com/platial/images/logotype_small.jpg\"></a>","id":"a66zb79rabit"},"type":"Feature","geometry":{"type":"Point","coordinates":[-0.125176,51.508144]}},{"properties":{"name":"ESCP-EAP European School of Management","description":"Posted by <a title=\"http://claywell.me.uk/tom\" href=\"http://claywell.me.uk/tom\">Fotherington</a><img src=\"http://media.geocommons.com/platial/images/categories/ICON_family_verD.gif\"> NW3 7BG, UK<a title=\"Built for Community Mapping\" href=\"http://www.platial.com\"><img src=\"http://media.geocommons.com/platial/images/logotype_small.jpg\"></a>","id":"a66zb76k4wua"},"type":"Feature","geometry":{"type":"Point","coordinates":[-0.193989,51.555505]}},{"properties":{"name":"EUS Community Learning Centre","description":"Posted by <a title=\"http://claywell.me.uk/tom\" href=\"http://claywell.me.uk/tom\">Fotherington</a>EH7 5BL, UK<a title=\"Built for Community Mapping\" href=\"http://www.platial.com\"><img src=\"http://media.geocommons.com/platial/images/logotype_small.jpg\"></a>","id":"a66zb747ne87"},"type":"Feature","geometry":{"type":"Point","coordinates":[-3.144435,55.960284]}},{"properties":{"name":"Ealing International College","description":"Posted by <a title=\"http://claywell.me.uk/tom\" href=\"http://claywell.me.uk/tom\">Fotherington</a>W5 4RH, UK<a title=\"Built for Community Mapping\" href=\"http://www.platial.com\"><img src=\"http://media.geocommons.com/platial/images/logotype_small.jpg\"></a>","id":"a66zb758reow"},"type":"Feature","geometry":{"type":"Point","coordinates":[-0.305093,51.527891]}},{"properties":{"name":"East Kilbride &amp; District Engineering Group Training","description":"Posted by <a title=\"http://claywell.me.uk/tom\" href=\"http://claywell.me.uk/tom\">Fotherington</a>G74 4PP, UK<a title=\"Built for Community Mapping\" href=\"http://www.platial.com\"><img src=\"http://media.geocommons.com/platial/images/logotype_small.jpg\"></a>","id":"a66zb72bqff1"},"type":"Feature","geometry":{"type":"Point","coordinates":[-4.18493,55.78046]}},{"properties":{"name":"East London College of Accountancy and Technology","description":"Posted by <a title=\"http://claywell.me.uk/tom\" href=\"http://claywell.me.uk/tom\">Fotherington</a>E7 9HY, UK<a title=\"Built for Community Mapping\" href=\"http://www.platial.com\"><img src=\"http://media.geocommons.com/platial/images/logotype_small.jpg\"></a>","id":"a66zb7bcwx9y"},"type":"Feature","geometry":{"type":"Point","coordinates":[0.020951,51.547135]}},{"properties":{"name":"Easton College Equestrian Centre","description":"Posted by <a title=\"http://claywell.me.uk/tom\" href=\"http://claywell.me.uk/tom\">Fotherington</a>NR9 5DX, UK<a title=\"Built for Community Mapping\" href=\"http://www.platial.com\"><img src=\"http://media.geocommons.com/platial/images/logotype_small.jpg\"></a>","id":"a66zb75wrbmc"},"type":"Feature","geometry":{"type":"Point","coordinates":[1.120246,52.68932]}},{"properties":{"name":"Eckerd College","description":"Posted by <a title=\"http://claywell.me.uk/tom\" href=\"http://claywell.me.uk/tom\">Fotherington</a>WC1E 6HG, UK<a title=\"Built for Community Mapping\" href=\"http://www.platial.com\"><img src=\"http://media.geocommons.com/platial/images/logotype_small.jpg\"></a>","id":"a66zb75as8sj"},"type":"Feature","geometry":{"type":"Point","coordinates":[-0.133249,51.522641]}},{"properties":{"name":"Eden College of Human Resources Development and Management Studies","description":"Posted by <a title=\"http://claywell.me.uk/tom\" href=\"http://claywell.me.uk/tom\">Fotherington</a>W1S 2FW, UK<a title=\"Built for Community Mapping\" href=\"http://www.platial.com\"><img src=\"http://media.geocommons.com/platial/images/logotype_small.jpg\"></a>","id":"a66zb76gw7b5"},"type":"Feature","geometry":{"type":"Point","coordinates":[-0.144167,51.513493]}},{"properties":{"name":"Edgware Academy of Languages","description":"Posted by <a title=\"http://claywell.me.uk/tom\" href=\"http://claywell.me.uk/tom\">Fotherington</a>W2 1ES, UK<a title=\"Built for Community Mapping\" href=\"http://www.platial.com\"><img src=\"http://media.geocommons.com/platial/images/logotype_small.jpg\"></a>","id":"a66zb7a7bi6x"},"type":"Feature","geometry":{"type":"Point","coordinates":[-0.167668,51.510105]}},{"properties":{"name":"Edgware College","description":"Posted by <a title=\"http://claywell.me.uk/tom\" href=\"http://claywell.me.uk/tom\">Fotherington</a>NW3 6LS, UK<a title=\"Built for Community Mapping\" href=\"http://www.platial.com\"><img src=\"http://media.geocommons.com/platial/images/logotype_small.jpg\"></a>","id":"a66zb75epjnd"},"type":"Feature","geometry":{"type":"Point","coordinates":[-0.179917,51.562831]}},{"properties":{"name":"Edinburgh Language Centre","description":"Posted by <a title=\"http://claywell.me.uk/tom\" href=\"http://claywell.me.uk/tom\">Fotherington</a>EH4 1PX, UK<a title=\"Built for Community Mapping\" href=\"http://www.platial.com\"><img src=\"http://media.geocommons.com/platial/images/logotype_small.jpg\"></a>","id":"a66zb7d8bnn2"},"type":"Feature","geometry":{"type":"Point","coordinates":[-3.241597,55.961688]}},{"properties":{"name":"Education 2000 Employment Training Organisation Ltd","description":"Posted by <a title=\"http://claywell.me.uk/tom\" href=\"http://claywell.me.uk/tom\">Fotherington</a>SE16 2EN, UK<a title=\"Built for Community Mapping\" href=\"http://www.platial.com\"><img src=\"http://media.geocommons.com/platial/images/logotype_small.jpg\"></a>","id":"a66zb78izfyd"},"type":"Feature","geometry":{"type":"Point","coordinates":[-0.062586,51.491245]}},{"properties":{"name":"Educational Programmes Abroad Ltd","description":"Posted by <a title=\"http://claywell.me.uk/tom\" href=\"http://claywell.me.uk/tom\">Fotherington</a>BN6 9EX, UK<a title=\"Built for Community Mapping\" href=\"http://www.platial.com\"><img src=\"http://media.geocommons.com/platial/images/logotype_small.jpg\"></a>","id":"a66zb7d3n8m6"},"type":"Feature","geometry":{"type":"Point","coordinates":[-0.183338,50.934595]}},{"properties":{"name":"Educational and Technical Services International Ltd","description":"Posted by <a title=\"http://claywell.me.uk/tom\" href=\"http://claywell.me.uk/tom\">Fotherington</a>M1 2EH, UK<a title=\"Built for Community Mapping\" href=\"http://www.platial.com\"><img src=\"http://media.geocommons.com/platial/images/logotype_small.jpg\"></a>","id":"a66zb7b7emah"},"type":"Feature","geometry":{"type":"Point","coordinates":[-2.226899,53.478686]}},{"properties":{"name":"Edward College","description":"Posted by <a title=\"http://claywell.me.uk/tom\" href=\"http://claywell.me.uk/tom\">Fotherington</a>E7 9HZ, UK<a title=\"Built for Community Mapping\" href=\"http://www.platial.com\"><img src=\"http://media.geocommons.com/platial/images/logotype_small.jpg\"></a>","id":"a66zb7adb426"},"type":"Feature","geometry":{"type":"Point","coordinates":[0.020951,51.547135]}},{"properties":{"name":"Elac Study Vacations","description":"Posted by <a title=\"http://claywell.me.uk/tom\" href=\"http://claywell.me.uk/tom\">Fotherington</a>BN20 9AW, UK<a title=\"Built for Community Mapping\" href=\"http://www.platial.com\"><img src=\"http://media.geocommons.com/platial/images/logotype_small.jpg\"></a>","id":"a66zb7918974"},"type":"Feature","geometry":{"type":"Point","coordinates":[0.246303,50.773659]}},{"properties":{"name":"Elam College","description":"Posted by <a title=\"http://claywell.me.uk/tom\" href=\"http://claywell.me.uk/tom\">Fotherington</a>GU8 6AX, UK<a title=\"Built for Community Mapping\" href=\"http://www.platial.com\"><img src=\"http://media.geocommons.com/platial/images/logotype_small.jpg\"></a>","id":"a66zb757ti1a"},"type":"Feature","geometry":{"type":"Point","coordinates":[-0.606386,51.126953]}},{"properties":{"name":"Employment training centre","description":"Posted by <a title=\"http://claywell.me.uk/tom\" href=\"http://claywell.me.uk/tom\">Fotherington</a>B21 0LG, UK<a title=\"Built for Community Mapping\" href=\"http://www.platial.com\"><img src=\"http://media.geocommons.com/platial/images/logotype_small.jpg\"></a>","id":"a66zb7eke99w"},"type":"Feature","geometry":{"type":"Point","coordinates":[-1.932968,52.508245]}},{"properties":{"name":"England Training and Learning/Homelingua","description":"Posted by <a title=\"http://claywell.me.uk/tom\" href=\"http://claywell.me.uk/tom\">Fotherington</a>OX20 1SJ, UK<a title=\"Built for Community Mapping\" href=\"http://www.platial.com\"><img src=\"http://media.geocommons.com/platial/images/logotype_small.jpg\"></a>","id":"a66zb7hmpwkr"},"type":"Feature","geometry":{"type":"Point","coordinates":[-1.368178,51.867108]}},{"properties":{"name":"English Naturally","description":"Posted by <a title=\"http://claywell.me.uk/tom\" href=\"http://claywell.me.uk/tom\">Fotherington</a>SO23 7TA, UK<a title=\"Built for Community Mapping\" href=\"http://www.platial.com\"><img src=\"http://media.geocommons.com/platial/images/logotype_small.jpg\"></a>","id":"a66zb7hw8wcd"},"type":"Feature","geometry":{"type":"Point","coordinates":[-1.307332,51.088094]}},{"properties":{"name":"Esprit Education Ltd","description":"Posted by <a title=\"http://claywell.me.uk/tom\" href=\"http://claywell.me.uk/tom\">Fotherington</a>LE12 6PF, UK<a title=\"Built for Community Mapping\" href=\"http://www.platial.com\"><img src=\"http://media.geocommons.com/platial/images/logotype_small.jpg\"></a>","id":"a66zb7i4y6jy"},"type":"Feature","geometry":{"type":"Point","coordinates":[-1.173389,52.739783]}},{"properties":{"name":"Etherton Education Limited","description":"Posted by <a title=\"http://claywell.me.uk/tom\" href=\"http://claywell.me.uk/tom\">Fotherington</a>TA21 9QU, UK<a title=\"Built for Community Mapping\" href=\"http://www.platial.com\"><img src=\"http://media.geocommons.com/platial/images/logotype_small.jpg\"></a>","id":"a66zb7bvk6bh"},"type":"Feature","geometry":{"type":"Point","coordinates":[-3.222559,50.963879]}},{"properties":{"name":"Ethical Training Company","description":"Posted by <a title=\"http://claywell.me.uk/tom\" href=\"http://claywell.me.uk/tom\">Fotherington</a>DY7 6JL, UK<a title=\"Built for Community Mapping\" href=\"http://www.platial.com\"><img src=\"http://media.geocommons.com/platial/images/logotype_small.jpg\"></a>","id":"a66zb729w4ji"},"type":"Feature","geometry":{"type":"Point","coordinates":[-2.239489,52.485711]}},{"properties":{"name":"Euro Care Training","description":"Posted by <a title=\"http://claywell.me.uk/tom\" href=\"http://claywell.me.uk/tom\">Fotherington</a>TW3 2DL, UK<a title=\"Built for Community Mapping\" href=\"http://www.platial.com\"><img src=\"http://media.geocommons.com/platial/images/logotype_small.jpg\"></a>","id":"a66zb74vd4dj"},"type":"Feature","geometry":{"type":"Point","coordinates":[-0.376582,51.466578]}},{"properties":{"name":"Euro Training College","description":"Posted by <a title=\"http://claywell.me.uk/tom\" href=\"http://claywell.me.uk/tom\">Fotherington</a>E7 9BB, UK<a title=\"Built for Community Mapping\" href=\"http://www.platial.com\"><img src=\"http://media.geocommons.com/platial/images/logotype_small.jpg\"></a>","id":"a66zb785d738"},"type":"Feature","geometry":{"type":"Point","coordinates":[0.020951,51.547135]}},{"properties":{"name":"Eurocollege Ltd","description":"Posted by <a title=\"http://claywell.me.uk/tom\" href=\"http://claywell.me.uk/tom\">Fotherington</a>BL9 6DP, UK<a title=\"Built for Community Mapping\" href=\"http://www.platial.com\"><img src=\"http://media.geocommons.com/platial/images/logotype_small.jpg\"></a>","id":"a66zb7ao2mu5"},"type":"Feature","geometry":{"type":"Point","coordinates":[-2.265692,53.594189]}},{"properties":{"name":"European College","description":"Posted by <a title=\"http://claywell.me.uk/tom\" href=\"http://claywell.me.uk/tom\">Fotherington</a>E1 1DU, UK<a title=\"Built for Community Mapping\" href=\"http://www.platial.com\"><img src=\"http://media.geocommons.com/platial/images/logotype_small.jpg\"></a>","id":"a66zb79o785l"},"type":"Feature","geometry":{"type":"Point","coordinates":[-0.046323,51.52224]}},{"properties":{"name":"European School of Economics","description":"Posted by <a title=\"http://claywell.me.uk/tom\" href=\"http://claywell.me.uk/tom\">Fotherington</a><img src=\"http://media.geocommons.com/platial/images/categories/ICON_family_verD.gif\"> SW1X 7SH, UK<a title=\"Built for Community Mapping\" href=\"http://www.platial.com\"><img src=\"http://media.geocommons.com/platial/images/logotype_small.jpg\"></a>","id":"a66zb7gfakb2"},"type":"Feature","geometry":{"type":"Point","coordinates":[-0.155192,51.500529]}},{"properties":{"name":"European Training Abroad","description":"Posted by <a title=\"http://claywell.me.uk/tom\" href=\"http://claywell.me.uk/tom\">Fotherington</a>HP14 3XL, UK<a title=\"Built for Community Mapping\" href=\"http://www.platial.com\"><img src=\"http://media.geocommons.com/platial/images/logotype_small.jpg\"></a>","id":"a66zb7czjvet"},"type":"Feature","geometry":{"type":"Point","coordinates":[-0.866132,51.635872]}},{"properties":{"name":"Evelyns Community School","description":"Posted by <a title=\"http://claywell.me.uk/tom\" href=\"http://claywell.me.uk/tom\">Fotherington</a><img src=\"http://media.geocommons.com/platial/images/categories/ICON_family_verD.gif\"> UB7 8DA, UK<a title=\"Built for Community Mapping\" href=\"http://www.platial.com\"><img src=\"http://media.geocommons.com/platial/images/logotype_small.jpg\"></a>","id":"a66zb7hwsyt4"},"type":"Feature","geometry":{"type":"Point","coordinates":[-0.47253,51.485682]}},{"properties":{"name":"FSN School of English","description":"Posted by <a title=\"http://claywell.me.uk/tom\" href=\"http://claywell.me.uk/tom\">Fotherington</a><img src=\"http://media.geocommons.com/platial/images/categories/ICON_family_verD.gif\"> SW16 1QH, UK<a title=\"Built for Community Mapping\" href=\"http://www.platial.com\"><img src=\"http://media.geocommons.com/platial/images/logotype_small.jpg\"></a>","id":"a66zb7ftuhmx"},"type":"Feature","geometry":{"type":"Point","coordinates":[-0.117687,51.416899]}},{"properties":{"name":"FTMS Direct Limited","description":"Posted by <a title=\"http://claywell.me.uk/tom\" href=\"http://claywell.me.uk/tom\">Fotherington</a>EC2V 7NA, UK<a title=\"Built for Community Mapping\" href=\"http://www.platial.com\"><img src=\"http://media.geocommons.com/platial/images/logotype_small.jpg\"></a>","id":"a66zb741tb7e"},"type":"Feature","geometry":{"type":"Point","coordinates":[-0.09489,51.514757]}},{"properties":{"name":"FTTL Ltd","description":"Posted by <a title=\"http://claywell.me.uk/tom\" href=\"http://claywell.me.uk/tom\">Fotherington</a>RM4 1PB, UK<a title=\"Built for Community Mapping\" href=\"http://www.platial.com\"><img src=\"http://media.geocommons.com/platial/images/logotype_small.jpg\"></a>","id":"a66zb735d326"},"type":"Feature","geometry":{"type":"Point","coordinates":[0.171477,51.645278]}},{"properties":{"name":"FairFax College of Management","description":"Posted by <a title=\"http://claywell.me.uk/tom\" href=\"http://claywell.me.uk/tom\">Fotherington</a>W5 5SA, UK<a title=\"Built for Community Mapping\" href=\"http://www.platial.com\"><img src=\"http://media.geocommons.com/platial/images/logotype_small.jpg\"></a>","id":"a66zb7a6e2nx"},"type":"Feature","geometry":{"type":"Point","coordinates":[-0.305093,51.527891]}},{"properties":{"name":"Federal Business Services Limited","description":"Posted by <a title=\"http://claywell.me.uk/tom\" href=\"http://claywell.me.uk/tom\">Fotherington</a>CR4 4BE, UK<a title=\"Built for Community Mapping\" href=\"http://www.platial.com\"><img src=\"http://media.geocommons.com/platial/images/logotype_small.jpg\"></a>","id":"a66zb74c0ayi"},"type":"Feature","geometry":{"type":"Point","coordinates":[-0.172338,51.408602]}},{"properties":{"name":"Field Studies Council","description":"Posted by <a title=\"http://claywell.me.uk/tom\" href=\"http://claywell.me.uk/tom\">Fotherington</a>SY4 1HW, UK<a title=\"Built for Community Mapping\" href=\"http://www.platial.com\"><img src=\"http://media.geocommons.com/platial/images/logotype_small.jpg\"></a>","id":"a66zb7bsl2ov"},"type":"Feature","geometry":{"type":"Point","coordinates":[-2.649696,52.760573]}},{"properties":{"name":"Finsbury College","description":"Posted by <a title=\"http://claywell.me.uk/tom\" href=\"http://claywell.me.uk/tom\">Fotherington</a>N4 3JU, UK<a title=\"Built for Community Mapping\" href=\"http://www.platial.com\"><img src=\"http://media.geocommons.com/platial/images/logotype_small.jpg\"></a>","id":"a66zb7fais0h"},"type":"Feature","geometry":{"type":"Point","coordinates":[-0.09491,51.562651]}},{"properties":{"name":"Flexible Learning Centre","description":"Posted by <a title=\"http://claywell.me.uk/tom\" href=\"http://claywell.me.uk/tom\">Fotherington</a>B23 7RJ, UK<a title=\"Built for Community Mapping\" href=\"http://www.platial.com\"><img src=\"http://media.geocommons.com/platial/images/logotype_small.jpg\"></a>","id":"a66zb7b9it96"},"type":"Feature","geometry":{"type":"Point","coordinates":[-1.849964,52.537935]}},{"properties":{"name":"Forbes College","description":"Posted by <a title=\"http://claywell.me.uk/tom\" href=\"http://claywell.me.uk/tom\">Fotherington</a>E7 9HZ, UK<a title=\"Built for Community Mapping\" href=\"http://www.platial.com\"><img src=\"http://media.geocommons.com/platial/images/logotype_small.jpg\"></a>","id":"a66zb75ubudw"},"type":"Feature","geometry":{"type":"Point","coordinates":[0.020951,51.547135]}},{"properties":{"name":"Fort Williams College London Limited","description":"Posted by <a title=\"http://claywell.me.uk/tom\" href=\"http://claywell.me.uk/tom\">Fotherington</a>E2 9PJ, UK<a title=\"Built for Community Mapping\" href=\"http://www.platial.com\"><img src=\"http://media.geocommons.com/platial/images/logotype_small.jpg\"></a>","id":"a66zb7h61oqc"},"type":"Feature","geometry":{"type":"Point","coordinates":[-0.05387,51.528019]}},{"properties":{"name":"Forward Skills Development","description":"Posted by <a title=\"http://claywell.me.uk/tom\" href=\"http://claywell.me.uk/tom\">Fotherington</a>YO43 3EE, UK<a title=\"Built for Community Mapping\" href=\"http://www.platial.com\"><img src=\"http://media.geocommons.com/platial/images/logotype_small.jpg\"></a>","id":"a66zb7dg5dfh"},"type":"Feature","geometry":{"type":"Point","coordinates":[-0.691128,53.825878]}},{"properties":{"name":"Foxes Equestrian Training Ltd","description":"Posted by <a title=\"http://claywell.me.uk/tom\" href=\"http://claywell.me.uk/tom\">Fotherington</a>CH66 8PF, UK<a title=\"Built for Community Mapping\" href=\"http://www.platial.com\"><img src=\"http://media.geocommons.com/platial/images/logotype_small.jpg\"></a>","id":"a66zb7h6uwsd"},"type":"Feature","geometry":{"type":"Point","coordinates":[-2.923682,53.264868]}},{"properties":{"name":"Foyle and Londonderry College","description":"Posted by <a title=\"http://claywell.me.uk/tom\" href=\"http://claywell.me.uk/tom\">Fotherington</a>BT48 0LX, UK<a title=\"Built for Community Mapping\" href=\"http://www.platial.com\"><img src=\"http://media.geocommons.com/platial/images/logotype_small.jpg\"></a>","id":"a66zb72bau9c"},"type":"Feature","geometry":{"type":"Point","coordinates":[-7.300511,55.035247]}},{"properties":{"name":"Free Church College","description":"Posted by <a title=\"http://claywell.me.uk/tom\" href=\"http://claywell.me.uk/tom\">Fotherington</a>EH1 2LS, UK<a title=\"Built for Community Mapping\" href=\"http://www.platial.com\"><img src=\"http://media.geocommons.com/platial/images/logotype_small.jpg\"></a>","id":"a66zb76tqt7b"},"type":"Feature","geometry":{"type":"Point","coordinates":[-3.188388,55.955725]}},{"properties":{"name":"G.H Raisoni Institute of Management and Technology","description":"Posted by <a title=\"http://claywell.me.uk/tom\" href=\"http://claywell.me.uk/tom\">Fotherington</a>E1 6LA, UK<a title=\"Built for Community Mapping\" href=\"http://www.platial.com\"><img src=\"http://media.geocommons.com/platial/images/logotype_small.jpg\"></a>","id":"a66zb7arqydp"},"type":"Feature","geometry":{"type":"Point","coordinates":[-0.046323,51.52224]}},{"properties":{"name":"Garden Design School","description":"Posted by <a title=\"http://claywell.me.uk/tom\" href=\"http://claywell.me.uk/tom\">Fotherington</a><img src=\"http://media.geocommons.com/platial/images/categories/ICON_family_verD.gif\"> SN10 3UA, UK<a title=\"Built for Community Mapping\" href=\"http://www.platial.com\"><img src=\"http://media.geocommons.com/platial/images/logotype_small.jpg\"></a>","id":"a66zb79y99wz"},"type":"Feature","geometry":{"type":"Point","coordinates":[-1.961841,51.387228]}},{"properties":{"name":"Garro Training","description":"Posted by <a title=\"http://claywell.me.uk/tom\" href=\"http://claywell.me.uk/tom\">Fotherington</a>SW6 4TU, UK<a title=\"Built for Community Mapping\" href=\"http://www.platial.com\"><img src=\"http://media.geocommons.com/platial/images/logotype_small.jpg\"></a>","id":"a66zb7b25fdx"},"type":"Feature","geometry":{"type":"Point","coordinates":[-0.187642,51.472926]}},{"properties":{"name":"Gateshead Academy for Torah Studies","description":"Posted by <a title=\"http://claywell.me.uk/tom\" href=\"http://claywell.me.uk/tom\">Fotherington</a>NE9 5AR, UK<a title=\"Built for Community Mapping\" href=\"http://www.platial.com\"><img src=\"http://media.geocommons.com/platial/images/logotype_small.jpg\"></a>","id":"a66zb7ei4lb6"},"type":"Feature","geometry":{"type":"Point","coordinates":[-1.591757,54.930172]}},{"properties":{"name":"Gateshead Talmudical College","description":"Posted by <a title=\"http://claywell.me.uk/tom\" href=\"http://claywell.me.uk/tom\">Fotherington</a>NE8 1VB, UK<a title=\"Built for Community Mapping\" href=\"http://www.platial.com\"><img src=\"http://media.geocommons.com/platial/images/logotype_small.jpg\"></a>","id":"a66zb7i2e8l2"},"type":"Feature","geometry":{"type":"Point","coordinates":[-1.613935,54.950056]}},{"properties":{"name":"Gateway 2UK  Education","description":"Posted by <a title=\"http://claywell.me.uk/tom\" href=\"http://claywell.me.uk/tom\">Fotherington</a>W5 4LH, UK<a title=\"Built for Community Mapping\" href=\"http://www.platial.com\"><img src=\"http://media.geocommons.com/platial/images/logotype_small.jpg\"></a>","id":"a66zb76ppxlz"},"type":"Feature","geometry":{"type":"Point","coordinates":[-0.305093,51.527891]}},{"properties":{"name":"Gayleseen College of Technology","description":"Posted by <a title=\"http://claywell.me.uk/tom\" href=\"http://claywell.me.uk/tom\">Fotherington</a>SE16 2XB, UK<a title=\"Built for Community Mapping\" href=\"http://www.platial.com\"><img src=\"http://media.geocommons.com/platial/images/logotype_small.jpg\"></a>","id":"a66zb7e741xb"},"type":"Feature","geometry":{"type":"Point","coordinates":[-0.062586,51.491245]}},{"properties":{"name":"Gemini College","description":"Posted by <a title=\"http://claywell.me.uk/tom\" href=\"http://claywell.me.uk/tom\">Fotherington</a>E3 2SE, UK<a title=\"Built for Community Mapping\" href=\"http://www.platial.com\"><img src=\"http://media.geocommons.com/platial/images/logotype_small.jpg\"></a>","id":"a66zb7h779cg"},"type":"Feature","geometry":{"type":"Point","coordinates":[-0.029717,51.521895]}},{"properties":{"name":"Giovanni Timarco Centre of Education","description":"Posted by <a title=\"http://claywell.me.uk/tom\" href=\"http://claywell.me.uk/tom\">Fotherington</a>SE13 7SW, UK<a title=\"Built for Community Mapping\" href=\"http://www.platial.com\"><img src=\"http://media.geocommons.com/platial/images/logotype_small.jpg\"></a>","id":"a66zb7gv41gy"},"type":"Feature","geometry":{"type":"Point","coordinates":[-0.01554,51.461657]}},{"properties":{"name":"Glamorgan Education and Training","description":"Posted by <a title=\"http://claywell.me.uk/tom\" href=\"http://claywell.me.uk/tom\">Fotherington</a>SA1 4AW, UK<a title=\"Built for Community Mapping\" href=\"http://www.platial.com\"><img src=\"http://media.geocommons.com/platial/images/logotype_small.jpg\"></a>","id":"a66zb79hzq6w"},"type":"Feature","geometry":{"type":"Point","coordinates":[-3.962748,51.627322]}},{"properties":{"name":"Glauca Rossi School of Make-up","description":"Posted by <a title=\"http://claywell.me.uk/tom\" href=\"http://claywell.me.uk/tom\">Fotherington</a><img src=\"http://media.geocommons.com/platial/images/categories/ICON_family_verD.gif\"> W9 2HQ, UK<a title=\"Built for Community Mapping\" href=\"http://www.platial.com\"><img src=\"http://media.geocommons.com/platial/images/logotype_small.jpg\"></a>","id":"a66zb7bqp2iw"},"type":"Feature","geometry":{"type":"Point","coordinates":[-0.193775,51.525494]}},{"properties":{"name":"Gleneagle Activities School","description":"Posted by <a title=\"http://claywell.me.uk/tom\" href=\"http://claywell.me.uk/tom\">Fotherington</a><img src=\"http://media.geocommons.com/platial/images/categories/ICON_family_verD.gif\"> PH3 1NZ, UK<a title=\"Built for Community Mapping\" href=\"http://www.platial.com\"><img src=\"http://media.geocommons.com/platial/images/logotype_small.jpg\"></a>","id":"a66zb72son5i"},"type":"Feature","geometry":{"type":"Point","coordinates":[-3.686818,56.298808]}},{"properties":{"name":"Global International College","description":"Posted by <a title=\"http://claywell.me.uk/tom\" href=\"http://claywell.me.uk/tom\">Fotherington</a>NW11 8DY, UK<a title=\"Built for Community Mapping\" href=\"http://www.platial.com\"><img src=\"http://media.geocommons.com/platial/images/logotype_small.jpg\"></a>","id":"a66zb7ammck4"},"type":"Feature","geometry":{"type":"Point","coordinates":[-0.187003,51.580323]}},{"properties":{"name":"Global Training Consulting","description":"Posted by <a title=\"http://claywell.me.uk/tom\" href=\"http://claywell.me.uk/tom\">Fotherington</a>SW6 4NZ, UK<a title=\"Built for Community Mapping\" href=\"http://www.platial.com\"><img src=\"http://media.geocommons.com/platial/images/logotype_small.jpg\"></a>","id":"a66zb72rrual"},"type":"Feature","geometry":{"type":"Point","coordinates":[-0.187642,51.472926]}},{"properties":{"name":"Goodnestone Court Equestrian","description":"Posted by <a title=\"http://claywell.me.uk/tom\" href=\"http://claywell.me.uk/tom\">Fotherington</a>ME13 9BZ, UK<a title=\"Built for Community Mapping\" href=\"http://www.platial.com\"><img src=\"http://media.geocommons.com/platial/images/logotype_small.jpg\"></a>","id":"a66zb79jdk99"},"type":"Feature","geometry":{"type":"Point","coordinates":[0.948245,51.304611]}},{"properties":{"name":"Grace School of Medicine UK Ltd","description":"Posted by <a title=\"http://claywell.me.uk/tom\" href=\"http://claywell.me.uk/tom\">Fotherington</a><img src=\"http://media.geocommons.com/platial/images/categories/ICON_health_verD.gif\"> <img src=\"http://media.geocommons.com/platial/images/categories/ICON_family_verD.gif\"> WC1E 6HA, UK<a title=\"Built for Community Mapping\" href=\"http://www.platial.com\"><img src=\"http://media.geocommons.com/platial/images/logotype_small.jpg\"></a>","id":"a66zb7hdi6ug"},"type":"Feature","geometry":{"type":"Point","coordinates":[-0.133249,51.522641]}},