{"type":"FeatureCollection","data_type":"Dataset","url_type":null,"permissions":[{"permissions":{"download":true,"view":true},"group_id":"everyone"}],"classification":null,"title":"\nxerocint's places\n","count":343,"stream_id":26102,"contributor":{"url":"http://geocommons.com/users/11444","name":"platial"},"data_attributes":null,"calculation_params":null,"icon_link":null,"link":"http://geocommons.com/overlays/26102.json","extent":[-123.356,-43.53,174.886,67.28],"geometry_types":["point"],"unique_name":null,"name":"\nxerocint's places\n","feature_count":343,"description":"\nA Map by Xerocint\n\n\n","next_feature":null,"is_raster":false,"short_classification":"Y","stats":{},"features":[{"properties":{"name":"420zoot","description":"Posted by XerocintAustin<a title=\"Built for Community Mapping\" href=\"http://www.platial.com\"><img src=\"http://media.geocommons.com/platial/images/logotype_small.jpg\"></a>","id":"a6ahk2f1ezi2"},"type":"Feature","geometry":{"type":"Point","coordinates":[-97.742778,30.266944]}},{"properties":{"name":"5074m4R5U","description":"Posted by Xerocinthelsinki<a title=\"Built for Community Mapping\" href=\"http://www.platial.com\"><img src=\"http://media.geocommons.com/platial/images/logotype_small.jpg\"></a>","id":"a6ahk2ow4lgc"},"type":"Feature","geometry":{"type":"Point","coordinates":[24.94,60.169998]}},{"properties":{"name":"Aesthetiq","description":"Posted by Xerocintkirksville mo<a title=\"Built for Community Mapping\" href=\"http://www.platial.com\"><img src=\"http://media.geocommons.com/platial/images/logotype_small.jpg\"></a>","id":"a6ahk2n2gun8"},"type":"Feature","geometry":{"type":"Point","coordinates":[-92.583171,40.197194]}},{"properties":{"name":"Aesthetiq","description":"Posted by XerocintOverland Park<a title=\"Built for Community Mapping\" href=\"http://www.platial.com\"><img src=\"http://media.geocommons.com/platial/images/logotype_small.jpg\"></a>","id":"a6ahk2gnp6z6"},"type":"Feature","geometry":{"type":"Point","coordinates":[-94.670556,38.982222]}},{"properties":{"name":"Agnostik","description":"Posted by XerocintSt Petersburg, Russia<a title=\"Built for Community Mapping\" href=\"http://www.platial.com\"><img src=\"http://media.geocommons.com/platial/images/logotype_small.jpg\"></a>","id":"a6ahk2ubuiox"},"type":"Feature","geometry":{"type":"Point","coordinates":[30.453329,59.951889]}},{"properties":{"name":"Ahku","description":"Posted by Xerocint80127<a title=\"Built for Community Mapping\" href=\"http://www.platial.com\"><img src=\"http://media.geocommons.com/platial/images/logotype_small.jpg\"></a>","id":"a6ahk2j82w2q"},"type":"Feature","geometry":{"type":"Point","coordinates":[-105.132811,39.591968]}},{"properties":{"name":"Alan","description":"Posted by XerocintRaleigh, NCWUT<a title=\"Built for Community Mapping\" href=\"http://www.platial.com\"><img src=\"http://media.geocommons.com/platial/images/logotype_small.jpg\"></a>","id":"a6ahk2jwzq55"},"type":"Feature","geometry":{"type":"Point","coordinates":[-78.638889,35.771944]}},{"properties":{"name":"Amareus","description":"Posted by Xerocintstockholm<a title=\"Built for Community Mapping\" href=\"http://www.platial.com\"><img src=\"http://media.geocommons.com/platial/images/logotype_small.jpg\"></a>","id":"a6ahk2si0xrr"},"type":"Feature","geometry":{"type":"Point","coordinates":[18.069999,59.330001]}},{"properties":{"name":"Anarchy15","description":"Posted by Xerocint<img src=\"http://media.geocommons.com/platial/img/2009/08/0/1179124.jpg\">Perth, Western Australia<a title=\"Built for Community Mapping\" href=\"http://www.platial.com\"><img src=\"http://media.geocommons.com/platial/images/logotype_small.jpg\"></a>","id":"a6ahk2k726og"},"type":"Feature","geometry":{"type":"Point","coordinates":[115.85859,-31.9554]}},{"properties":{"name":"Andy","description":"Posted by XerocintKandaharAF<a title=\"Built for Community Mapping\" href=\"http://www.platial.com\"><img src=\"http://media.geocommons.com/platial/images/logotype_small.jpg\"></a>","id":"a6ahk2mhys5i"},"type":"Feature","geometry":{"type":"Point","coordinates":[65.475736,30.9960679]}},{"properties":{"name":"Argen","description":"Posted by XerocintPortsmouth, Ohio<a title=\"Built for Community Mapping\" href=\"http://www.platial.com\"><img src=\"http://media.geocommons.com/platial/images/logotype_small.jpg\"></a>","id":"a6ahk2pzkh9f"},"type":"Feature","geometry":{"type":"Point","coordinates":[-82.938837,38.754925]}},{"properties":{"name":"Artis Oracle","description":"Posted by Xerocintallen park<a title=\"Built for Community Mapping\" href=\"http://www.platial.com\"><img src=\"http://media.geocommons.com/platial/images/logotype_small.jpg\"></a>","id":"a6ahk2fuoo9l"},"type":"Feature","geometry":{"type":"Point","coordinates":[-83.211839,42.260632]}},{"properties":{"name":"Artis Oracle","description":"Posted by Xerocint48195FTW<a title=\"Built for Community Mapping\" href=\"http://www.platial.com\"><img src=\"http://media.geocommons.com/platial/images/logotype_small.jpg\"></a>","id":"a6ahk2u4u3qd"},"type":"Feature","geometry":{"type":"Point","coordinates":[-83.204711,42.206144]}},{"properties":{"name":"Artis Oracle","description":"Posted by Xerocintsouthgate, miFTW<a title=\"Built for Community Mapping\" href=\"http://www.platial.com\"><img src=\"http://media.geocommons.com/platial/images/logotype_small.jpg\"></a>","id":"a6ahk2jo6wu6"},"type":"Feature","geometry":{"type":"Point","coordinates":[-83.193889,42.213889]}},{"properties":{"name":"Azuken","description":"Posted by Xerocintvancouver, washington<a title=\"Built for Community Mapping\" href=\"http://www.platial.com\"><img src=\"http://media.geocommons.com/platial/images/logotype_small.jpg\"></a>","id":"a6ahk2phc24d"},"type":"Feature","geometry":{"type":"Point","coordinates":[-122.660278,45.638889]}},{"properties":{"name":"Batteries","description":"Posted by Xerocint06269<a title=\"Built for Community Mapping\" href=\"http://www.platial.com\"><img src=\"http://media.geocommons.com/platial/images/logotype_small.jpg\"></a>","id":"a6ahk2pju55k"},"type":"Feature","geometry":{"type":"Point","coordinates":[-72.2526637,41.8087108]}},{"properties":{"name":"Becky","description":"Posted by XerocintfredericksburgI live in one of the towns near here.<a title=\"Built for Community Mapping\" href=\"http://www.platial.com\"><img src=\"http://media.geocommons.com/platial/images/logotype_small.jpg\"></a>","id":"a6ahk2hvpvuf"},"type":"Feature","geometry":{"type":"Point","coordinates":[-77.460833,38.303056]}},{"properties":{"name":"Beremat","description":"Posted by Xerocint11209hai guise<a title=\"Built for Community Mapping\" href=\"http://www.platial.com\"><img src=\"http://media.geocommons.com/platial/images/logotype_small.jpg\"></a>","id":"a6ahk2r2fdpo"},"type":"Feature","geometry":{"type":"Point","coordinates":[-74.028945,40.623204]}},{"properties":{"name":"Billybremner","description":"Posted by XerocintGlasgowWHAT!?!<a title=\"Built for Community Mapping\" href=\"http://www.platial.com\"><img src=\"http://media.geocommons.com/platial/images/logotype_small.jpg\"></a>","id":"a6ahk2l2ysha"},"type":"Feature","geometry":{"type":"Point","coordinates":[-4.257224,55.865627]}},{"properties":{"name":"Bob Mcelbob","description":"Posted by XerocintPASCAGOULA ,MS<a title=\"Built for Community Mapping\" href=\"http://www.platial.com\"><img src=\"http://media.geocommons.com/platial/images/logotype_small.jpg\"></a>","id":"a6ahk2nvucoz"},"type":"Feature","geometry":{"type":"Point","coordinates":[-88.55266,30.37118]}},{"properties":{"name":"Bootleg127","description":"Posted by XerocintPyongyang, North Korea<a title=\"Built for Community Mapping\" href=\"http://www.platial.com\"><img src=\"http://media.geocommons.com/platial/images/logotype_small.jpg\"></a>","id":"a6ahk2ezowlf"},"type":"Feature","geometry":{"type":"Point","coordinates":[125.753765,39.031859]}},{"properties":{"name":"Bruun","description":"Posted by XerocintcopenhagenWhat it is?<a title=\"Built for Community Mapping\" href=\"http://www.platial.com\"><img src=\"http://media.geocommons.com/platial/images/logotype_small.jpg\"></a>","id":"a6ahk2gz273b"},"type":"Feature","geometry":{"type":"Point","coordinates":[12.569999,55.68]}},{"properties":{"name":"CEP","description":"Posted by XerocintMankato, MNwhat.cd<a title=\"Built for Community Mapping\" href=\"http://www.platial.com\"><img src=\"http://media.geocommons.com/platial/images/logotype_small.jpg\"></a>","id":"a6ahk2ivj6hi"},"type":"Feature","geometry":{"type":"Point","coordinates":[-93.999167,44.163611]}},{"properties":{"name":"Casquerouge","description":"Posted by Xerocintquebecyo nigga<a title=\"Built for Community Mapping\" href=\"http://www.platial.com\"><img src=\"http://media.geocommons.com/platial/images/logotype_small.jpg\"></a>","id":"a6ahk2t1wg7l"},"type":"Feature","geometry":{"type":"Point","coordinates":[-71.30238,46.826562]}},{"properties":{"name":"Casquerouge!","description":"Posted by XerocintDrummondvilledasds<a title=\"Built for Community Mapping\" href=\"http://www.platial.com\"><img src=\"http://media.geocommons.com/platial/images/logotype_small.jpg\"></a>","id":"a6ahk2lajvab"},"type":"Feature","geometry":{"type":"Point","coordinates":[-72.4841,45.88081]}},{"properties":{"name":"Cawlin","description":"Posted by Xerocintriver falls, wisconsinWhats up friendos.<a title=\"Built for Community Mapping\" href=\"http://www.platial.com\"><img src=\"http://media.geocommons.com/platial/images/logotype_small.jpg\"></a>","id":"a6ahk2fue0gl"},"type":"Feature","geometry":{"type":"Point","coordinates":[-92.622788,44.85533]}},{"properties":{"name":"Chris","description":"Posted by Xerocint<img src=\"http://media.geocommons.com/platial/img/2009/08/0/10040018.jpg\">NOVATOsup y\\'alllls<a title=\"Built for Community Mapping\" href=\"http://www.platial.com\"><img src=\"http://media.geocommons.com/platial/images/logotype_small.jpg\"></a>","id":"a6ahk2gcwi6h"},"type":"Feature","geometry":{"type":"Point","coordinates":[-122.568611,38.1075]}},{"properties":{"name":"CoreyRVA","description":"Posted by Xerocintrichmond<a title=\"Built for Community Mapping\" href=\"http://www.platial.com\"><img src=\"http://media.geocommons.com/platial/images/logotype_small.jpg\"></a>","id":"a6ahk2qq04m9"},"type":"Feature","geometry":{"type":"Point","coordinates":[-77.460556,37.553611]}},{"properties":{"name":"DGNeo","description":"Posted by Xerocint06268<a title=\"Built for Community Mapping\" href=\"http://www.platial.com\"><img src=\"http://media.geocommons.com/platial/images/logotype_small.jpg\"></a>","id":"a6ahk2sdsj4l"},"type":"Feature","geometry":{"type":"Point","coordinates":[-72.257172,41.805364]}},{"properties":{"name":"DRAGONSHARK","description":"Posted by XerocintSacramento<a title=\"Built for Community Mapping\" href=\"http://www.platial.com\"><img src=\"http://media.geocommons.com/platial/images/logotype_small.jpg\"></a>","id":"a6ahk2j8a946"},"type":"Feature","geometry":{"type":"Point","coordinates":[-121.493333,38.581667]}},{"properties":{"name":"Dannyboyni","description":"Posted by Xerocintbelfast<a title=\"Built for Community Mapping\" href=\"http://www.platial.com\"><img src=\"http://media.geocommons.com/platial/images/logotype_small.jpg\"></a>","id":"a6ahk2n7xvgt"},"type":"Feature","geometry":{"type":"Point","coordinates":[-5.930034,54.595998]}},{"properties":{"name":"Dano420","description":"Posted by XerocintBoone, NCWhat.cd<a title=\"Built for Community Mapping\" href=\"http://www.platial.com\"><img src=\"http://media.geocommons.com/platial/images/logotype_small.jpg\"></a>","id":"a6ahk2r46bq6"},"type":"Feature","geometry":{"type":"Point","coordinates":[-81.674722,36.216667]}},{"properties":{"name":"DarkChili","description":"Posted by Xerocint<img src=\"http://media.geocommons.com/platial/img/2009/08/0/2n175tw.jpg\">lake los angeles, ca<a title=\"Built for Community Mapping\" href=\"http://www.platial.com\"><img src=\"http://media.geocommons.com/platial/images/logotype_small.jpg\"></a>","id":"a6ahk2et9jgq"},"type":"Feature","geometry":{"type":"Point","coordinates":[-117.826886,34.610985]}},{"properties":{"name":"DarthPuma","description":"Posted by XerocintAltus<a title=\"Built for Community Mapping\" href=\"http://www.platial.com\"><img src=\"http://media.geocommons.com/platial/images/logotype_small.jpg\"></a>","id":"a6ahk2nx7ucb"},"type":"Feature","geometry":{"type":"Point","coordinates":[-99.316452,34.648854]}},{"properties":{"name":"David Wood","description":"Posted by XerocintLochgilpheadFUK YER. davidwood15 bbz<a title=\"Built for Community Mapping\" href=\"http://www.platial.com\"><img src=\"http://media.geocommons.com/platial/images/logotype_small.jpg\"></a>","id":"a6ahk2h5orj2"},"type":"Feature","geometry":{"type":"Point","coordinates":[-5.43253,56.039102]}},{"properties":{"name":"Deathtoazn","description":"Posted by XerocintJoondalupJoondafuck\rJoondafuck!!!<a title=\"Built for Community Mapping\" href=\"http://www.platial.com\"><img src=\"http://media.geocommons.com/platial/images/logotype_small.jpg\"></a>","id":"a6ahk2l088bu"},"type":"Feature","geometry":{"type":"Point","coordinates":[115.769894,-31.746519]}},{"properties":{"name":"DepraveD","description":"Posted by Xerocintorlando<a title=\"Built for Community Mapping\" href=\"http://www.platial.com\"><img src=\"http://media.geocommons.com/platial/images/logotype_small.jpg\"></a>","id":"a6ahk2pxjzz4"},"type":"Feature","geometry":{"type":"Point","coordinates":[-81.379444,28.538056]}},{"properties":{"name":"Dinosaur_Act","description":"Posted by XerocintLANCASTER PA<a title=\"Built for Community Mapping\" href=\"http://www.platial.com\"><img src=\"http://media.geocommons.com/platial/images/logotype_small.jpg\"></a>","id":"a6ahk2m8711o"},"type":"Feature","geometry":{"type":"Point","coordinates":[-76.305833,40.037778]}},{"properties":{"name":"DoubleAW","description":"Posted by XerocintLincolnshire, Illinois, United States<a title=\"Built for Community Mapping\" href=\"http://www.platial.com\"><img src=\"http://media.geocommons.com/platial/images/logotype_small.jpg\"></a>","id":"a6ahk2fmq8yp"},"type":"Feature","geometry":{"type":"Point","coordinates":[-87.918487,42.20048]}},{"properties":{"name":"Drakathorn","description":"Posted by Xerocint93111<a title=\"Built for Community Mapping\" href=\"http://www.platial.com\"><img src=\"http://media.geocommons.com/platial/images/logotype_small.jpg\"></a>","id":"a6ahk2saw096"},"type":"Feature","geometry":{"type":"Point","coordinates":[-119.800402,34.455318]}},{"properties":{"name":"Drewcool","description":"Posted by XerocintLompoc, CAI <a title=\"Built for Community Mapping\" href=\"http://www.platial.com\"><img src=\"http://media.geocommons.com/platial/images/logotype_small.jpg\"></a>","id":"a6ahk2t3tb2z"},"type":"Feature","geometry":{"type":"Point","coordinates":[-120.456944,34.639167]}},{"properties":{"name":"EnteLite","description":"Posted by Xerocintlewisville<a title=\"Built for Community Mapping\" href=\"http://www.platial.com\"><img src=\"http://media.geocommons.com/platial/images/logotype_small.jpg\"></a>","id":"a6ahk2eytmvz"},"type":"Feature","geometry":{"type":"Point","coordinates":[-96.993889,33.046111]}},{"properties":{"name":"Eric Platenyk","description":"Posted by XerocintUniondale, NY<a title=\"Built for Community Mapping\" href=\"http://www.platial.com\"><img src=\"http://media.geocommons.com/platial/images/logotype_small.jpg\"></a>","id":"a6ahk2izowk5"},"type":"Feature","geometry":{"type":"Point","coordinates":[-73.593333,40.700278]}},{"properties":{"name":"ErlendFS","description":"Posted by Xerocint<img src=\"http://media.geocommons.com/platial/img/2009/08/0/Uten_navn.JPG\">trondheimI love you all. Thanks for being who you are. Also, I wish for world peace.Thanks<a title=\"Built for Community Mapping\" href=\"http://www.platial.com\"><img src=\"http://media.geocommons.com/platial/images/logotype_small.jpg\"></a>","id":"a6ahk2p12qcx"},"type":"Feature","geometry":{"type":"Point","coordinates":[10.416667,63.416668]}},{"properties":{"name":"FVIII","description":"Posted by Xerocintchicago<a title=\"Built for Community Mapping\" href=\"http://www.platial.com\"><img src=\"http://media.geocommons.com/platial/images/logotype_small.jpg\"></a>","id":"a6ahk2nk5a3t"},"type":"Feature","geometry":{"type":"Point","coordinates":[-87.65,41.85]}},{"properties":{"name":"Falchion17","description":"Posted by XerocintLexington<a title=\"Built for Community Mapping\" href=\"http://www.platial.com\"><img src=\"http://media.geocommons.com/platial/images/logotype_small.jpg\"></a>","id":"a6ahk2g0tjx0"},"type":"Feature","geometry":{"type":"Point","coordinates":[-84.500278,38.049167]}},{"properties":{"name":"Feety","description":"Posted by XerocintAntarticaI am cold<a title=\"Built for Community Mapping\" href=\"http://www.platial.com\"><img src=\"http://media.geocommons.com/platial/images/logotype_small.jpg\"></a>","id":"a6ahk2gica2k"},"type":"Feature","geometry":{"type":"Point","coordinates":[-38.442378,-12.906617]}},{"properties":{"name":"Feety","description":"Posted by XerocintSandown NHsup<a title=\"Built for Community Mapping\" href=\"http://www.platial.com\"><img src=\"http://media.geocommons.com/platial/images/logotype_small.jpg\"></a>","id":"a6ahk2oh2t4f"},"type":"Feature","geometry":{"type":"Point","coordinates":[-71.187054,42.928404]}},{"properties":{"name":"Felix","description":"Posted by Xerocintglenview<a title=\"Built for Community Mapping\" href=\"http://www.platial.com\"><img src=\"http://media.geocommons.com/platial/images/logotype_small.jpg\"></a>","id":"a6ahk2khzzcu"},"type":"Feature","geometry":{"type":"Point","coordinates":[-87.816541,42.078657]}},{"properties":{"name":"Fidget","description":"Posted by XerocintPlainfield ILpuff puff give<a title=\"Built for Community Mapping\" href=\"http://www.platial.com\"><img src=\"http://media.geocommons.com/platial/images/logotype_small.jpg\"></a>","id":"a6ahk2ico1nj"},"type":"Feature","geometry":{"type":"Point","coordinates":[-88.203889,41.626944]}},{"properties":{"name":"Flavored","description":"Posted by XerocintBostonohai<a title=\"Built for Community Mapping\" href=\"http://www.platial.com\"><img src=\"http://media.geocommons.com/platial/images/logotype_small.jpg\"></a>","id":"a6ahk2kugvzu"},"type":"Feature","geometry":{"type":"Point","coordinates":[-71.060278,42.358333]}},{"properties":{"name":"FoxDie","description":"Posted by XerocintShoreveiw, MN<a title=\"Built for Community Mapping\" href=\"http://www.platial.com\"><img src=\"http://media.geocommons.com/platial/images/logotype_small.jpg\"></a>","id":"a6ahk2hw217q"},"type":"Feature","geometry":{"type":"Point","coordinates":[-93.13561,45.086463]}},{"properties":{"name":"Fredrik","description":"Posted by XerocintIcelandOr am I ?<a title=\"Built for Community Mapping\" href=\"http://www.platial.com\"><img src=\"http://media.geocommons.com/platial/images/logotype_small.jpg\"></a>","id":"a6ahk2fdg3os"},"type":"Feature","geometry":{"type":"Point","coordinates":[-19.020835,64.963051]}},{"properties":{"name":"Funbags","description":"Posted by XerocintMorrison, ILYo<a title=\"Built for Community Mapping\" href=\"http://www.platial.com\"><img src=\"http://media.geocommons.com/platial/images/logotype_small.jpg\"></a>","id":"a6ahk2pyee0b"},"type":"Feature","geometry":{"type":"Point","coordinates":[-89.965145,41.809385]}},{"properties":{"name":"G4S","description":"Posted by XerocintBratislava<a title=\"Built for Community Mapping\" href=\"http://www.platial.com\"><img src=\"http://media.geocommons.com/platial/images/logotype_small.jpg\"></a>","id":"a6ahk2ugz3cn"},"type":"Feature","geometry":{"type":"Point","coordinates":[17.129999,48.159999]}},{"properties":{"name":"GarcinInHell","description":"Posted by Xerocint<img src=\"http://media.geocommons.com/platial/img/2009/08/0/whatable_garcin.jpg\">Chapel Hill<a title=\"Built for Community Mapping\" href=\"http://www.platial.com\"><img src=\"http://media.geocommons.com/platial/images/logotype_small.jpg\"></a>","id":"a6ahk2shnctc"},"type":"Feature","geometry":{"type":"Point","coordinates":[-79.056111,35.913056]}},{"properties":{"name":"Geekier","description":"Posted by XerocintEdmondswhatcd name: Geekier<a title=\"Built for Community Mapping\" href=\"http://www.platial.com\"><img src=\"http://media.geocommons.com/platial/images/logotype_small.jpg\"></a>","id":"a6ahk2qvzqzn"},"type":"Feature","geometry":{"type":"Point","coordinates":[-122.366951,47.810504]}},{"properties":{"name":"Godo","description":"Posted by XerocintFalun, SwedenHAI!<a title=\"Built for Community Mapping\" href=\"http://www.platial.com\"><img src=\"http://media.geocommons.com/platial/images/logotype_small.jpg\"></a>","id":"a6ahk2fqb0ka"},"type":"Feature","geometry":{"type":"Point","coordinates":[15.632576,60.602323]}},{"properties":{"name":"GrandPuba","description":"Posted by XerocintMinneapolis<a title=\"Built for Community Mapping\" href=\"http://www.platial.com\"><img src=\"http://media.geocommons.com/platial/images/logotype_small.jpg\"></a>","id":"a6ahk2nrczw2"},"type":"Feature","geometry":{"type":"Point","coordinates":[-93.263611,44.98]}},{"properties":{"name":"GrandPuba","description":"Posted by XerocintMinneapolis<a title=\"Built for Community Mapping\" href=\"http://www.platial.com\"><img src=\"http://media.geocommons.com/platial/images/logotype_small.jpg\"></a>","id":"a6ahk2rvgf25"},"type":"Feature","geometry":{"type":"Point","coordinates":[-93.263611,44.98]}},{"properties":{"name":"Guitarwizard","description":"Posted by XerocintJonesboro, ARya boi<a title=\"Built for Community Mapping\" href=\"http://www.platial.com\"><img src=\"http://media.geocommons.com/platial/images/logotype_small.jpg\"></a>","id":"a6ahk2t00wzt"},"type":"Feature","geometry":{"type":"Point","coordinates":[-90.704167,35.842222]}},{"properties":{"name":"Halfang","description":"Posted by Xerocint<img src=\"http://media.geocommons.com/platial/img/2009/08/0/2ebx4ox.jpg\">Londonsup<a title=\"Built for Community Mapping\" href=\"http://www.platial.com\"><img src=\"http://media.geocommons.com/platial/images/logotype_small.jpg\"></a>","id":"a6ahk2erwfp2"},"type":"Feature","geometry":{"type":"Point","coordinates":[-0.126197,51.500197]}},{"properties":{"name":"Hannes","description":"Posted by Xerocint<img src=\"http://media.geocommons.com/platial/img/2009/08/0/21morrissey.png\">reykjavik<a title=\"Built for Community Mapping\" href=\"http://www.platial.com\"><img src=\"http://media.geocommons.com/platial/images/logotype_small.jpg\"></a>","id":"a6ahk2pwdx3z"},"type":"Feature","geometry":{"type":"Point","coordinates":[-21.92,64.139999]}},{"properties":{"name":"HerrSchnuff","description":"Posted by XerocintMunich<a title=\"Built for Community Mapping\" href=\"http://www.platial.com\"><img src=\"http://media.geocommons.com/platial/images/logotype_small.jpg\"></a>","id":"a6ahk2mmt7pu"},"type":"Feature","geometry":{"type":"Point","coordinates":[11.580213,48.139127]}},{"properties":{"name":"Hybr1d","description":"Posted by XerocintsmålandsstenarYo fckrs! What love!<a title=\"Built for Community Mapping\" href=\"http://www.platial.com\"><img src=\"http://media.geocommons.com/platial/images/logotype_small.jpg\"></a>","id":"a6ahk2tncmfo"},"type":"Feature","geometry":{"type":"Point","coordinates":[13.4056128,57.1630074]}},{"properties":{"name":"Iamjoe2","description":"Posted by XerocintNew Orleans<a title=\"Built for Community Mapping\" href=\"http://www.platial.com\"><img src=\"http://media.geocommons.com/platial/images/logotype_small.jpg\"></a>","id":"a6ahk2i0xezo"},"type":"Feature","geometry":{"type":"Point","coordinates":[-90.075,29.954444]}},{"properties":{"name":"Invoke","description":"Posted by XerocintHomeland<a title=\"Built for Community Mapping\" href=\"http://www.platial.com\"><img src=\"http://media.geocommons.com/platial/images/logotype_small.jpg\"></a>","id":"a6ahk2r3x4z9"},"type":"Feature","geometry":{"type":"Point","coordinates":[-117.115062,33.743281]}},{"properties":{"name":"Itchicalle","description":"Posted by Xerocintårhus<a title=\"Built for Community Mapping\" href=\"http://www.platial.com\"><img src=\"http://media.geocommons.com/platial/images/logotype_small.jpg\"></a>","id":"a6ahk2s0lsp4"},"type":"Feature","geometry":{"type":"Point","coordinates":[10.471017,56.240414]}},{"properties":{"name":"JGus","description":"Posted by Xerocint2136 Summit St., Columbus, OH, USA<a title=\"Built for Community Mapping\" href=\"http://www.platial.com\"><img src=\"http://media.geocommons.com/platial/images/logotype_small.jpg\"></a>","id":"a6ahk2lkjqh1"},"type":"Feature","geometry":{"type":"Point","coordinates":[-83.000454,40.007034]}},{"properties":{"name":"JJP","description":"Posted by Xerocintgrand haven<a title=\"Built for Community Mapping\" href=\"http://www.platial.com\"><img src=\"http://media.geocommons.com/platial/images/logotype_small.jpg\"></a>","id":"a6ahk2fcfz02"},"type":"Feature","geometry":{"type":"Point","coordinates":[-86.218267,43.052012]}},{"properties":{"name":"Jack Davenport","description":"Posted by Xerocint30215<a title=\"Built for Community Mapping\" href=\"http://www.platial.com\"><img src=\"http://media.geocommons.com/platial/images/logotype_small.jpg\"></a>","id":"a6ahk2iq18d3"},"type":"Feature","geometry":{"type":"Point","coordinates":[-84.45927,33.382208]}},{"properties":{"name":"James","description":"Posted by XerocintAberdeen<a title=\"Built for Community Mapping\" href=\"http://www.platial.com\"><img src=\"http://media.geocommons.com/platial/images/logotype_small.jpg\"></a>","id":"a6ahk2o401z8"},"type":"Feature","geometry":{"type":"Point","coordinates":[-2.095383,57.147497]}},{"properties":{"name":"Jayd3n","description":"Posted by XerocintCessnock<a title=\"Built for Community Mapping\" href=\"http://www.platial.com\"><img src=\"http://media.geocommons.com/platial/images/logotype_small.jpg\"></a>","id":"a6ahk2shb5xa"},"type":"Feature","geometry":{"type":"Point","coordinates":[151.353993,-32.832943]}},{"properties":{"name":"Jayd3n","description":"Posted by XerocintCessnock<a title=\"Built for Community Mapping\" href=\"http://www.platial.com\"><img src=\"http://media.geocommons.com/platial/images/logotype_small.jpg\"></a>","id":"a6ahk2p8h0nb"},"type":"Feature","geometry":{"type":"Point","coordinates":[151.353993,-32.832943]}},{"properties":{"name":"Kalista","description":"Posted by Xerocintcedar city<a title=\"Built for Community Mapping\" href=\"http://www.platial.com\"><img src=\"http://media.geocommons.com/platial/images/logotype_small.jpg\"></a>","id":"a6ahk2l3eq27"},"type":"Feature","geometry":{"type":"Point","coordinates":[-113.06176,37.67794]}},{"properties":{"name":"KamelReds","description":"Posted by Xerocint1409 S. Lamar St. Dallas, TX 75215I love WHAT! HEY O.<a title=\"Built for Community Mapping\" href=\"http://www.platial.com\"><img src=\"http://media.geocommons.com/platial/images/logotype_small.jpg\"></a>","id":"a6ahk2km1wh4"},"type":"Feature","geometry":{"type":"Point","coordinates":[-96.795371,32.767068]}},{"properties":{"name":"KenshinX88","description":"Posted by Xerocintpoolesville maryland<a title=\"Built for Community Mapping\" href=\"http://www.platial.com\"><img src=\"http://media.geocommons.com/platial/images/logotype_small.jpg\"></a>","id":"a6ahk2mop169"},"type":"Feature","geometry":{"type":"Point","coordinates":[-77.411014,39.144544]}},{"properties":{"name":"Kevin","description":"Posted by XerocintNewtown Ct<a title=\"Built for Community Mapping\" href=\"http://www.platial.com\"><img src=\"http://media.geocommons.com/platial/images/logotype_small.jpg\"></a>","id":"a6ahk2jy6cx5"},"type":"Feature","geometry":{"type":"Point","coordinates":[-73.308875,41.413531]}},{"properties":{"name":"Kevin","description":"Posted by XerocintVictoria, BCname: Kevin267<a title=\"Built for Community Mapping\" href=\"http://www.platial.com\"><img src=\"http://media.geocommons.com/platial/images/logotype_small.jpg\"></a>","id":"a6ahk2mpgasr"},"type":"Feature","geometry":{"type":"Point","coordinates":[-123.356467,48.42804]}},{"properties":{"name":"Kevin","description":"Posted by XerocintVictoria, BCKevin267<a title=\"Built for Community Mapping\" href=\"http://www.platial.com\"><img src=\"http://media.geocommons.com/platial/images/logotype_small.jpg\"></a>","id":"a6ahk2nvw983"},"type":"Feature","geometry":{"type":"Point","coordinates":[-123.356467,48.42804]}},{"properties":{"name":"Kleivonen","description":"Posted by Xerocint<img src=\"http://media.geocommons.com/platial/img/2009/08/0/Untitled_1_4.jpg\">Bedminster, NJ<a title=\"Built for Community Mapping\" href=\"http://www.platial.com\"><img src=\"http://media.geocommons.com/platial/images/logotype_small.jpg\"></a>","id":"a6ahk2k1ni6t"},"type":"Feature","geometry":{"type":"Point","coordinates":[-74.643236,40.657109]}},{"properties":{"name":"Knivesofice","description":"Posted by Xerocint67701<a title=\"Built for Community Mapping\" href=\"http://www.platial.com\"><img src=\"http://media.geocommons.com/platial/images/logotype_small.jpg\"></a>","id":"a6ahk2u678r1"},"type":"Feature","geometry":{"type":"Point","coordinates":[-101.0711758,39.3702882]}},{"properties":{"name":"Kyle","description":"Posted by Xerocinttyler,txDOUCHE CHILL!1111<a title=\"Built for Community Mapping\" href=\"http://www.platial.com\"><img src=\"http://media.geocommons.com/platial/images/logotype_small.jpg\"></a>","id":"a6ahk2mkstcs"},"type":"Feature","geometry":{"type":"Point","coordinates":[-95.300833,32.351111]}},{"properties":{"name":"Kyle (BlueCrystal)","description":"Posted by Xerocint<img src=\"http://media.geocommons.com/platial/img/2009/08/0/bluecrystal.png\">Charlotte, NCSUP NIGGAS :D<a title=\"Built for Community Mapping\" href=\"http://www.platial.com\"><img src=\"http://media.geocommons.com/platial/images/logotype_small.jpg\"></a>","id":"a6ahk2olb2kf"},"type":"Feature","geometry":{"type":"Point","coordinates":[-80.843333,35.226944]}},{"properties":{"name":"Leanne","description":"Posted by Xerocintcleveland<a title=\"Built for Community Mapping\" href=\"http://www.platial.com\"><img src=\"http://media.geocommons.com/platial/images/logotype_small.jpg\"></a>","id":"a6ahk2qconef"},"type":"Feature","geometry":{"type":"Point","coordinates":[-81.695556,41.499444]}},{"properties":{"name":"Liam","description":"Posted by XerocintMontreal, Canada<a title=\"Built for Community Mapping\" href=\"http://www.platial.com\"><img src=\"http://media.geocommons.com/platial/images/logotype_small.jpg\"></a>","id":"a6ahk2tofxn4"},"type":"Feature","geometry":{"type":"Point","coordinates":[-73.675627,45.512363]}},{"properties":{"name":"Lnksyr","description":"Posted by Xerocintbaltimore<a title=\"Built for Community Mapping\" href=\"http://www.platial.com\"><img src=\"http://media.geocommons.com/platial/images/logotype_small.jpg\"></a>","id":"a6ahk2kvs4o8"},"type":"Feature","geometry":{"type":"Point","coordinates":[-76.6125,39.290278]}},{"properties":{"name":"LordSpamulon","description":"Posted by Xerocint<img src=\"http://media.geocommons.com/platial/img/2009/08/0/whatcd.jpg\">Bracknelloh hai<a title=\"Built for Community Mapping\" href=\"http://www.platial.com\"><img src=\"http://media.geocommons.com/platial/images/logotype_small.jpg\"></a>","id":"a6ahk2lquucq"},"type":"Feature","geometry":{"type":"Point","coordinates":[-0.746479,51.417025]}},{"properties":{"name":"Lucasban","description":"Posted by XerocintBoston<a title=\"Built for Community Mapping\" href=\"http://www.platial.com\"><img src=\"http://media.geocommons.com/platial/images/logotype_small.jpg\"></a>","id":"a6ahk2hqvc7x"},"type":"Feature","geometry":{"type":"Point","coordinates":[-71.060278,42.358333]}},{"properties":{"name":"Lucasban","description":"Posted by XerocintBuswell St, Boston, MA 02215, USA<a title=\"Built for Community Mapping\" href=\"http://www.platial.com\"><img src=\"http://media.geocommons.com/platial/images/logotype_small.jpg\"></a>","id":"a6ahk2fkgmv2"},"type":"Feature","geometry":{"type":"Point","coordinates":[-71.105539,42.347514]}},{"properties":{"name":"LuckyDucky","description":"Posted by Xerocintfishers in<a title=\"Built for Community Mapping\" href=\"http://www.platial.com\"><img src=\"http://media.geocommons.com/platial/images/logotype_small.jpg\"></a>","id":"a6ahk2usjh68"},"type":"Feature","geometry":{"type":"Point","coordinates":[-86.023576,39.954133]}},{"properties":{"name":"Madman1444","description":"Posted by XerocintNew Orleansdisregard iamjoe2, i  put the wrong username<a title=\"Built for Community Mapping\" href=\"http://www.platial.com\"><img src=\"http://media.geocommons.com/platial/images/logotype_small.jpg\"></a>","id":"a6ahk2ncx86s"},"type":"Feature","geometry":{"type":"Point","coordinates":[-90.075,29.954444]}},{"properties":{"name":"Madman1444","description":"Posted by XerocintNew Orleans<a title=\"Built for Community Mapping\" href=\"http://www.platial.com\"><img src=\"http://media.geocommons.com/platial/images/logotype_small.jpg\"></a>","id":"a6ahk2moqs43"},"type":"Feature","geometry":{"type":"Point","coordinates":[-90.075,29.954444]}},{"properties":{"name":"Maggotin","description":"Posted by Xerocint28039 madridMaggotin!<a title=\"Built for Community Mapping\" href=\"http://www.platial.com\"><img src=\"http://media.geocommons.com/platial/images/logotype_small.jpg\"></a>","id":"a6ahk2mugg47"},"type":"Feature","geometry":{"type":"Point","coordinates":[-3.7105118,40.4609722]}},{"properties":{"name":"Malvarma","description":"Posted by XerocintMontague, NJnoise noise noise!<a title=\"Built for Community Mapping\" href=\"http://www.platial.com\"><img src=\"http://media.geocommons.com/platial/images/logotype_small.jpg\"></a>","id":"a6ahk2osg96d"},"type":"Feature","geometry":{"type":"Point","coordinates":[-74.753956,41.302259]}},{"properties":{"name":"Marfere","description":"Posted by Xerocint<img src=\"http://media.geocommons.com/platial/img/2009/08/2/Marferedime.jpg\">skövdeHeeeey!!! I\\'m metalman Marfere!!<a title=\"Built for Community Mapping\" href=\"http://www.platial.com\"><img src=\"http://media.geocommons.com/platial/images/logotype_small.jpg\"></a>","id":"a6ahk2mowl3m"},"type":"Feature","geometry":{"type":"Point","coordinates":[13.847268,58.391154]}},{"properties":{"name":"Mark","description":"Posted by XerocintMount Pearl, NL<a title=\"Built for Community Mapping\" href=\"http://www.platial.com\"><img src=\"http://media.geocommons.com/platial/images/logotype_small.jpg\"></a>","id":"a6ahk2f6q6gl"},"type":"Feature","geometry":{"type":"Point","coordinates":[-52.807623,47.520685]}},{"properties":{"name":"Mark","description":"Posted by XerocintAtco, New Jerseykeanex on What!<a title=\"Built for Community Mapping\" href=\"http://www.platial.com\"><img src=\"http://media.geocommons.com/platial/images/logotype_small.jpg\"></a>","id":"a6ahk2iena40"},"type":"Feature","geometry":{"type":"Point","coordinates":[-74.887686,39.769885]}},{"properties":{"name":"Mogizzle","description":"Posted by Xerocint<img src=\"http://media.geocommons.com/platial/img/2009/08/0/avatar.jpg\">hershey pensylvaniaYO YO YO<a title=\"Built for Community Mapping\" href=\"http://www.platial.com\"><img src=\"http://media.geocommons.com/platial/images/logotype_small.jpg\"></a>","id":"a6ahk2qwh1w0"},"type":"Feature","geometry":{"type":"Point","coordinates":[-76.64754,40.282079]}},{"properties":{"name":"MrOstrich","description":"Posted by Xerocintlos angeles<a title=\"Built for Community Mapping\" href=\"http://www.platial.com\"><img src=\"http://media.geocommons.com/platial/images/logotype_small.jpg\"></a>","id":"a6ahk2mh82kg"},"type":"Feature","geometry":{"type":"Point","coordinates":[-118.242778,34.052222]}},{"properties":{"name":"MusicSavesUs","description":"Posted by XerocintWaynesboro VA<a title=\"Built for Community Mapping\" href=\"http://www.platial.com\"><img src=\"http://media.geocommons.com/platial/images/logotype_small.jpg\"></a>","id":"a6ahk2h6rkbd"},"type":"Feature","geometry":{"type":"Point","coordinates":[-78.903704,38.071066]}},{"properties":{"name":"MusicSavesUs","description":"Posted by XerocintCharlottesville Va<a title=\"Built for Community Mapping\" href=\"http://www.platial.com\"><img src=\"http://media.geocommons.com/platial/images/logotype_small.jpg\"></a>","id":"a6ahk2knoaua"},"type":"Feature","geometry":{"type":"Point","coordinates":[-78.47752,38.03212]}},{"properties":{"name":"NONAME","description":"Posted by XerocintThibodaux,États-Unis<a title=\"Built for Community Mapping\" href=\"http://www.platial.com\"><img src=\"http://media.geocommons.com/platial/images/logotype_small.jpg\"></a>","id":"a6ahk2ld2mnf"},"type":"Feature","geometry":{"type":"Point","coordinates":[-90.818799,29.796458]}},{"properties":{"name":"Nate7679 (Nate)","description":"Posted by Xerocintseattleyeeeeeeee<a title=\"Built for Community Mapping\" href=\"http://www.platial.com\"><img src=\"http://media.geocommons.com/platial/images/logotype_small.jpg\"></a>","id":"a6ahk2jv7gn3"},"type":"Feature","geometry":{"type":"Point","coordinates":[-122.330833,47.606389]}},{"properties":{"name":"Nicki","description":"Posted by XerocintAthens, GAo hai?<a title=\"Built for Community Mapping\" href=\"http://www.platial.com\"><img src=\"http://media.geocommons.com/platial/images/logotype_small.jpg\"></a>","id":"a6ahk2g84krn"},"type":"Feature","geometry":{"type":"Point","coordinates":[-83.378056,33.960833]}},{"properties":{"name":"NickisDuffman","description":"Posted by XerocintNaperville<a title=\"Built for Community Mapping\" href=\"http://www.platial.com\"><img src=\"http://media.geocommons.com/platial/images/logotype_small.jpg\"></a>","id":"a6ahk2rqkj7i"},"type":"Feature","geometry":{"type":"Point","coordinates":[-88.147222,41.785833]}},{"properties":{"name":"NinjaPirate","description":"Posted by XerocintLivingston, NJ<a title=\"Built for Community Mapping\" href=\"http://www.platial.com\"><img src=\"http://media.geocommons.com/platial/images/logotype_small.jpg\"></a>","id":"a6ahk2qohui5"},"type":"Feature","geometry":{"type":"Point","coordinates":[-74.315278,40.795833]}},{"properties":{"name":"NoLimit","description":"Posted by XerocintplanoWhat?<a title=\"Built for Community Mapping\" href=\"http://www.platial.com\"><img src=\"http://media.geocommons.com/platial/images/logotype_small.jpg\"></a>","id":"a6ahk2ign6uq"},"type":"Feature","geometry":{"type":"Point","coordinates":[-96.698611,33.019722]}},{"properties":{"name":"Nonchalance","description":"Posted by XerocintberkeleyBAY AREA YEAAAA<a title=\"Built for Community Mapping\" href=\"http://www.platial.com\"><img src=\"http://media.geocommons.com/platial/images/logotype_small.jpg\"></a>","id":"a6ahk2q54yg9"},"type":"Feature","geometry":{"type":"Point","coordinates":[-122.271667,37.871667]}},{"properties":{"name":"NousWanderer","description":"Posted by Xerocint<img src=\"http://media.geocommons.com/platial/img/2009/08/0/Picture_144.JPG\">York, ME\\'Lo from Maine, What-folk.<a title=\"Built for Community Mapping\" href=\"http://www.platial.com\"><img src=\"http://media.geocommons.com/platial/images/logotype_small.jpg\"></a>","id":"a6ahk2me7v6y"},"type":"Feature","geometry":{"type":"Point","coordinates":[-70.632222,43.156667]}},{"properties":{"name":"PG","description":"Posted by XerocintLund<a title=\"Built for Community Mapping\" href=\"http://www.platial.com\"><img src=\"http://media.geocommons.com/platial/images/logotype_small.jpg\"></a>","id":"a6ahk2upvebd"},"type":"Feature","geometry":{"type":"Point","coordinates":[13.192912,55.702854]}},{"properties":{"name":"PG","description":"Posted by XerocintLausanne<a title=\"Built for Community Mapping\" href=\"http://www.platial.com\"><img src=\"http://media.geocommons.com/platial/images/logotype_small.jpg\"></a>","id":"a6ahk2erd625"},"type":"Feature","geometry":{"type":"Point","coordinates":[6.666667,46.533333]}},{"properties":{"name":"PHR3AKOFLAC","description":"Posted by XerocintFruitland IdahoFirst one in Idaho lol, probably the only one.<a title=\"Built for Community Mapping\" href=\"http://www.platial.com\"><img src=\"http://media.geocommons.com/platial/images/logotype_small.jpg\"></a>","id":"a6ahk2pkdz4u"},"type":"Feature","geometry":{"type":"Point","coordinates":[-116.923628,44.017872]}},{"properties":{"name":"Petra","description":"Posted by Xerocintstockholm<a title=\"Built for Community Mapping\" href=\"http://www.platial.com\"><img src=\"http://media.geocommons.com/platial/images/logotype_small.jpg\"></a>","id":"a6ahk2ecrmk4"},"type":"Feature","geometry":{"type":"Point","coordinates":[18.069999,59.330001]}},{"properties":{"name":"PremiumBlendz","description":"Posted by Xerocint<img src=\"http://media.geocommons.com/platial/img/2009/08/0/Nick_Diamond_Unicorns_shirt.jpg\">chicagoMusicians--HIT ME UP IN CHICAGO FOR A JAM SESSION!<a title=\"Built for Community Mapping\" href=\"http://www.platial.com\"><img src=\"http://media.geocommons.com/platial/images/logotype_small.jpg\"></a>","id":"a6ahk2fuyzgq"},"type":"Feature","geometry":{"type":"Point","coordinates":[-87.65,41.85]}},{"properties":{"name":"Qirren","description":"Posted by XerocintsundsvallWHAT?!<a title=\"Built for Community Mapping\" href=\"http://www.platial.com\"><img src=\"http://media.geocommons.com/platial/images/logotype_small.jpg\"></a>","id":"a6ahk2nw66tw"},"type":"Feature","geometry":{"type":"Point","coordinates":[17.306916,62.390836]}},{"properties":{"name":"RCDuke","description":"Posted by XerocintSpringfield, OR<a title=\"Built for Community Mapping\" href=\"http://www.platial.com\"><img src=\"http://media.geocommons.com/platial/images/logotype_small.jpg\"></a>","id":"a6ahk2lj3kxl"},"type":"Feature","geometry":{"type":"Point","coordinates":[-123.020833,44.046389]}},{"properties":{"name":"Rivid31","description":"Posted by XerocintRochester NY<a title=\"Built for Community Mapping\" href=\"http://www.platial.com\"><img src=\"http://media.geocommons.com/platial/images/logotype_small.jpg\"></a>","id":"a6ahk2kd8a0c"},"type":"Feature","geometry":{"type":"Point","coordinates":[-77.615833,43.154722]}},{"properties":{"name":"RoadKiller","description":"Posted by Xerocintnew delhi<a title=\"Built for Community Mapping\" href=\"http://www.platial.com\"><img src=\"http://media.geocommons.com/platial/images/logotype_small.jpg\"></a>","id":"a6ahk2inieu9"},"type":"Feature","geometry":{"type":"Point","coordinates":[77.205824,28.63769]}},{"properties":{"name":"Ruben","description":"Posted by XerocintRijmenam<a title=\"Built for Community Mapping\" href=\"http://www.platial.com\"><img src=\"http://media.geocommons.com/platial/images/logotype_small.jpg\"></a>","id":"a6ahk2udceaa"},"type":"Feature","geometry":{"type":"Point","coordinates":[4.584442,51.001134]}},{"properties":{"name":"Ruben","description":"Posted by XerocintMart, TBelgium<a title=\"Built for Community Mapping\" href=\"http://www.platial.com\"><img src=\"http://media.geocommons.com/platial/images/logotype_small.jpg\"></a>","id":"a6ahk2uqloxh"},"type":"Feature","geometry":{"type":"Point","coordinates":[4.599702,51.022505]}},{"properties":{"name":"Ruben","description":"Posted by Xerocint<img src=\"http://media.geocommons.com/platial/img/2009/08/1/afb009.jpg\">Rijmenam<a title=\"Built for Community Mapping\" href=\"http://www.platial.com\"><img src=\"http://media.geocommons.com/platial/images/logotype_small.jpg\"></a>","id":"a6ahk2mf2ow3"},"type":"Feature","geometry":{"type":"Point","coordinates":[4.584442,51.001134]}},{"properties":{"name":"Ruben","description":"Posted by XerocintBonheiden<a title=\"Built for Community Mapping\" href=\"http://www.platial.com\"><img src=\"http://media.geocommons.com/platial/images/logotype_small.jpg\"></a>","id":"a6ahk2ueash3"},"type":"Feature","geometry":{"type":"Point","coordinates":[4.5475032,51.022415]}},{"properties":{"name":"Ryan_paco","description":"Posted by Xerocintrichmond ind<a title=\"Built for Community Mapping\" href=\"http://www.platial.com\"><img src=\"http://media.geocommons.com/platial/images/logotype_small.jpg\"></a>","id":"a6ahk2jr5ibi"},"type":"Feature","geometry":{"type":"Point","coordinates":[-84.890185,39.834543]}},{"properties":{"name":"Sandig","description":"Posted by Xerocintox1 1le<a title=\"Built for Community Mapping\" href=\"http://www.platial.com\"><img src=\"http://media.geocommons.com/platial/images/logotype_small.jpg\"></a>","id":"a6ahk2m5quko"},"type":"Feature","geometry":{"type":"Point","coordinates":[-1.2493821,51.7585364]}},{"properties":{"name":"ScousePete","description":"Posted by XerocintSan Antonio<a title=\"Built for Community Mapping\" href=\"http://www.platial.com\"><img src=\"http://media.geocommons.com/platial/images/logotype_small.jpg\"></a>","id":"a6ahk2hrnf2q"},"type":"Feature","geometry":{"type":"Point","coordinates":[-98.493333,29.423889]}},{"properties":{"name":"Seasnake4","description":"Posted by Xerocint<img src=\"http://media.geocommons.com/platial/img/2009/08/0/8uqd2sb9gd0a46aeuhn.jpg\">wauseon:D<a title=\"Built for Community Mapping\" href=\"http://www.platial.com\"><img src=\"http://media.geocommons.com/platial/images/logotype_small.jpg\"></a>","id":"a6ahk2jxj6fi"},"type":"Feature","geometry":{"type":"Point","coordinates":[-84.141521,41.54919]}},{"properties":{"name":"Shiara","description":"Posted by XerocintVancouver<a title=\"Built for Community Mapping\" href=\"http://www.platial.com\"><img src=\"http://media.geocommons.com/platial/images/logotype_small.jpg\"></a>","id":"a6ahk2lt5xgj"},"type":"Feature","geometry":{"type":"Point","coordinates":[-123.111934,49.250494]}},{"properties":{"name":"Shiloh","description":"Posted by Xerocint<img src=\"http://media.geocommons.com/platial/img/2009/08/1/Untitled_2.jpg\">jacksonvilleWADDYUP<a title=\"Built for Community Mapping\" href=\"http://www.platial.com\"><img src=\"http://media.geocommons.com/platial/images/logotype_small.jpg\"></a>","id":"a6ahk2i662q3"},"type":"Feature","geometry":{"type":"Point","coordinates":[-81.655833,30.331944]}},{"properties":{"name":"Shmew","description":"Posted by XerocintLee\\'s Summit<a title=\"Built for Community Mapping\" href=\"http://www.platial.com\"><img src=\"http://media.geocommons.com/platial/images/logotype_small.jpg\"></a>","id":"a6ahk2mlc37o"},"type":"Feature","geometry":{"type":"Point","coordinates":[-94.38194,38.91083]}},{"properties":{"name":"Sixteh","description":"Posted by Xerocint03087<a title=\"Built for Community Mapping\" href=\"http://www.platial.com\"><img src=\"http://media.geocommons.com/platial/images/logotype_small.jpg\"></a>","id":"a6ahk2rt2ylv"},"type":"Feature","geometry":{"type":"Point","coordinates":[-71.301507,42.805495]}},{"properties":{"name":"Skitchbeatz","description":"Posted by Xerocint<img src=\"http://media.geocommons.com/platial/img/2009/08/0/beatmakerscreedavatarrr4.jpg\">Ann ArborI\\'m dope<a title=\"Built for Community Mapping\" href=\"http://www.platial.com\"><img src=\"http://media.geocommons.com/platial/images/logotype_small.jpg\"></a>","id":"a6ahk2mfml29"},"type":"Feature","geometry":{"type":"Point","coordinates":[-83.745833,42.283333]}},{"properties":{"name":"Snack Styles","description":"Posted by Xerocint<img src=\"http://media.geocommons.com/platial/img/2009/08/0/another_gloom_by_SailorClef.png\">Commerce michigan:)<a title=\"Built for Community Mapping\" href=\"http://www.platial.com\"><img src=\"http://media.geocommons.com/platial/images/logotype_small.jpg\"></a>","id":"a6ahk2peor54"},"type":"Feature","geometry":{"type":"Point","coordinates":[-83.4856913,42.581281]}},{"properties":{"name":"Snack Styles","description":"Posted by Xerocint<img src=\"http://media.geocommons.com/platial/img/2009/08/0/another_gloom_by_SailorClef.JPG\">Commerce michigan:)<a title=\"Built for Community Mapping\" href=\"http://www.platial.com\"><img src=\"http://media.geocommons.com/platial/images/logotype_small.jpg\"></a>","id":"a6ahk2kyjz4c"},"type":"Feature","geometry":{"type":"Point","coordinates":[-83.4856913,42.581281]}},{"properties":{"name":"Spencer (xspeex)","description":"Posted by Xerocint<img src=\"http://media.geocommons.com/platial/img/2009/08/0/32znx3m.jpg\">Laurel, ms USA<a title=\"Built for Community Mapping\" href=\"http://www.platial.com\"><img src=\"http://media.geocommons.com/platial/images/logotype_small.jpg\"></a>","id":"a6ahk2m3frjg"},"type":"Feature","geometry":{"type":"Point","coordinates":[-89.146756,31.694497]}},{"properties":{"name":"StarNoStar","description":"Posted by XerocintAurora colorado<a title=\"Built for Community Mapping\" href=\"http://www.platial.com\"><img src=\"http://media.geocommons.com/platial/images/logotype_small.jpg\"></a>","id":"a6ahk2goqwk2"},"type":"Feature","geometry":{"type":"Point","coordinates":[-104.86592,39.69107]}},{"properties":{"name":"StirredToFU","description":"Posted by Xerocintallen park<a title=\"Built for Community Mapping\" href=\"http://www.platial.com\"><img src=\"http://media.geocommons.com/platial/images/logotype_small.jpg\"></a>","id":"a6ahk2qdoeki"},"type":"Feature","geometry":{"type":"Point","coordinates":[-83.211839,42.260632]}},{"properties":{"name":"SungTong","description":"Posted by XerocintWINSTON SALEM,NC<a title=\"Built for Community Mapping\" href=\"http://www.platial.com\"><img src=\"http://media.geocommons.com/platial/images/logotype_small.jpg\"></a>","id":"a6ahk2qefm3f"},"type":"Feature","geometry":{"type":"Point","coordinates":[-80.249722,36.100278]}},{"properties":{"name":"Sweeney","description":"Posted by Xerocint72701Chillin, smokin blunts!<a title=\"Built for Community Mapping\" href=\"http://www.platial.com\"><img src=\"http://media.geocommons.com/platial/images/logotype_small.jpg\"></a>","id":"a6ahk2ov0nmj"},"type":"Feature","geometry":{"type":"Point","coordinates":[-94.091304,35.944574]}},{"properties":{"name":"TheGoose31","description":"Posted by XerocintDedham, MAPM me if in Boston area! :D<a title=\"Built for Community Mapping\" href=\"http://www.platial.com\"><img src=\"http://media.geocommons.com/platial/images/logotype_small.jpg\"></a>","id":"a6ahk2n4tiuq"},"type":"Feature","geometry":{"type":"Point","coordinates":[-71.166667,42.241667]}},{"properties":{"name":"Toastpaint","description":"Posted by Xerocint<img src=\"http://media.geocommons.com/platial/img/2009/08/0/toastpaintav.gif\">Palmwoods, Australia<a title=\"Built for Community Mapping\" href=\"http://www.platial.com\"><img src=\"http://media.geocommons.com/platial/images/logotype_small.jpg\"></a>","id":"a6ahk2icce3r"},"type":"Feature","geometry":{"type":"Point","coordinates":[152.95873,-26.68639]}},{"properties":{"name":"Tropoliist","description":"Posted by Xerocint<img src=\"http://media.geocommons.com/platial/img/2009/08/0/pe_portishead_third.jpg\">brisbaneI am a robot beep beep<a title=\"Built for Community Mapping\" href=\"http://www.platial.com\"><img src=\"http://media.geocommons.com/platial/images/logotype_small.jpg\"></a>","id":"a6ahk2m1wb1n"},"type":"Feature","geometry":{"type":"Point","coordinates":[153.020004,-27.459999]}},{"properties":{"name":"TwoFace","description":"Posted by XerocintTamworth, nsw, australia<a title=\"Built for Community Mapping\" href=\"http://www.platial.com\"><img src=\"http://media.geocommons.com/platial/images/logotype_small.jpg\"></a>","id":"a6ahk2s9r6z6"},"type":"Feature","geometry":{"type":"Point","coordinates":[150.930821,-31.091743]}},{"properties":{"name":"Veer!!!","description":"Posted by Xerocint20345 Williams Ave, Saratoga, CAallahu akbar<a title=\"Built for Community Mapping\" href=\"http://www.platial.com\"><img src=\"http://media.geocommons.com/platial/images/logotype_small.jpg\"></a>","id":"a6ahk2fymcc3"},"type":"Feature","geometry":{"type":"Point","coordinates":[-122.029414,37.264268]}},{"properties":{"name":"VinnieZ","description":"Posted by XerocintHuntingdon Valley, PA<a title=\"Built for Community Mapping\" href=\"http://www.platial.com\"><img src=\"http://media.geocommons.com/platial/images/logotype_small.jpg\"></a>","id":"a6ahk2thse4q"},"type":"Feature","geometry":{"type":"Point","coordinates":[-75.063889,40.1225]}},{"properties":{"name":"VinnieZ","description":"Posted by XerocintHuntingdon Valley, PA<a title=\"Built for Community Mapping\" href=\"http://www.platial.com\"><img src=\"http://media.geocommons.com/platial/images/logotype_small.jpg\"></a>","id":"a6ahk2gtw5w4"},"type":"Feature","geometry":{"type":"Point","coordinates":[-75.063889,40.1225]}},{"properties":{"name":"Vivek","description":"Posted by Xerocint<img src=\"http://media.geocommons.com/platial/img/2009/08/0/kramerpimp_150px.png\">perthsup whatcd<a title=\"Built for Community Mapping\" href=\"http://www.platial.com\"><img src=\"http://media.geocommons.com/platial/images/logotype_small.jpg\"></a>","id":"a6ahk2tl3h8g"},"type":"Feature","geometry":{"type":"Point","coordinates":[115.839996,-31.959999]}},{"properties":{"name":"Vodkakicks","description":"Posted by Xerocintg43 2aafucka.<a title=\"Built for Community Mapping\" href=\"http://www.platial.com\"><img src=\"http://media.geocommons.com/platial/images/logotype_small.jpg\"></a>","id":"a6ahk2hbjfh3"},"type":"Feature","geometry":{"type":"Point","coordinates":[-4.2834928,55.8182625]}},{"properties":{"name":"Wagert","description":"Posted by XerocintRICHMOND C,A<a title=\"Built for Community Mapping\" href=\"http://www.platial.com\"><img src=\"http://media.geocommons.com/platial/images/logotype_small.jpg\"></a>","id":"a6ahk2ltipm0"},"type":"Feature","geometry":{"type":"Point","coordinates":[-0.303547,51.461342]}},{"properties":{"name":"WichitaQ","description":"Posted by Xerocint<img src=\"http://media.geocommons.com/platial/img/2009/08/0/Soul_Eater.jpg\">Split, Croatia<a title=\"Built for Community Mapping\" href=\"http://www.platial.com\"><img src=\"http://media.geocommons.com/platial/images/logotype_small.jpg\"></a>","id":"a6ahk2r7rty9"},"type":"Feature","geometry":{"type":"Point","coordinates":[16.45,43.509998]}},{"properties":{"name":"XeroCint","description":"Posted by Xerocint<img src=\"http://media.geocommons.com/platial/img/2009/08/0/blowani.gif\">Pearland,TX 77581Oi, Whatties!<a title=\"Built for Community Mapping\" href=\"http://www.platial.com\"><img src=\"http://media.geocommons.com/platial/images/logotype_small.jpg\"></a>","id":"a6ahk2p4dhil"},"type":"Feature","geometry":{"type":"Point","coordinates":[-95.2788926,29.5800207]}},{"properties":{"name":"Zach","description":"Posted by Xerocintaltoona pabafcats on what :D<a title=\"Built for Community Mapping\" href=\"http://www.platial.com\"><img src=\"http://media.geocommons.com/platial/images/logotype_small.jpg\"></a>","id":"a6ahk2nmsdcg"},"type":"Feature","geometry":{"type":"Point","coordinates":[-78.400179,40.507953]}},{"properties":{"name":"Zeratual","description":"Posted by XerocintAshford<a title=\"Built for Community Mapping\" href=\"http://www.platial.com\"><img src=\"http://media.geocommons.com/platial/images/logotype_small.jpg\"></a>","id":"a6ahk2s02li5"},"type":"Feature","geometry":{"type":"Point","coordinates":[0.875563,51.148354]}},{"properties":{"name":"aenimalus","description":"Posted by Xerocint30215<a title=\"Built for Community Mapping\" href=\"http://www.platial.com\"><img src=\"http://media.geocommons.com/platial/images/logotype_small.jpg\"></a>","id":"a6ahk2na1qhj"},"type":"Feature","geometry":{"type":"Point","coordinates":[-84.45927,33.382208]}},{"properties":{"name":"alex","description":"Posted by Xerocintvictor<a title=\"Built for Community Mapping\" href=\"http://www.platial.com\"><img src=\"http://media.geocommons.com/platial/images/logotype_small.jpg\"></a>","id":"a6ahk2pl4gq2"},"type":"Feature","geometry":{"type":"Point","coordinates":[-77.409522,42.98251]}},{"properties":{"name":"amxtrash","description":"Posted by Xerocintindian head<a title=\"Built for Community Mapping\" href=\"http://www.platial.com\"><img src=\"http://media.geocommons.com/platial/images/logotype_small.jpg\"></a>","id":"a6ahk2pwg2b8"},"type":"Feature","geometry":{"type":"Point","coordinates":[-77.156403,38.599739]}},{"properties":{"name":"appledump","description":"Posted by XerocintChanhassenyoyo<a title=\"Built for Community Mapping\" href=\"http://www.platial.com\"><img src=\"http://media.geocommons.com/platial/images/logotype_small.jpg\"></a>","id":"a6ahk2mssdim"},"type":"Feature","geometry":{"type":"Point","coordinates":[-93.561636,44.862892]}},{"properties":{"name":"arkeologist","description":"Posted by XerocintSTOKE-ON-TRENT, Staffordshire<a title=\"Built for Community Mapping\" href=\"http://www.platial.com\"><img src=\"http://media.geocommons.com/platial/images/logotype_small.jpg\"></a>","id":"a6ahk2ls4pom"},"type":"Feature","geometry":{"type":"Point","coordinates":[-2.176636,53.0265029]}},{"properties":{"name":"asdad","description":"Posted by XerocintDacula, GA<a title=\"Built for Community Mapping\" href=\"http://www.platial.com\"><img src=\"http://media.geocommons.com/platial/images/logotype_small.jpg\"></a>","id":"a6ahk2nivtzi"},"type":"Feature","geometry":{"type":"Point","coordinates":[-83.898056,33.988611]}},{"properties":{"name":"atriox","description":"Posted by Xerocinttucson<a title=\"Built for Community Mapping\" href=\"http://www.platial.com\"><img src=\"http://media.geocommons.com/platial/images/logotype_small.jpg\"></a>","id":"a6ahk2jl9tnf"},"type":"Feature","geometry":{"type":"Point","coordinates":[-110.925833,32.221667]}},{"properties":{"name":"aznblur","description":"Posted by Xerocint<img src=\"http://media.geocommons.com/platial/img/2009/08/0/rorscharh.JPG\">sydney<a title=\"Built for Community Mapping\" href=\"http://www.platial.com\"><img src=\"http://media.geocommons.com/platial/images/logotype_small.jpg\"></a>","id":"a6ahk2gjlx46"},"type":"Feature","geometry":{"type":"Point","coordinates":[151.210006,-33.869998]}},{"properties":{"name":"bKz","description":"Posted by XerocintHackettstown, NJ<a title=\"Built for Community Mapping\" href=\"http://www.platial.com\"><img src=\"http://media.geocommons.com/platial/images/logotype_small.jpg\"></a>","id":"a6ahk2i5mykf"},"type":"Feature","geometry":{"type":"Point","coordinates":[-74.829444,40.853889]}},{"properties":{"name":"backwardsname","description":"Posted by Xerocintlos angelesThere\\'s gotta be a bunch of Whatters from L.A., right?<a title=\"Built for Community Mapping\" href=\"http://www.platial.com\"><img src=\"http://media.geocommons.com/platial/images/logotype_small.jpg\"></a>","id":"a6ahk2rb5wqo"},"type":"Feature","geometry":{"type":"Point","coordinates":[-118.242778,34.052222]}},{"properties":{"name":"bafcats","description":"Posted by Xerocintaltoona pa<a title=\"Built for Community Mapping\" href=\"http://www.platial.com\"><img src=\"http://media.geocommons.com/platial/images/logotype_small.jpg\"></a>","id":"a6ahk2nro6bn"},"type":"Feature","geometry":{"type":"Point","coordinates":[-78.400179,40.507953]}},{"properties":{"name":"bafcats","description":"Posted by Xerocintaltoona pa<a title=\"Built for Community Mapping\" href=\"http://www.platial.com\"><img src=\"http://media.geocommons.com/platial/images/logotype_small.jpg\"></a>","id":"a6ahk2enusyi"},"type":"Feature","geometry":{"type":"Point","coordinates":[-78.400179,40.507953]}},{"properties":{"name":"balladofathinman","description":"Posted by XerocintMazamitla, Jalisco<a title=\"Built for Community Mapping\" href=\"http://www.platial.com\"><img src=\"http://media.geocommons.com/platial/images/logotype_small.jpg\"></a>","id":"a6ahk2pasfb0"},"type":"Feature","geometry":{"type":"Point","coordinates":[-103.0203341,19.9143297]}},{"properties":{"name":"balladofathinman","description":"Posted by XerocintSANTA MARIA CA<a title=\"Built for Community Mapping\" href=\"http://www.platial.com\"><img src=\"http://media.geocommons.com/platial/images/logotype_small.jpg\"></a>","id":"a6ahk2rv3is3"},"type":"Feature","geometry":{"type":"Point","coordinates":[-120.43501,34.95313]}},{"properties":{"name":"barbu","description":"Posted by Xerocint<img src=\"http://media.geocommons.com/platial/img/2009/08/0/ifv8rt.png\">craiova<a title=\"Built for Community Mapping\" href=\"http://www.platial.com\"><img src=\"http://media.geocommons.com/platial/images/logotype_small.jpg\"></a>","id":"a6ahk2evtwo4"},"type":"Feature","geometry":{"type":"Point","coordinates":[23.799999,44.316666]}},{"properties":{"name":"barbu","description":"Posted by Xerocintcraiova<a title=\"Built for Community Mapping\" href=\"http://www.platial.com\"><img src=\"http://media.geocommons.com/platial/images/logotype_small.jpg\"></a>","id":"a6ahk2fkf1bc"},"type":"Feature","geometry":{"type":"Point","coordinates":[23.799999,44.316666]}},{"properties":{"name":"beefchi","description":"Posted by Xerocint<img src=\"http://media.geocommons.com/platial/img/2009/08/0/banner_aug2.jpg\">los angeleshowdy y\\'all!<a title=\"Built for Community Mapping\" href=\"http://www.platial.com\"><img src=\"http://media.geocommons.com/platial/images/logotype_small.jpg\"></a>","id":"a6ahk2fe4y4m"},"type":"Feature","geometry":{"type":"Point","coordinates":[-118.242778,34.052222]}},{"properties":{"name":"bigwillie","description":"Posted by Xerocintisla vista, california<a title=\"Built for Community Mapping\" href=\"http://www.platial.com\"><img src=\"http://media.geocommons.com/platial/images/logotype_small.jpg\"></a>","id":"a6ahk2fm35bb"},"type":"Feature","geometry":{"type":"Point","coordinates":[-119.860733,34.417347]}},{"properties":{"name":"bmanyay","description":"Posted by XerocintChico Ca<a title=\"Built for Community Mapping\" href=\"http://www.platial.com\"><img src=\"http://media.geocommons.com/platial/images/logotype_small.jpg\"></a>","id":"a6ahk2h6362e"},"type":"Feature","geometry":{"type":"Point","coordinates":[-121.84198,39.732]}},{"properties":{"name":"bmanyay","description":"Posted by Xerocint(san mateo country)<a title=\"Built for Community Mapping\" href=\"http://www.platial.com\"><img src=\"http://media.geocommons.com/platial/images/logotype_small.jpg\"></a>","id":"a6ahk2joj93h"},"type":"Feature","geometry":{"type":"Point","coordinates":[-122.4014193,37.4337342]}},{"properties":{"name":"bourdou","description":"Posted by XerocintMinneapolis<a title=\"Built for Community Mapping\" href=\"http://www.platial.com\"><img src=\"http://media.geocommons.com/platial/images/logotype_small.jpg\"></a>","id":"a6ahk2mcx97t"},"type":"Feature","geometry":{"type":"Point","coordinates":[-93.263611,44.98]}},{"properties":{"name":"bumbklaatt","description":"Posted by Xerocintbrösarp sweden<a title=\"Built for Community Mapping\" href=\"http://www.platial.com\"><img src=\"http://media.geocommons.com/platial/images/logotype_small.jpg\"></a>","id":"a6ahk2n1kccq"},"type":"Feature","geometry":{"type":"Point","coordinates":[14.1038649,55.7246241]}},{"properties":{"name":"bumbklaatt","description":"Posted by Xerocintsweden<a title=\"Built for Community Mapping\" href=\"http://www.platial.com\"><img src=\"http://media.geocommons.com/platial/images/logotype_small.jpg\"></a>","id":"a6ahk2erziff"},"type":"Feature","geometry":{"type":"Point","coordinates":[17.637777,62.199734]}},{"properties":{"name":"bumbklaatt","description":"Posted by Xerocint<img src=\"http://media.geocommons.com/platial/img/2009/08/1/Link_av2.jpg\">brösarp sweden<a title=\"Built for Community Mapping\" href=\"http://www.platial.com\"><img src=\"http://media.geocommons.com/platial/images/logotype_small.jpg\"></a>","id":"a6ahk2sxni2q"},"type":"Feature","geometry":{"type":"Point","coordinates":[14.1038649,55.7246241]}},{"properties":{"name":"burgeralarm","description":"Posted by XerocintChristchurch, NZ<a title=\"Built for Community Mapping\" href=\"http://www.platial.com\"><img src=\"http://media.geocommons.com/platial/images/logotype_small.jpg\"></a>","id":"a6ahk2jh04sh"},"type":"Feature","geometry":{"type":"Point","coordinates":[172.639999,-43.529998]}},{"properties":{"name":"calmsong","description":"Posted by Xerocintorlando<a title=\"Built for Community Mapping\" href=\"http://www.platial.com\"><img src=\"http://media.geocommons.com/platial/images/logotype_small.jpg\"></a>","id":"a6ahk2pkm59p"},"type":"Feature","geometry":{"type":"Point","coordinates":[-81.379444,28.538056]}},{"properties":{"name":"chailvr","description":"Posted by XerocintSANTA BARBARA<a title=\"Built for Community Mapping\" href=\"http://www.platial.com\"><img src=\"http://media.geocommons.com/platial/images/logotype_small.jpg\"></a>","id":"a6ahk2o74d9p"},"type":"Feature","geometry":{"type":"Point","coordinates":[-119.703333,34.423333]}},{"properties":{"name":"christianhg","description":"Posted by Xerocintårhus<a title=\"Built for Community Mapping\" href=\"http://www.platial.com\"><img src=\"http://media.geocommons.com/platial/images/logotype_small.jpg\"></a>","id":"a6ahk2m4cd6g"},"type":"Feature","geometry":{"type":"Point","coordinates":[10.471017,56.240414]}},{"properties":{"name":"chuck","description":"Posted by Xerocintrive de gier, france<a title=\"Built for Community Mapping\" href=\"http://www.platial.com\"><img src=\"http://media.geocommons.com/platial/images/logotype_small.jpg\"></a>","id":"a6ahk2j5sw3u"},"type":"Feature","geometry":{"type":"Point","coordinates":[4.6141064,45.5286186]}},{"properties":{"name":"chykle897","description":"Posted by Xerocinthouston<a title=\"Built for Community Mapping\" href=\"http://www.platial.com\"><img src=\"http://media.geocommons.com/platial/images/logotype_small.jpg\"></a>","id":"a6ahk2t8w9kq"},"type":"Feature","geometry":{"type":"Point","coordinates":[-95.363056,29.763056]}},{"properties":{"name":"chykle897","description":"Posted by Xerocint77093<a title=\"Built for Community Mapping\" href=\"http://www.platial.com\"><img src=\"http://media.geocommons.com/platial/images/logotype_small.jpg\"></a>","id":"a6ahk2sxaqi1"},"type":"Feature","geometry":{"type":"Point","coordinates":[-95.338096,29.857418]}},{"properties":{"name":"cluck_u","description":"Posted by Xerocintbaltimorereppin that 410<a title=\"Built for Community Mapping\" href=\"http://www.platial.com\"><img src=\"http://media.geocommons.com/platial/images/logotype_small.jpg\"></a>","id":"a6ahk2f7jtdd"},"type":"Feature","geometry":{"type":"Point","coordinates":[-76.6125,39.290278]}},{"properties":{"name":"corevette","description":"Posted by Xerocint94040<a title=\"Built for Community Mapping\" href=\"http://www.platial.com\"><img src=\"http://media.geocommons.com/platial/images/logotype_small.jpg\"></a>","id":"a6ahk2gzkc8h"},"type":"Feature","geometry":{"type":"Point","coordinates":[-122.087983,37.385532]}},{"properties":{"name":"corjello","description":"Posted by Xerocint30269<a title=\"Built for Community Mapping\" href=\"http://www.platial.com\"><img src=\"http://media.geocommons.com/platial/images/logotype_small.jpg\"></a>","id":"a6ahk2u41msx"},"type":"Feature","geometry":{"type":"Point","coordinates":[-84.567325,33.394082]}},{"properties":{"name":"craig","description":"Posted by XerocintSalem, Oregon, United Stateswhat<a title=\"Built for Community Mapping\" href=\"http://www.platial.com\"><img src=\"http://media.geocommons.com/platial/images/logotype_small.jpg\"></a>","id":"a6ahk2krqnjq"},"type":"Feature","geometry":{"type":"Point","coordinates":[-123.027165,44.93701]}},{"properties":{"name":"criminalmadman","description":"Posted by XerocintChelmsford, essex, uk<a title=\"Built for Community Mapping\" href=\"http://www.platial.com\"><img src=\"http://media.geocommons.com/platial/images/logotype_small.jpg\"></a>","id":"a6ahk2ip0f5r"},"type":"Feature","geometry":{"type":"Point","coordinates":[0.469708,51.735814]}},{"properties":{"name":"daazninvazn","description":"Posted by XerocintSkokie<a title=\"Built for Community Mapping\" href=\"http://www.platial.com\"><img src=\"http://media.geocommons.com/platial/images/logotype_small.jpg\"></a>","id":"a6ahk2f9bkwk"},"type":"Feature","geometry":{"type":"Point","coordinates":[-87.75531,42.02627]}},{"properties":{"name":"dafydd","description":"Posted by Xerocintportland<a title=\"Built for Community Mapping\" href=\"http://www.platial.com\"><img src=\"http://media.geocommons.com/platial/images/logotype_small.jpg\"></a>","id":"a6ahk2pqq63z"},"type":"Feature","geometry":{"type":"Point","coordinates":[-122.675,45.523611]}},{"properties":{"name":"daghastlybeast","description":"Posted by Xerocint<img src=\"http://media.geocommons.com/platial/img/2009/08/0/mountedlion_avy.jpg\">CoquitlamO HAI<a title=\"Built for Community Mapping\" href=\"http://www.platial.com\"><img src=\"http://media.geocommons.com/platial/images/logotype_small.jpg\"></a>","id":"a6ahk2li4wxa"},"type":"Feature","geometry":{"type":"Point","coordinates":[-122.814304,49.273306]}},{"properties":{"name":"davidwood15","description":"Posted by XerocintLochgilphead<a title=\"Built for Community Mapping\" href=\"http://www.platial.com\"><img src=\"http://media.geocommons.com/platial/images/logotype_small.jpg\"></a>","id":"a6ahk2ovd7lr"},"type":"Feature","geometry":{"type":"Point","coordinates":[-5.43253,56.039102]}},{"properties":{"name":"dedaddy","description":"Posted by XerocintGoldsboro, NC<a title=\"Built for Community Mapping\" href=\"http://www.platial.com\"><img src=\"http://media.geocommons.com/platial/images/logotype_small.jpg\"></a>","id":"a6ahk2j6isww"},"type":"Feature","geometry":{"type":"Point","coordinates":[-77.993056,35.384722]}},{"properties":{"name":"digital","description":"Posted by XerocintAntarticabwahahahaha<a title=\"Built for Community Mapping\" href=\"http://www.platial.com\"><img src=\"http://media.geocommons.com/platial/images/logotype_small.jpg\"></a>","id":"a6ahk2rwkxz8"},"type":"Feature","geometry":{"type":"Point","coordinates":[-38.442378,-12.906617]}},{"properties":{"name":"dimaggio","description":"Posted by XerocintStockholm, Sweden<a title=\"Built for Community Mapping\" href=\"http://www.platial.com\"><img src=\"http://media.geocommons.com/platial/images/logotype_small.jpg\"></a>","id":"a6ahk2lbgpyi"},"type":"Feature","geometry":{"type":"Point","coordinates":[18.069999,59.330001]}},{"properties":{"name":"dt76","description":"Posted by Xerocintjacksonville Beach, FloridaPlease don\\'t stalk me and/or throw me, hogtied, into the back of a uhaul to take home with you.<a title=\"Built for Community Mapping\" href=\"http://www.platial.com\"><img src=\"http://media.geocommons.com/platial/images/logotype_small.jpg\"></a>","id":"a6ahk2i4ongz"},"type":"Feature","geometry":{"type":"Point","coordinates":[-81.393333,30.294444]}},{"properties":{"name":"dubcee","description":"Posted by XerocintDoylestown, Pennsylvania<a title=\"Built for Community Mapping\" href=\"http://www.platial.com\"><img src=\"http://media.geocommons.com/platial/images/logotype_small.jpg\"></a>","id":"a6ahk2ijckfu"},"type":"Feature","geometry":{"type":"Point","coordinates":[-75.128163,40.299756]}},{"properties":{"name":"dumpsterfood","description":"Posted by Xerocintparamus<a title=\"Built for Community Mapping\" href=\"http://www.platial.com\"><img src=\"http://media.geocommons.com/platial/images/logotype_small.jpg\"></a>","id":"a6ahk2kzlip7"},"type":"Feature","geometry":{"type":"Point","coordinates":[-74.075833,40.944444]}},{"properties":{"name":"eZtaR","description":"Posted by XerocintHerningdope<a title=\"Built for Community Mapping\" href=\"http://www.platial.com\"><img src=\"http://media.geocommons.com/platial/images/logotype_small.jpg\"></a>","id":"a6ahk2q56czn"},"type":"Feature","geometry":{"type":"Point","coordinates":[8.973178,56.138479]}},{"properties":{"name":"elitezero90","description":"Posted by Xerocint<img src=\"http://media.geocommons.com/platial/img/2009/08/0/35bt9ns.png\">Skokie<a title=\"Built for Community Mapping\" href=\"http://www.platial.com\"><img src=\"http://media.geocommons.com/platial/images/logotype_small.jpg\"></a>","id":"a6ahk2s83v2h"},"type":"Feature","geometry":{"type":"Point","coordinates":[-87.75531,42.02627]}},{"properties":{"name":"emilykc","description":"Posted by Xerocint<img src=\"http://media.geocommons.com/platial/img/2009/08/1/ben_linus1.jpg\">san francisco<a title=\"Built for Community Mapping\" href=\"http://www.platial.com\"><img src=\"http://media.geocommons.com/platial/images/logotype_small.jpg\"></a>","id":"a6ahk2qn8yjj"},"type":"Feature","geometry":{"type":"Point","coordinates":[-122.418333,37.775]}},{"properties":{"name":"eruvalar","description":"Posted by Xerocint<img src=\"http://media.geocommons.com/platial/img/2009/08/0/aaaah.jpg\">Saarbrücken<a title=\"Built for Community Mapping\" href=\"http://www.platial.com\"><img src=\"http://media.geocommons.com/platial/images/logotype_small.jpg\"></a>","id":"a6ahk2gcycn3"},"type":"Feature","geometry":{"type":"Point","coordinates":[6.994412,49.234861]}},{"properties":{"name":"evangperry","description":"Posted by XerocintSpring Lake, MI<a title=\"Built for Community Mapping\" href=\"http://www.platial.com\"><img src=\"http://media.geocommons.com/platial/images/logotype_small.jpg\"></a>","id":"a6ahk2ihcmg7"},"type":"Feature","geometry":{"type":"Point","coordinates":[-86.1898,43.07665]}},{"properties":{"name":"f00laid","description":"Posted by Xerocint17070<a title=\"Built for Community Mapping\" href=\"http://www.platial.com\"><img src=\"http://media.geocommons.com/platial/images/logotype_small.jpg\"></a>","id":"a6ahk2llliw4"},"type":"Feature","geometry":{"type":"Point","coordinates":[-76.86014,40.207284]}},{"properties":{"name":"fastswimguy","description":"Posted by Xerocint80525970 FoCo!<a title=\"Built for Community Mapping\" href=\"http://www.platial.com\"><img src=\"http://media.geocommons.com/platial/images/logotype_small.jpg\"></a>","id":"a6ahk2og323a"},"type":"Feature","geometry":{"type":"Point","coordinates":[-105.029619,40.50992]}},{"properties":{"name":"feytus","description":"Posted by Xerocint<img src=\"http://media.geocommons.com/platial/img/2009/08/1/0002.jpg\">OsloWoot!<a title=\"Built for Community Mapping\" href=\"http://www.platial.com\"><img src=\"http://media.geocommons.com/platial/images/logotype_small.jpg\"></a>","id":"a6ahk2t68lju"},"type":"Feature","geometry":{"type":"Point","coordinates":[10.75,59.909999]}},{"properties":{"name":"firztspawn","description":"Posted by Xerocintnew zealand<a title=\"Built for Community Mapping\" href=\"http://www.platial.com\"><img src=\"http://media.geocommons.com/platial/images/logotype_small.jpg\"></a>","id":"a6ahk2ubos35"},"type":"Feature","geometry":{"type":"Point","coordinates":[174.885971,-40.900557]}},{"properties":{"name":"flahflah","description":"Posted by Xerocintclifton park, ny<a title=\"Built for Community Mapping\" href=\"http://www.platial.com\"><img src=\"http://media.geocommons.com/platial/images/logotype_small.jpg\"></a>","id":"a6ahk2lx0d6f"},"type":"Feature","geometry":{"type":"Point","coordinates":[-73.771389,42.865556]}},{"properties":{"name":"floodwaterz","description":"Posted by XerocintColumbus<a title=\"Built for Community Mapping\" href=\"http://www.platial.com\"><img src=\"http://media.geocommons.com/platial/images/logotype_small.jpg\"></a>","id":"a6ahk2pkv3ew"},"type":"Feature","geometry":{"type":"Point","coordinates":[-82.998889,39.961111]}},{"properties":{"name":"frankwilliam","description":"Posted by Xerocint<img src=\"http://media.geocommons.com/platial/img/2009/08/1/lets_go_nice_copy.jpg\">Elvsö, 21710 Korpo, Finlandyo<a title=\"Built for Community Mapping\" href=\"http://www.platial.com\"><img src=\"http://media.geocommons.com/platial/images/logotype_small.jpg\"></a>","id":"a6ahk2r5xk29"},"type":"Feature","geometry":{"type":"Point","coordinates":[21.4645492,60.1379625]}},{"properties":{"name":"frankwilliam","description":"Posted by Xerocint<img src=\"http://media.geocommons.com/platial/img/2009/08/1/lets_go_nice_copy_2_.jpg\">stockholmyo<a title=\"Built for Community Mapping\" href=\"http://www.platial.com\"><img src=\"http://media.geocommons.com/platial/images/logotype_small.jpg\"></a>","id":"a6ahk2fiziyi"},"type":"Feature","geometry":{"type":"Point","coordinates":[18.069999,59.330001]}},{"properties":{"name":"fredrik rannikko","description":"Posted by XerocintguatemalaOr am I ?<a title=\"Built for Community Mapping\" href=\"http://www.platial.com\"><img src=\"http://media.geocommons.com/platial/images/logotype_small.jpg\"></a>","id":"a6ahk2p6hm4a"},"type":"Feature","geometry":{"type":"Point","coordinates":[-90.550003,14.63]}},{"properties":{"name":"fuzzy191","description":"Posted by XerocintSan Antonio<a title=\"Built for Community Mapping\" href=\"http://www.platial.com\"><img src=\"http://media.geocommons.com/platial/images/logotype_small.jpg\"></a>","id":"a6ahk2fqp6ly"},"type":"Feature","geometry":{"type":"Point","coordinates":[-98.493333,29.423889]}},{"properties":{"name":"fvgazi","description":"Posted by Xerocintnorth canton<a title=\"Built for Community Mapping\" href=\"http://www.platial.com\"><img src=\"http://media.geocommons.com/platial/images/logotype_small.jpg\"></a>","id":"a6ahk2h9kb7q"},"type":"Feature","geometry":{"type":"Point","coordinates":[-81.40206,40.87555]}},{"properties":{"name":"fvgazi","description":"Posted by Xerocint<img src=\"http://media.geocommons.com/platial/img/2009/08/1/920058.gif\">north canton<a title=\"Built for Community Mapping\" href=\"http://www.platial.com\"><img src=\"http://media.geocommons.com/platial/images/logotype_small.jpg\"></a>","id":"a6ahk2j1k2vc"},"type":"Feature","geometry":{"type":"Point","coordinates":[-81.40206,40.87555]}},{"properties":{"name":"fwumskompis","description":"Posted by Xerocint<img src=\"http://media.geocommons.com/platial/img/2009/08/0/2720288495.jpg\">stockholm<a title=\"Built for Community Mapping\" href=\"http://www.platial.com\"><img src=\"http://media.geocommons.com/platial/images/logotype_small.jpg\"></a>","id":"a6ahk2hvr0wx"},"type":"Feature","geometry":{"type":"Point","coordinates":[18.069999,59.330001]}},{"properties":{"name":"fwumskompis","description":"Posted by Xerocintstockholm<a title=\"Built for Community Mapping\" href=\"http://www.platial.com\"><img src=\"http://media.geocommons.com/platial/images/logotype_small.jpg\"></a>","id":"a6ahk2mgpt04"},"type":"Feature","geometry":{"type":"Point","coordinates":[18.069999,59.330001]}},{"properties":{"name":"giantsfan7791","description":"Posted by XerocintPaterson<a title=\"Built for Community Mapping\" href=\"http://www.platial.com\"><img src=\"http://media.geocommons.com/platial/images/logotype_small.jpg\"></a>","id":"a6ahk2tarlmb"},"type":"Feature","geometry":{"type":"Point","coordinates":[-74.172222,40.916667]}},{"properties":{"name":"gonets613","description":"Posted by Xerocint07410<a title=\"Built for Community Mapping\" href=\"http://www.platial.com\"><img src=\"http://media.geocommons.com/platial/images/logotype_small.jpg\"></a>","id":"a6ahk2ggf96b"},"type":"Feature","geometry":{"type":"Point","coordinates":[-74.1166,40.934297]}},{"properties":{"name":"hamsterrazor","description":"Posted by XerocintBoston<a title=\"Built for Community Mapping\" href=\"http://www.platial.com\"><img src=\"http://media.geocommons.com/platial/images/logotype_small.jpg\"></a>","id":"a6ahk2u4nzi5"},"type":"Feature","geometry":{"type":"Point","coordinates":[-71.060278,42.358333]}},{"properties":{"name":"hasselblad","description":"Posted by Xerocintvista<a title=\"Built for Community Mapping\" href=\"http://www.platial.com\"><img src=\"http://media.geocommons.com/platial/images/logotype_small.jpg\"></a>","id":"a6ahk2h8d17v"},"type":"Feature","geometry":{"type":"Point","coordinates":[-117.243469,33.201602]}},{"properties":{"name":"hawkon","description":"Posted by Xerocintjakobsli veien<a title=\"Built for Community Mapping\" href=\"http://www.platial.com\"><img src=\"http://media.geocommons.com/platial/images/logotype_small.jpg\"></a>","id":"a6ahk2m0ad8j"},"type":"Feature","geometry":{"type":"Point","coordinates":[10.4950527,63.4199833]}},{"properties":{"name":"headbaker","description":"Posted by Xerocintphilippinessmoke weed everyday!<a title=\"Built for Community Mapping\" href=\"http://www.platial.com\"><img src=\"http://media.geocommons.com/platial/images/logotype_small.jpg\"></a>","id":"a6ahk2oribvo"},"type":"Feature","geometry":{"type":"Point","coordinates":[121.774017,12.879721]}},{"properties":{"name":"howinator","description":"Posted by Xerocint5302 Pine Cliff Dr. Houston, TX 77084<a title=\"Built for Community Mapping\" href=\"http://www.platial.com\"><img src=\"http://media.geocommons.com/platial/images/logotype_small.jpg\"></a>","id":"a6ahk2fyo9gv"},"type":"Feature","geometry":{"type":"Point","coordinates":[-95.63034,29.853446]}},{"properties":{"name":"incvd","description":"Posted by XerocintMelbourne<a title=\"Built for Community Mapping\" href=\"http://www.platial.com\"><img src=\"http://media.geocommons.com/platial/images/logotype_small.jpg\"></a>","id":"a6ahk2mkbepm"},"type":"Feature","geometry":{"type":"Point","coordinates":[144.960006,-37.810001]}},{"properties":{"name":"intemporalis","description":"Posted by Xerocintpatterson ny<a title=\"Built for Community Mapping\" href=\"http://www.platial.com\"><img src=\"http://media.geocommons.com/platial/images/logotype_small.jpg\"></a>","id":"a6ahk2hhiab2"},"type":"Feature","geometry":{"type":"Point","coordinates":[-73.605703,41.513489]}},{"properties":{"name":"iyttahm","description":"Posted by XerocintToluca, México<a title=\"Built for Community Mapping\" href=\"http://www.platial.com\"><img src=\"http://media.geocommons.com/platial/images/logotype_small.jpg\"></a>","id":"a6ahk2if2mnb"},"type":"Feature","geometry":{"type":"Point","coordinates":[-99.646761,19.287867]}},{"properties":{"name":"j01101111sh","description":"Posted by XerocintOmaha<a title=\"Built for Community Mapping\" href=\"http://www.platial.com\"><img src=\"http://media.geocommons.com/platial/images/logotype_small.jpg\"></a>","id":"a6ahk2th7t4n"},"type":"Feature","geometry":{"type":"Point","coordinates":[-95.9375,41.258611]}},{"properties":{"name":"jamieastonis","description":"Posted by XerocintLondon<a title=\"Built for Community Mapping\" href=\"http://www.platial.com\"><img src=\"http://media.geocommons.com/platial/images/logotype_small.jpg\"></a>","id":"a6ahk2ednboy"},"type":"Feature","geometry":{"type":"Point","coordinates":[-0.126197,51.500197]}},{"properties":{"name":"jasari","description":"Posted by Xerocintmilan,ohio<a title=\"Built for Community Mapping\" href=\"http://www.platial.com\"><img src=\"http://media.geocommons.com/platial/images/logotype_small.jpg\"></a>","id":"a6ahk2qq299o"},"type":"Feature","geometry":{"type":"Point","coordinates":[-82.609144,41.296017]}},{"properties":{"name":"jesselne","description":"Posted by XerocintEast lansing<a title=\"Built for Community Mapping\" href=\"http://www.platial.com\"><img src=\"http://media.geocommons.com/platial/images/logotype_small.jpg\"></a>","id":"a6ahk2ks2esc"},"type":"Feature","geometry":{"type":"Point","coordinates":[-84.483889,42.736944]}},{"properties":{"name":"john","description":"Posted by Xerocintmaryland<a title=\"Built for Community Mapping\" href=\"http://www.platial.com\"><img src=\"http://media.geocommons.com/platial/images/logotype_small.jpg\"></a>","id":"a6ahk2qotp8o"},"type":"Feature","geometry":{"type":"Point","coordinates":[-77.0,39.3]}},{"properties":{"name":"joshp123","description":"Posted by Xerocint<img src=\"http://media.geocommons.com/platial/img/2009/08/0/gay_piper_guy_in_pink.PNG\">ng23<a title=\"Built for Community Mapping\" href=\"http://www.platial.com\"><img src=\"http://media.geocommons.com/platial/images/logotype_small.jpg\"></a>","id":"a6ahk2stkxtd"},"type":"Feature","geometry":{"type":"Point","coordinates":[-0.7397643,53.1619157]}},{"properties":{"name":"joshp123","description":"Posted by Xerocintnewark, UKSup, what.cd<a title=\"Built for Community Mapping\" href=\"http://www.platial.com\"><img src=\"http://media.geocommons.com/platial/images/logotype_small.jpg\"></a>","id":"a6ahk2nqpu8p"},"type":"Feature","geometry":{"type":"Point","coordinates":[-0.809788,53.074646]}},{"properties":{"name":"jpscool4u","description":"Posted by Xerocint07666<a title=\"Built for Community Mapping\" href=\"http://www.platial.com\"><img src=\"http://media.geocommons.com/platial/images/logotype_small.jpg\"></a>","id":"a6ahk2kyzxzw"},"type":"Feature","geometry":{"type":"Point","coordinates":[-74.012066,40.888461]}},{"properties":{"name":"jpscool4u","description":"Posted by Xerocint07666<a title=\"Built for Community Mapping\" href=\"http://www.platial.com\"><img src=\"http://media.geocommons.com/platial/images/logotype_small.jpg\"></a>","id":"a6ahk2fwpo9x"},"type":"Feature","geometry":{"type":"Point","coordinates":[-74.012066,40.888461]}},{"properties":{"name":"juju","description":"Posted by Xerocint<img src=\"http://media.geocommons.com/platial/img/2009/08/0/ohsnape2.png\">Somerville, MA<a title=\"Built for Community Mapping\" href=\"http://www.platial.com\"><img src=\"http://media.geocommons.com/platial/images/logotype_small.jpg\"></a>","id":"a6ahk2k810ma"},"type":"Feature","geometry":{"type":"Point","coordinates":[-71.097145,42.389121]}},{"properties":{"name":"keanu","description":"Posted by Xerocint<img src=\"http://media.geocommons.com/platial/img/2009/08/0/1249611937.png\">baltimore<a title=\"Built for Community Mapping\" href=\"http://www.platial.com\"><img src=\"http://media.geocommons.com/platial/images/logotype_small.jpg\"></a>","id":"a6ahk2jvd9c8"},"type":"Feature","geometry":{"type":"Point","coordinates":[-76.6125,39.290278]}},{"properties":{"name":"keevie","description":"Posted by Xerocint10003what<a title=\"Built for Community Mapping\" href=\"http://www.platial.com\"><img src=\"http://media.geocommons.com/platial/images/logotype_small.jpg\"></a>","id":"a6ahk2tvidj3"},"type":"Feature","geometry":{"type":"Point","coordinates":[-73.989223,40.731253]}},{"properties":{"name":"kezia","description":"Posted by Xerocint66062<a title=\"Built for Community Mapping\" href=\"http://www.platial.com\"><img src=\"http://media.geocommons.com/platial/images/logotype_small.jpg\"></a>","id":"a6ahk2olsskc"},"type":"Feature","geometry":{"type":"Point","coordinates":[-94.775168,38.873287]}},{"properties":{"name":"kiwi989","description":"Posted by Xerocint<img src=\"http://media.geocommons.com/platial/img/2009/08/0/whatavi.png\">sydney<a title=\"Built for Community Mapping\" href=\"http://www.platial.com\"><img src=\"http://media.geocommons.com/platial/images/logotype_small.jpg\"></a>","id":"a6ahk2lkactt"},"type":"Feature","geometry":{"type":"Point","coordinates":[151.210006,-33.869998]}},{"properties":{"name":"kiwiyumyum","description":"Posted by Xerocint7786 beachcomber dr huntington beach ca<a title=\"Built for Community Mapping\" href=\"http://www.platial.com\"><img src=\"http://media.geocommons.com/platial/images/logotype_small.jpg\"></a>","id":"a6ahk2u1nry4"},"type":"Feature","geometry":{"type":"Point","coordinates":[-117.992023,33.657899]}},{"properties":{"name":"korrupt","description":"Posted by Xerocint53219<a title=\"Built for Community Mapping\" href=\"http://www.platial.com\"><img src=\"http://media.geocommons.com/platial/images/logotype_small.jpg\"></a>","id":"a6ahk2m5337a"},"type":"Feature","geometry":{"type":"Point","coordinates":[-87.991938,42.996672]}},{"properties":{"name":"korrupt","description":"Posted by XerocintMilwaukee<a title=\"Built for Community Mapping\" href=\"http://www.platial.com\"><img src=\"http://media.geocommons.com/platial/images/logotype_small.jpg\"></a>","id":"a6ahk2r5x2eh"},"type":"Feature","geometry":{"type":"Point","coordinates":[-87.906389,43.038889]}},{"properties":{"name":"kries","description":"Posted by Xerocint<img src=\"http://media.geocommons.com/platial/img/2009/08/0/krieeees.png\">los angelespayaso<a title=\"Built for Community Mapping\" href=\"http://www.platial.com\"><img src=\"http://media.geocommons.com/platial/images/logotype_small.jpg\"></a>","id":"a6ahk2gvpva1"},"type":"Feature","geometry":{"type":"Point","coordinates":[-118.242778,34.052222]}},{"properties":{"name":"kyrole","description":"Posted by Xerocint<img src=\"http://media.geocommons.com/platial/img/2009/08/0/chloe150x150.png\">valparaiso, indianaput an egg in your shoe and beat it!<a title=\"Built for Community Mapping\" href=\"http://www.platial.com\"><img src=\"http://media.geocommons.com/platial/images/logotype_small.jpg\"></a>","id":"a6ahk2k71ygh"},"type":"Feature","geometry":{"type":"Point","coordinates":[-87.061111,41.473056]}},{"properties":{"name":"letskillsamt","description":"Posted by Xerocint<img src=\"http://media.geocommons.com/platial/img/2009/08/0/avatar_rippyhold.jpg\">swindon<a title=\"Built for Community Mapping\" href=\"http://www.platial.com\"><img src=\"http://media.geocommons.com/platial/images/logotype_small.jpg\"></a>","id":"a6ahk2jot650"},"type":"Feature","geometry":{"type":"Point","coordinates":[-1.765775,51.56143]}},{"properties":{"name":"lhnz","description":"Posted by XerocintTN17 4EThiii (:<a title=\"Built for Community Mapping\" href=\"http://www.platial.com\"><img src=\"http://media.geocommons.com/platial/images/logotype_small.jpg\"></a>","id":"a6ahk2nneg1j"},"type":"Feature","geometry":{"type":"Point","coordinates":[0.4707391,51.1210102]}},{"properties":{"name":"lies","description":"Posted by Xerocintdublinrock it!<a title=\"Built for Community Mapping\" href=\"http://www.platial.com\"><img src=\"http://media.geocommons.com/platial/images/logotype_small.jpg\"></a>","id":"a6ahk2oqwl0h"},"type":"Feature","geometry":{"type":"Point","coordinates":[-6.25,53.330001]}},{"properties":{"name":"lightcatcher","description":"Posted by XerocintThe Woodlands, TX<a title=\"Built for Community Mapping\" href=\"http://www.platial.com\"><img src=\"http://media.geocommons.com/platial/images/logotype_small.jpg\"></a>","id":"a6ahk2p1sfl5"},"type":"Feature","geometry":{"type":"Point","coordinates":[-95.489167,30.157778]}},{"properties":{"name":"liquidlip","description":"Posted by Xerocintwhite plains<a title=\"Built for Community Mapping\" href=\"http://www.platial.com\"><img src=\"http://media.geocommons.com/platial/images/logotype_small.jpg\"></a>","id":"a6ahk2kfu5jw"},"type":"Feature","geometry":{"type":"Point","coordinates":[-73.763333,41.033889]}},{"properties":{"name":"lowstrife","description":"Posted by Xerocintwoodstock illinoiswhat.cd?<a title=\"Built for Community Mapping\" href=\"http://www.platial.com\"><img src=\"http://media.geocommons.com/platial/images/logotype_small.jpg\"></a>","id":"a6ahk2pzfezb"},"type":"Feature","geometry":{"type":"Point","coordinates":[-88.436594,42.306727]}},{"properties":{"name":"magnys","description":"Posted by XerocintBodø. Norwayreprezentin the cold north<a title=\"Built for Community Mapping\" href=\"http://www.platial.com\"><img src=\"http://media.geocommons.com/platial/images/logotype_small.jpg\"></a>","id":"a6ahk2srhkn4"},"type":"Feature","geometry":{"type":"Point","coordinates":[14.40501,67.2799991]}},{"properties":{"name":"magnys (university)","description":"Posted by XerocintTrondheim, NorwayBarteby represent!<a title=\"Built for Community Mapping\" href=\"http://www.platial.com\"><img src=\"http://media.geocommons.com/platial/images/logotype_small.jpg\"></a>","id":"a6ahk2f1ybas"},"type":"Feature","geometry":{"type":"Point","coordinates":[10.399999,63.439998]}},{"properties":{"name":"mattman135","description":"Posted by Xerocintkinderhook,ny<a title=\"Built for Community Mapping\" href=\"http://www.platial.com\"><img src=\"http://media.geocommons.com/platial/images/logotype_small.jpg\"></a>","id":"a6ahk2ga02ti"},"type":"Feature","geometry":{"type":"Point","coordinates":[-73.698333,42.395278]}},{"properties":{"name":"mbvglider","description":"Posted by Xerocint92019<a title=\"Built for Community Mapping\" href=\"http://www.platial.com\"><img src=\"http://media.geocommons.com/platial/images/logotype_small.jpg\"></a>","id":"a6ahk2t9h5ko"},"type":"Feature","geometry":{"type":"Point","coordinates":[-116.877461,32.779694]}},{"properties":{"name":"mcBullet","description":"Posted by Xerocintbaltimore<a title=\"Built for Community Mapping\" href=\"http://www.platial.com\"><img src=\"http://media.geocommons.com/platial/images/logotype_small.jpg\"></a>","id":"a6ahk2kai5a7"},"type":"Feature","geometry":{"type":"Point","coordinates":[-76.6125,39.290278]}},{"properties":{"name":"me","description":"Posted by XerocintPisa<a title=\"Built for Community Mapping\" href=\"http://www.platial.com\"><img src=\"http://media.geocommons.com/platial/images/logotype_small.jpg\"></a>","id":"a6ahk2oyj4jo"},"type":"Feature","geometry":{"type":"Point","coordinates":[10.383333,43.716667]}},{"properties":{"name":"me","description":"Posted by Xerocintbracebridge<a title=\"Built for Community Mapping\" href=\"http://www.platial.com\"><img src=\"http://media.geocommons.com/platial/images/logotype_small.jpg\"></a>","id":"a6ahk2nv8hcr"},"type":"Feature","geometry":{"type":"Point","coordinates":[-79.310633,45.041302]}},{"properties":{"name":"mediumfidelity","description":"Posted by Xerocintsyracuse<a title=\"Built for Community Mapping\" href=\"http://www.platial.com\"><img src=\"http://media.geocommons.com/platial/images/logotype_small.jpg\"></a>","id":"a6ahk2naz0d2"},"type":"Feature","geometry":{"type":"Point","coordinates":[-76.147778,43.048056]}},{"properties":{"name":"meidosem","description":"Posted by XerocintBrussels, Belgium<a title=\"Built for Community Mapping\" href=\"http://www.platial.com\"><img src=\"http://media.geocommons.com/platial/images/logotype_small.jpg\"></a>","id":"a6ahk2uom91y"},"type":"Feature","geometry":{"type":"Point","coordinates":[4.329999,50.830001]}},{"properties":{"name":"mess17","description":"Posted by XerocintLondon<a title=\"Built for Community Mapping\" href=\"http://www.platial.com\"><img src=\"http://media.geocommons.com/platial/images/logotype_small.jpg\"></a>","id":"a6ahk2pe0tjl"},"type":"Feature","geometry":{"type":"Point","coordinates":[-0.126197,51.500197]}},{"properties":{"name":"mitchh","description":"Posted by XerocintMilwaukee<a title=\"Built for Community Mapping\" href=\"http://www.platial.com\"><img src=\"http://media.geocommons.com/platial/images/logotype_small.jpg\"></a>","id":"a6ahk2smk5r7"},"type":"Feature","geometry":{"type":"Point","coordinates":[-87.906389,43.038889]}},{"properties":{"name":"mlapaglia","description":"Posted by XerocintWestfield, Indiana<a title=\"Built for Community Mapping\" href=\"http://www.platial.com\"><img src=\"http://media.geocommons.com/platial/images/logotype_small.jpg\"></a>","id":"a6ahk2ngvufw"},"type":"Feature","geometry":{"type":"Point","coordinates":[-86.129741,40.042737]}},{"properties":{"name":"moonty","description":"Posted by Xerocint84720<a title=\"Built for Community Mapping\" href=\"http://www.platial.com\"><img src=\"http://media.geocommons.com/platial/images/logotype_small.jpg\"></a>","id":"a6ahk2jtjnbk"},"type":"Feature","geometry":{"type":"Point","coordinates":[-113.172126,37.811408]}},{"properties":{"name":"moz","description":"Posted by Xerocinthelsinki<a title=\"Built for Community Mapping\" href=\"http://www.platial.com\"><img src=\"http://media.geocommons.com/platial/images/logotype_small.jpg\"></a>","id":"a6ahk2offzqa"},"type":"Feature","geometry":{"type":"Point","coordinates":[24.94,60.169998]}},{"properties":{"name":"moz","description":"Posted by Xerocinthelsinki<a title=\"Built for Community Mapping\" href=\"http://www.platial.com\"><img src=\"http://media.geocommons.com/platial/images/logotype_small.jpg\"></a>","id":"a6ahk2uh27jz"},"type":"Feature","geometry":{"type":"Point","coordinates":[24.94,60.169998]}},{"properties":{"name":"mrralph13","description":"Posted by Xerocintphiladelphia<a title=\"Built for Community Mapping\" href=\"http://www.platial.com\"><img src=\"http://media.geocommons.com/platial/images/logotype_small.jpg\"></a>","id":"a6ahk2n0niu6"},"type":"Feature","geometry":{"type":"Point","coordinates":[-75.164167,39.952222]}},{"properties":{"name":"naimina","description":"Posted by Xerocint<img src=\"http://media.geocommons.com/platial/img/2009/08/0/AT_FIRST_THEN_(notext).PNG\">Örebroparty hard<a title=\"Built for Community Mapping\" href=\"http://www.platial.com\"><img src=\"http://media.geocommons.com/platial/images/logotype_small.jpg\"></a>","id":"a6ahk2sh0n7y"},"type":"Feature","geometry":{"type":"Point","coordinates":[15.011699,59.373467]}},{"properties":{"name":"nestor","description":"Posted by XerocintLondon, Ontariolondon ontario<a title=\"Built for Community Mapping\" href=\"http://www.platial.com\"><img src=\"http://media.geocommons.com/platial/images/logotype_small.jpg\"></a>","id":"a6ahk2sfboax"},"type":"Feature","geometry":{"type":"Point","coordinates":[-81.249659,42.976427]}},{"properties":{"name":"newnoise","description":"Posted by XerocintMount Vernon, WA<a title=\"Built for Community Mapping\" href=\"http://www.platial.com\"><img src=\"http://media.geocommons.com/platial/images/logotype_small.jpg\"></a>","id":"a6ahk2tlubxk"},"type":"Feature","geometry":{"type":"Point","coordinates":[-122.33697,48.42098]}},{"properties":{"name":"newton","description":"Posted by Xerocint77479<a title=\"Built for Community Mapping\" href=\"http://www.platial.com\"><img src=\"http://media.geocommons.com/platial/images/logotype_small.jpg\"></a>","id":"a6ahk2j8do8c"},"type":"Feature","geometry":{"type":"Point","coordinates":[-95.606591,29.578537]}},{"properties":{"name":"olla","description":"Posted by Xerocint<img src=\"http://media.geocommons.com/platial/img/2009/08/0/zn1m6w.jpg\">romania iasiwhat?<a title=\"Built for Community Mapping\" href=\"http://www.platial.com\"><img src=\"http://media.geocommons.com/platial/images/logotype_small.jpg\"></a>","id":"a6ahk2fldzj9"},"type":"Feature","geometry":{"type":"Point","coordinates":[27.5898533,47.1569514]}},{"properties":{"name":"olla","description":"Posted by XerocintIASI^_^<a title=\"Built for Community Mapping\" href=\"http://www.platial.com\"><img src=\"http://media.geocommons.com/platial/images/logotype_small.jpg\"></a>","id":"a6ahk2l866w6"},"type":"Feature","geometry":{"type":"Point","coordinates":[27.338191,47.215846]}},{"properties":{"name":"ols","description":"Posted by Xerocintlaunceston<a title=\"Built for Community Mapping\" href=\"http://www.platial.com\"><img src=\"http://media.geocommons.com/platial/images/logotype_small.jpg\"></a>","id":"a6ahk2m70e0u"},"type":"Feature","geometry":{"type":"Point","coordinates":[147.166672,-41.450001]}},{"properties":{"name":"oneironaut","description":"Posted by Xerocintbethel park pa<a title=\"Built for Community Mapping\" href=\"http://www.platial.com\"><img src=\"http://media.geocommons.com/platial/images/logotype_small.jpg\"></a>","id":"a6ahk2ukonjt"},"type":"Feature","geometry":{"type":"Point","coordinates":[-80.035824,40.327814]}},{"properties":{"name":"past","description":"Posted by Xerocint909 Walker Avenue, Greensboro NC<a title=\"Built for Community Mapping\" href=\"http://www.platial.com\"><img src=\"http://media.geocommons.com/platial/images/logotype_small.jpg\"></a>","id":"a6ahk2egqjm9"},"type":"Feature","geometry":{"type":"Point","coordinates":[-79.80354,36.068018]}},{"properties":{"name":"paul","description":"Posted by XerocintOttawa1337turkey<a title=\"Built for Community Mapping\" href=\"http://www.platial.com\"><img src=\"http://media.geocommons.com/platial/images/logotype_small.jpg\"></a>","id":"a6ahk2s3ew1r"},"type":"Feature","geometry":{"type":"Point","coordinates":[-75.72344,45.352088]}},{"properties":{"name":"peristentglow","description":"Posted by Xerocint<img src=\"http://media.geocommons.com/platial/img/2009/08/1/DSC05979.png\">albuquerque:-)<a title=\"Built for Community Mapping\" href=\"http://www.platial.com\"><img src=\"http://media.geocommons.com/platial/images/logotype_small.jpg\"></a>","id":"a6ahk2qz63qv"},"type":"Feature","geometry":{"type":"Point","coordinates":[-106.650556,35.084444]}},{"properties":{"name":"pjot","description":"Posted by Xerocintstockholm<a title=\"Built for Community Mapping\" href=\"http://www.platial.com\"><img src=\"http://media.geocommons.com/platial/images/logotype_small.jpg\"></a>","id":"a6ahk2gpbp5s"},