{"type":"FeatureCollection","data_type":"Dataset","url_type":null,"permissions":[{"permissions":{"download":true,"view":true},"group_id":"everyone"}],"classification":null,"title":"\nItinerary 2007/08\n","count":119,"stream_id":27074,"contributor":{"url":"http://geocommons.com/users/11444","name":"platial"},"data_attributes":null,"calculation_params":null,"icon_link":null,"link":"http://geocommons.com/overlays/27074.json","extent":[-109.347,-63.4652,41.7261,78.8891],"geometry_types":["point"],"unique_name":null,"name":"\nItinerary 2007/08\n","feature_count":119,"description":"\nA Map by Pthornhill79\n\nMv Discovery Schedule Of Ports 2007/08\n","next_feature":null,"is_raster":false,"short_classification":"Y","stats":{},"features":[{"properties":{"name":"Akureyri, Iceland","description":"Posted by Pthornhill79<a title=\"Built for Community Mapping\" href=\"http://www.platial.com\"><img src=\"http://media.geocommons.com/platial/images/logotype_small.jpg\"></a>","id":"a7c00zymnok2"},"type":"Feature","geometry":{"type":"Point","coordinates":[-17.90771,66.13385]}},{"properties":{"name":"Al Khums, Libya","description":"Posted by Pthornhill79<a title=\"Built for Community Mapping\" href=\"http://www.platial.com\"><img src=\"http://media.geocommons.com/platial/images/logotype_small.jpg\"></a>","id":"a7c0107hbzyw"},"type":"Feature","geometry":{"type":"Point","coordinates":[14.26849,32.64169]}},{"properties":{"name":"Alesund, Norway","description":"Posted by Pthornhill79<a title=\"Built for Community Mapping\" href=\"http://www.platial.com\"><img src=\"http://media.geocommons.com/platial/images/logotype_small.jpg\"></a>","id":"a7c010094s34"},"type":"Feature","geometry":{"type":"Point","coordinates":[6.15234,62.46982]}},{"properties":{"name":"Alexandria, Egypt","description":"Posted by Pthornhill79<a title=\"Built for Community Mapping\" href=\"http://www.platial.com\"><img src=\"http://media.geocommons.com/platial/images/logotype_small.jpg\"></a>","id":"a7c00zvs0jt7"},"type":"Feature","geometry":{"type":"Point","coordinates":[29.899292,31.17991]}},{"properties":{"name":"Almeria, Spain","description":"Posted by Pthornhill79<a title=\"Built for Community Mapping\" href=\"http://www.platial.com\"><img src=\"http://media.geocommons.com/platial/images/logotype_small.jpg\"></a>","id":"a7c0105kv9z6"},"type":"Feature","geometry":{"type":"Point","coordinates":[-2.36986,36.84786]}},{"properties":{"name":"Alter Do Chao, Brazil","description":"Posted by Pthornhill79<a title=\"Built for Community Mapping\" href=\"http://www.platial.com\"><img src=\"http://media.geocommons.com/platial/images/logotype_small.jpg\"></a>","id":"a7c01085lhu7"},"type":"Feature","geometry":{"type":"Point","coordinates":[-54.94949,-2.52055]}},{"properties":{"name":"Amazon, Brazil","description":"Posted by Pthornhill79<a title=\"Built for Community Mapping\" href=\"http://www.platial.com\"><img src=\"http://media.geocommons.com/platial/images/logotype_small.jpg\"></a>","id":"a7c00zyrh8z6"},"type":"Feature","geometry":{"type":"Point","coordinates":[-50.22949,0.87887]}},{"properties":{"name":"Angra Do Heroismo, Azores","description":"Posted by Pthornhill79<a title=\"Built for Community Mapping\" href=\"http://www.platial.com\"><img src=\"http://media.geocommons.com/platial/images/logotype_small.jpg\"></a>","id":"a7c0100fg2ot"},"type":"Feature","geometry":{"type":"Point","coordinates":[-27.25708,38.67693]}},{"properties":{"name":"Antigua","description":"Posted by Pthornhill79<a title=\"Built for Community Mapping\" href=\"http://www.platial.com\"><img src=\"http://media.geocommons.com/platial/images/logotype_small.jpg\"></a>","id":"a7c00zw5gxqa"},"type":"Feature","geometry":{"type":"Point","coordinates":[-61.78711,17.07779]}},{"properties":{"name":"Arctowski Station, King George Island","description":"Posted by Pthornhill79<a title=\"Built for Community Mapping\" href=\"http://www.platial.com\"><img src=\"http://media.geocommons.com/platial/images/logotype_small.jpg\"></a>","id":"a7c00zxbipiq"},"type":"Feature","geometry":{"type":"Point","coordinates":[-58.47473,-62.17576]}},{"properties":{"name":"Arica, Chile","description":"Posted by Pthornhill79<a title=\"Built for Community Mapping\" href=\"http://www.platial.com\"><img src=\"http://media.geocommons.com/platial/images/logotype_small.jpg\"></a>","id":"a7c0103cgc3s"},"type":"Feature","geometry":{"type":"Point","coordinates":[-70.30975,-18.50566]}},{"properties":{"name":"Barbados","description":"Posted by Pthornhill79<a title=\"Built for Community Mapping\" href=\"http://www.platial.com\"><img src=\"http://media.geocommons.com/platial/images/logotype_small.jpg\"></a>","id":"a7c00zxyrq67"},"type":"Feature","geometry":{"type":"Point","coordinates":[-59.56238,13.15973]}},{"properties":{"name":"Batumi, Georgia","description":"Posted by Pthornhill79<a title=\"Built for Community Mapping\" href=\"http://www.platial.com\"><img src=\"http://media.geocommons.com/platial/images/logotype_small.jpg\"></a>","id":"a7c00zv8y9u4"},"type":"Feature","geometry":{"type":"Point","coordinates":[41.726074,41.631867]}},{"properties":{"name":"Belize City, Belize","description":"Posted by Pthornhill79<a title=\"Built for Community Mapping\" href=\"http://www.platial.com\"><img src=\"http://media.geocommons.com/platial/images/logotype_small.jpg\"></a>","id":"a7c01026zx50"},"type":"Feature","geometry":{"type":"Point","coordinates":[-88.19275,17.49215]}},{"properties":{"name":"Benghazi, Libya","description":"Posted by Pthornhill79<a title=\"Built for Community Mapping\" href=\"http://www.platial.com\"><img src=\"http://media.geocommons.com/platial/images/logotype_small.jpg\"></a>","id":"a7c0101igfa5"},"type":"Feature","geometry":{"type":"Point","coordinates":[20.07202,32.10468]}},{"properties":{"name":"Bergen, Norway","description":"Posted by Pthornhill79<a title=\"Built for Community Mapping\" href=\"http://www.platial.com\"><img src=\"http://media.geocommons.com/platial/images/logotype_small.jpg\"></a>","id":"a7c00zuuddlo"},"type":"Feature","geometry":{"type":"Point","coordinates":[5.324764,60.394353]}},{"properties":{"name":"Boca De Valeria, Brazil","description":"Posted by Pthornhill79<a title=\"Built for Community Mapping\" href=\"http://www.platial.com\"><img src=\"http://media.geocommons.com/platial/images/logotype_small.jpg\"></a>","id":"a7c0104y5yhi"},"type":"Feature","geometry":{"type":"Point","coordinates":[-58.18085,-2.85526]}},{"properties":{"name":"Buenos Aires, Argentina","description":"Posted by Pthornhill79Buenos Aires, Argentina<a title=\"Built for Community Mapping\" href=\"http://www.platial.com\"><img src=\"http://media.geocommons.com/platial/images/logotype_small.jpg\"></a>","id":"a7c0102c1541"},"type":"Feature","geometry":{"type":"Point","coordinates":[-58.369998,-34.61]}},{"properties":{"name":"Cape Lookout, Elephant Island","description":"Posted by Pthornhill79<a title=\"Built for Community Mapping\" href=\"http://www.platial.com\"><img src=\"http://media.geocommons.com/platial/images/logotype_small.jpg\"></a>","id":"a7c01024vhw7"},"type":"Feature","geometry":{"type":"Point","coordinates":[-55.15137,-61.12202]}},{"properties":{"name":"Cephalonia/Ithaca, Greece","description":"Posted by Pthornhill79<a title=\"Built for Community Mapping\" href=\"http://www.platial.com\"><img src=\"http://media.geocommons.com/platial/images/logotype_small.jpg\"></a>","id":"a7c00zweehil"},"type":"Feature","geometry":{"type":"Point","coordinates":[20.59937,38.2166]}},{"properties":{"name":"Civitavecchia, Italy","description":"Posted by Pthornhill79<a title=\"Built for Community Mapping\" href=\"http://www.platial.com\"><img src=\"http://media.geocommons.com/platial/images/logotype_small.jpg\"></a>","id":"a7c0107ldu32"},"type":"Feature","geometry":{"type":"Point","coordinates":[11.78799,42.09351]}},{"properties":{"name":"Constanza, Romania","description":"Posted by Pthornhill79Romania<a title=\"Built for Community Mapping\" href=\"http://www.platial.com\"><img src=\"http://media.geocommons.com/platial/images/logotype_small.jpg\"></a>","id":"a7c00zwux7sg"},"type":"Feature","geometry":{"type":"Point","coordinates":[28.806152,44.887012]}},{"properties":{"name":"Copenhagen, Denmark","description":"Posted by Pthornhill79Copenhagen<a title=\"Built for Community Mapping\" href=\"http://www.platial.com\"><img src=\"http://media.geocommons.com/platial/images/logotype_small.jpg\"></a>","id":"a7c0100u5pba"},"type":"Feature","geometry":{"type":"Point","coordinates":[12.569999,55.68]}},{"properties":{"name":"Coronation Island, South Orkney Islands","description":"Posted by Pthornhill79<a title=\"Built for Community Mapping\" href=\"http://www.platial.com\"><img src=\"http://media.geocommons.com/platial/images/logotype_small.jpg\"></a>","id":"a7c0107uahkj"},"type":"Feature","geometry":{"type":"Point","coordinates":[-45.57129,-60.57617]}},{"properties":{"name":"Curacao, Netherlands Antilles","description":"Posted by Pthornhill79<a title=\"Built for Community Mapping\" href=\"http://www.platial.com\"><img src=\"http://media.geocommons.com/platial/images/logotype_small.jpg\"></a>","id":"a7c00zxb5p81"},"type":"Feature","geometry":{"type":"Point","coordinates":[-68.933716,12.12795]}},{"properties":{"name":"Deception Island, Antarctica","description":"Posted by Pthornhill79<a title=\"Built for Community Mapping\" href=\"http://www.platial.com\"><img src=\"http://media.geocommons.com/platial/images/logotype_small.jpg\"></a>","id":"a7c0106ogg5k"},"type":"Feature","geometry":{"type":"Point","coordinates":[-60.6665,-62.96521]}},{"properties":{"name":"Devil's Island, French Guiana","description":"Posted by Pthornhill79<a title=\"Built for Community Mapping\" href=\"http://www.platial.com\"><img src=\"http://media.geocommons.com/platial/images/logotype_small.jpg\"></a>","id":"a7c010248gvu"},"type":"Feature","geometry":{"type":"Point","coordinates":[-52.31689,4.78447]}},{"properties":{"name":"Dubrovnik, Croatia","description":"Posted by Pthornhill79<a title=\"Built for Community Mapping\" href=\"http://www.platial.com\"><img src=\"http://media.geocommons.com/platial/images/logotype_small.jpg\"></a>","id":"a7c0106022o2"},"type":"Feature","geometry":{"type":"Point","coordinates":[18.108215,42.638]}},{"properties":{"name":"Easter Island","description":"Posted by Pthornhill79<a title=\"Built for Community Mapping\" href=\"http://www.platial.com\"><img src=\"http://media.geocommons.com/platial/images/logotype_small.jpg\"></a>","id":"a7c00zvpb6w9"},"type":"Feature","geometry":{"type":"Point","coordinates":[-109.34692,-27.14714]}},{"properties":{"name":"Elsehul Bay, South Georgia","description":"Posted by Pthornhill79<a title=\"Built for Community Mapping\" href=\"http://www.platial.com\"><img src=\"http://media.geocommons.com/platial/images/logotype_small.jpg\"></a>","id":"a7c00zygxzh8"},"type":"Feature","geometry":{"type":"Point","coordinates":[-37.88635,-54.02068]}},{"properties":{"name":"Flam/Gudvangen, Norway","description":"Posted by Pthornhill79Flam<a title=\"Built for Community Mapping\" href=\"http://www.platial.com\"><img src=\"http://media.geocommons.com/platial/images/logotype_small.jpg\"></a>","id":"a7c01042zsgb"},"type":"Feature","geometry":{"type":"Point","coordinates":[7.113991,60.858121]}},{"properties":{"name":"Fort Amador, Panama","description":"Posted by Pthornhill79<a title=\"Built for Community Mapping\" href=\"http://www.platial.com\"><img src=\"http://media.geocommons.com/platial/images/logotype_small.jpg\"></a>","id":"a7c0105ie9ac"},"type":"Feature","geometry":{"type":"Point","coordinates":[-79.55063,8.92984]}},{"properties":{"name":"Funchal, Madeira","description":"Posted by Pthornhill79<a title=\"Built for Community Mapping\" href=\"http://www.platial.com\"><img src=\"http://media.geocommons.com/platial/images/logotype_small.jpg\"></a>","id":"a7c00zyd4qr4"},"type":"Feature","geometry":{"type":"Point","coordinates":[-16.9931,32.71798]}},{"properties":{"name":"Gdynia, Poland","description":"Posted by Pthornhill79Gdynia<a title=\"Built for Community Mapping\" href=\"http://www.platial.com\"><img src=\"http://media.geocommons.com/platial/images/logotype_small.jpg\"></a>","id":"a7c0104vawjy"},"type":"Feature","geometry":{"type":"Point","coordinates":[18.55728,54.484]}},{"properties":{"name":"Geiranger/Hellesylt, Norway","description":"Posted by Pthornhill79<a title=\"Built for Community Mapping\" href=\"http://www.platial.com\"><img src=\"http://media.geocommons.com/platial/images/logotype_small.jpg\"></a>","id":"a7c0107qrtta"},"type":"Feature","geometry":{"type":"Point","coordinates":[7.207718,62.09826]}},{"properties":{"name":"Gibraltar, Portugal","description":"Posted by Pthornhill79<a title=\"Built for Community Mapping\" href=\"http://www.platial.com\"><img src=\"http://media.geocommons.com/platial/images/logotype_small.jpg\"></a>","id":"a7c0107dxr8v"},"type":"Feature","geometry":{"type":"Point","coordinates":[-5.348969,36.14951]}},{"properties":{"name":"Gold Harbour, South Georgia","description":"Posted by Pthornhill79<a title=\"Built for Community Mapping\" href=\"http://www.platial.com\"><img src=\"http://media.geocommons.com/platial/images/logotype_small.jpg\"></a>","id":"a7c0109wgukr"},"type":"Feature","geometry":{"type":"Point","coordinates":[-35.94177,-54.66112]}},{"properties":{"name":"Grenada","description":"Posted by Pthornhill79<a title=\"Built for Community Mapping\" href=\"http://www.platial.com\"><img src=\"http://media.geocommons.com/platial/images/logotype_small.jpg\"></a>","id":"a7c00zx8ohaa"},"type":"Feature","geometry":{"type":"Point","coordinates":[-61.67175,12.11452]}},{"properties":{"name":"Grytviken, South Georgia","description":"Posted by Pthornhill79<a title=\"Built for Community Mapping\" href=\"http://www.platial.com\"><img src=\"http://media.geocommons.com/platial/images/logotype_small.jpg\"></a>","id":"a7c00zx8iklg"},"type":"Feature","geometry":{"type":"Point","coordinates":[-36.50208,-54.28447]}},{"properties":{"name":"Half Moon Island, Antarctica","description":"Posted by Pthornhill79<a title=\"Built for Community Mapping\" href=\"http://www.platial.com\"><img src=\"http://media.geocommons.com/platial/images/logotype_small.jpg\"></a>","id":"a7c0100f04yk"},"type":"Feature","geometry":{"type":"Point","coordinates":[-59.87549,-62.62872]}},{"properties":{"name":"Harwich, UK","description":"Posted by Pthornhill79Harwich, Base Port<a title=\"Built for Community Mapping\" href=\"http://www.platial.com\"><img src=\"http://media.geocommons.com/platial/images/logotype_small.jpg\"></a>","id":"a7c010a6aic9"},"type":"Feature","geometry":{"type":"Point","coordinates":[1.2854,51.9358]}},{"properties":{"name":"Havana, Cuba","description":"Posted by Pthornhill79<a title=\"Built for Community Mapping\" href=\"http://www.platial.com\"><img src=\"http://media.geocommons.com/platial/images/logotype_small.jpg\"></a>","id":"a7c00zvca9mv"},"type":"Feature","geometry":{"type":"Point","coordinates":[-82.298584,23.103734]}},{"properties":{"name":"Heimaey, Iceland","description":"Posted by Pthornhill79<a title=\"Built for Community Mapping\" href=\"http://www.platial.com\"><img src=\"http://media.geocommons.com/platial/images/logotype_small.jpg\"></a>","id":"a7c00zylkq16"},"type":"Feature","geometry":{"type":"Point","coordinates":[-20.27664,63.42656]}},{"properties":{"name":"Honningsvag, Norway","description":"Posted by Pthornhill79<a title=\"Built for Community Mapping\" href=\"http://www.platial.com\"><img src=\"http://media.geocommons.com/platial/images/logotype_small.jpg\"></a>","id":"a7c0102qcp1c"},"type":"Feature","geometry":{"type":"Point","coordinates":[25.95039,71.02159]}},{"properties":{"name":"Hope Bay, Antarctica","description":"Posted by Pthornhill79<a title=\"Built for Community Mapping\" href=\"http://www.platial.com\"><img src=\"http://media.geocommons.com/platial/images/logotype_small.jpg\"></a>","id":"a7c0102ettdt"},"type":"Feature","geometry":{"type":"Point","coordinates":[-57.19482,-63.31268]}},{"properties":{"name":"Horta, Azores","description":"Posted by Pthornhill79<a title=\"Built for Community Mapping\" href=\"http://www.platial.com\"><img src=\"http://media.geocommons.com/platial/images/logotype_small.jpg\"></a>","id":"a7c01078bcz8"},"type":"Feature","geometry":{"type":"Point","coordinates":[-28.67981,38.57823]}},{"properties":{"name":"Hvar, Croatia","description":"Posted by Pthornhill79<a title=\"Built for Community Mapping\" href=\"http://www.platial.com\"><img src=\"http://media.geocommons.com/platial/images/logotype_small.jpg\"></a>","id":"a7c00zud2hqj"},"type":"Feature","geometry":{"type":"Point","coordinates":[16.452026,43.173135]}},{"properties":{"name":"Ilulissat, Greenland","description":"Posted by Pthornhill79<a title=\"Built for Community Mapping\" href=\"http://www.platial.com\"><img src=\"http://media.geocommons.com/platial/images/logotype_small.jpg\"></a>","id":"a7c0100dnl8v"},"type":"Feature","geometry":{"type":"Point","coordinates":[-50.97656,69.1938]}},{"properties":{"name":"Isafjordhur, Iceland","description":"Posted by Pthornhill79<a title=\"Built for Community Mapping\" href=\"http://www.platial.com\"><img src=\"http://media.geocommons.com/platial/images/logotype_small.jpg\"></a>","id":"a7c00zy1ew2m"},"type":"Feature","geometry":{"type":"Point","coordinates":[-23.75244,66.00909]}},{"properties":{"name":"Istanbul, Turkey","description":"Posted by Pthornhill79<a title=\"Built for Community Mapping\" href=\"http://www.platial.com\"><img src=\"http://media.geocommons.com/platial/images/logotype_small.jpg\"></a>","id":"a7c00zwtn5pk"},"type":"Feature","geometry":{"type":"Point","coordinates":[28.9736938477,41.0503595193]}},{"properties":{"name":"King George Island, Antarctica","description":"Posted by Pthornhill79<a title=\"Built for Community Mapping\" href=\"http://www.platial.com\"><img src=\"http://media.geocommons.com/platial/images/logotype_small.jpg\"></a>","id":"a7c00zzttpeg"},"type":"Feature","geometry":{"type":"Point","coordinates":[-58.9856,-62.21932]}},{"properties":{"name":"Kirkwall, Orkney Islands","description":"Posted by Pthornhill79<a title=\"Built for Community Mapping\" href=\"http://www.platial.com\"><img src=\"http://media.geocommons.com/platial/images/logotype_small.jpg\"></a>","id":"a7c01020v6cp"},"type":"Feature","geometry":{"type":"Point","coordinates":[-2.957726,58.98293]}},{"properties":{"name":"Koper, Slovenia","description":"Posted by Pthornhill79<a title=\"Built for Community Mapping\" href=\"http://www.platial.com\"><img src=\"http://media.geocommons.com/platial/images/logotype_small.jpg\"></a>","id":"a7c0101doue9"},"type":"Feature","geometry":{"type":"Point","coordinates":[13.72948,45.54651]}},{"properties":{"name":"Korsor, Denmark","description":"Posted by Pthornhill79<a title=\"Built for Community Mapping\" href=\"http://www.platial.com\"><img src=\"http://media.geocommons.com/platial/images/logotype_small.jpg\"></a>","id":"a7c010319tdx"},"type":"Feature","geometry":{"type":"Point","coordinates":[11.13808,55.3311]}},{"properties":{"name":"La Goulette, Tunisia","description":"Posted by Pthornhill79<a title=\"Built for Community Mapping\" href=\"http://www.platial.com\"><img src=\"http://media.geocommons.com/platial/images/logotype_small.jpg\"></a>","id":"a7c0108xgyq4"},"type":"Feature","geometry":{"type":"Point","coordinates":[11.0083,35.42487]}},{"properties":{"name":"Leknes, Norway","description":"Posted by Pthornhill79<a title=\"Built for Community Mapping\" href=\"http://www.platial.com\"><img src=\"http://media.geocommons.com/platial/images/logotype_small.jpg\"></a>","id":"a7c0100s6lna"},"type":"Feature","geometry":{"type":"Point","coordinates":[13.63266,68.13604]}},{"properties":{"name":"Lerwick, Shetland Islands","description":"Posted by Pthornhill79<a title=\"Built for Community Mapping\" href=\"http://www.platial.com\"><img src=\"http://media.geocommons.com/platial/images/logotype_small.jpg\"></a>","id":"a7c01070qj6t"},"type":"Feature","geometry":{"type":"Point","coordinates":[-1.150131,60.1521]}},{"properties":{"name":"Lima, Peru","description":"Posted by Pthornhill79Lima, Peru<a title=\"Built for Community Mapping\" href=\"http://www.platial.com\"><img src=\"http://media.geocommons.com/platial/images/logotype_small.jpg\"></a>","id":"a7c0107w5hf6"},"type":"Feature","geometry":{"type":"Point","coordinates":[-77.050003,-12.069999]}},{"properties":{"name":"Lisbon, Portugal","description":"Posted by Pthornhill79<a title=\"Built for Community Mapping\" href=\"http://www.platial.com\"><img src=\"http://media.geocommons.com/platial/images/logotype_small.jpg\"></a>","id":"a7c00zw960qh"},"type":"Feature","geometry":{"type":"Point","coordinates":[-9.1344,38.70658]}},{"properties":{"name":"Livorno, Italy","description":"Posted by Pthornhill79<a title=\"Built for Community Mapping\" href=\"http://www.platial.com\"><img src=\"http://media.geocommons.com/platial/images/logotype_small.jpg\"></a>","id":"a7c00zxq8dxm"},"type":"Feature","geometry":{"type":"Point","coordinates":[10.31342,43.55054]}},{"properties":{"name":"Longyearbyen, Spitzbergen","description":"Posted by Pthornhill79<a title=\"Built for Community Mapping\" href=\"http://www.platial.com\"><img src=\"http://media.geocommons.com/platial/images/logotype_small.jpg\"></a>","id":"a7c01008kz80"},"type":"Feature","geometry":{"type":"Point","coordinates":[15.75439,78.2133]}},{"properties":{"name":"Manaus, Brazil","description":"Posted by Pthornhill79<a title=\"Built for Community Mapping\" href=\"http://www.platial.com\"><img src=\"http://media.geocommons.com/platial/images/logotype_small.jpg\"></a>","id":"a7c00zug5nri"},"type":"Feature","geometry":{"type":"Point","coordinates":[-60.01556,-3.11309]}},{"properties":{"name":"Manta, Ecuador","description":"Posted by Pthornhill79<a title=\"Built for Community Mapping\" href=\"http://www.platial.com\"><img src=\"http://media.geocommons.com/platial/images/logotype_small.jpg\"></a>","id":"a7c0108n0a7e"},"type":"Feature","geometry":{"type":"Point","coordinates":[-80.722046,-0.955766]}},{"properties":{"name":"Messina, Italy","description":"Posted by Pthornhill79<a title=\"Built for Community Mapping\" href=\"http://www.platial.com\"><img src=\"http://media.geocommons.com/platial/images/logotype_small.jpg\"></a>","id":"a7c0106uvn16"},"type":"Feature","geometry":{"type":"Point","coordinates":[15.556641,38.192863]}},{"properties":{"name":"Montego Bay, Jamaica","description":"Posted by Pthornhill79Montego Bay jamaica<a title=\"Built for Community Mapping\" href=\"http://www.platial.com\"><img src=\"http://media.geocommons.com/platial/images/logotype_small.jpg\"></a>","id":"a7c00zz6xa7w"},"type":"Feature","geometry":{"type":"Point","coordinates":[-77.917356,18.498575]}},{"properties":{"name":"Montevideo, Uruguay","description":"Posted by Pthornhill79<a title=\"Built for Community Mapping\" href=\"http://www.platial.com\"><img src=\"http://media.geocommons.com/platial/images/logotype_small.jpg\"></a>","id":"a7c0103n6one"},"type":"Feature","geometry":{"type":"Point","coordinates":[-56.16898,-34.85889]}},{"properties":{"name":"Mykonos, Greece","description":"Posted by Pthornhill79<a title=\"Built for Community Mapping\" href=\"http://www.platial.com\"><img src=\"http://media.geocommons.com/platial/images/logotype_small.jpg\"></a>","id":"a7c01019enjp"},"type":"Feature","geometry":{"type":"Point","coordinates":[25.36331,37.44761]}},{"properties":{"name":"Narsarsuaq, Greenland","description":"Posted by Pthornhill79<a title=\"Built for Community Mapping\" href=\"http://www.platial.com\"><img src=\"http://media.geocommons.com/platial/images/logotype_small.jpg\"></a>","id":"a7c00zyahmr1"},"type":"Feature","geometry":{"type":"Point","coordinates":[-45.37354,61.08751]}},{"properties":{"name":"Nesebur, Bulgaria","description":"Posted by Pthornhill79<a title=\"Built for Community Mapping\" href=\"http://www.platial.com\"><img src=\"http://media.geocommons.com/platial/images/logotype_small.jpg\"></a>","id":"a7c0101oqia1"},"type":"Feature","geometry":{"type":"Point","coordinates":[27.70958,42.66376]}},{"properties":{"name":"Nice, France","description":"Posted by Pthornhill79Nice, France<a title=\"Built for Community Mapping\" href=\"http://www.platial.com\"><img src=\"http://media.geocommons.com/platial/images/logotype_small.jpg\"></a>","id":"a7c01028x0c3"},"type":"Feature","geometry":{"type":"Point","coordinates":[7.266274,43.703393]}},{"properties":{"name":"Nuuk, Greenland","description":"Posted by Pthornhill79<a title=\"Built for Community Mapping\" href=\"http://www.platial.com\"><img src=\"http://media.geocommons.com/platial/images/logotype_small.jpg\"></a>","id":"a7c01081rf4p"},"type":"Feature","geometry":{"type":"Point","coordinates":[-51.96533,64.18725]}},{"properties":{"name":"Ny Alesund, Spitzbergen","description":"Posted by Pthornhill79<a title=\"Built for Community Mapping\" href=\"http://www.platial.com\"><img src=\"http://media.geocommons.com/platial/images/logotype_small.jpg\"></a>","id":"a7c0108o30wj"},"type":"Feature","geometry":{"type":"Point","coordinates":[12.19482,78.88912]}},{"properties":{"name":"Odessa, Ukraine","description":"Posted by Pthornhill79<a title=\"Built for Community Mapping\" href=\"http://www.platial.com\"><img src=\"http://media.geocommons.com/platial/images/logotype_small.jpg\"></a>","id":"a7c010785lcx"},"type":"Feature","geometry":{"type":"Point","coordinates":[30.74661,46.46246]}},{"properties":{"name":"Parintins, Brazil","description":"Posted by Pthornhill79<a title=\"Built for Community Mapping\" href=\"http://www.platial.com\"><img src=\"http://media.geocommons.com/platial/images/logotype_small.jpg\"></a>","id":"a7c00zxy2cv7"},"type":"Feature","geometry":{"type":"Point","coordinates":[-56.73889,-2.64128]}},{"properties":{"name":"Ponta Delgada, Azores","description":"Posted by Pthornhill79<a title=\"Built for Community Mapping\" href=\"http://www.platial.com\"><img src=\"http://media.geocommons.com/platial/images/logotype_small.jpg\"></a>","id":"a7c00zyumtip"},"type":"Feature","geometry":{"type":"Point","coordinates":[-25.65857,37.74466]}},{"properties":{"name":"Port Stanley, Falkland Islands","description":"Posted by Pthornhill79<a title=\"Built for Community Mapping\" href=\"http://www.platial.com\"><img src=\"http://media.geocommons.com/platial/images/logotype_small.jpg\"></a>","id":"a7c0101nxgez"},"type":"Feature","geometry":{"type":"Point","coordinates":[-57.83478,-51.70491]}},{"properties":{"name":"Portofino, Italy","description":"Posted by Pthornhill79<a title=\"Built for Community Mapping\" href=\"http://www.platial.com\"><img src=\"http://media.geocommons.com/platial/images/logotype_small.jpg\"></a>","id":"a7c010aixlm7"},"type":"Feature","geometry":{"type":"Point","coordinates":[9.209461,44.303121]}},{"properties":{"name":"Puerto Cortes, Honduras","description":"Posted by Pthornhill79<a title=\"Built for Community Mapping\" href=\"http://www.platial.com\"><img src=\"http://media.geocommons.com/platial/images/logotype_small.jpg\"></a>","id":"a7c0101opr48"},"type":"Feature","geometry":{"type":"Point","coordinates":[-87.9483,15.83982]}},{"properties":{"name":"Puerto Limon, Costa Rica","description":"Posted by Pthornhill79<a title=\"Built for Community Mapping\" href=\"http://www.platial.com\"><img src=\"http://media.geocommons.com/platial/images/logotype_small.jpg\"></a>","id":"a7c0109b3i6f"},"type":"Feature","geometry":{"type":"Point","coordinates":[-83.05939,9.9932]}},{"properties":{"name":"Puerto Montt, Chile","description":"Posted by Pthornhill79<a title=\"Built for Community Mapping\" href=\"http://www.platial.com\"><img src=\"http://media.geocommons.com/platial/images/logotype_small.jpg\"></a>","id":"a7c010934jm8"},"type":"Feature","geometry":{"type":"Point","coordinates":[-72.85034,-41.45096]}},{"properties":{"name":"Punta Arenas, Chile","description":"Posted by Pthornhill79<a title=\"Built for Community Mapping\" href=\"http://www.platial.com\"><img src=\"http://media.geocommons.com/platial/images/logotype_small.jpg\"></a>","id":"a7c00zz1cchw"},"type":"Feature","geometry":{"type":"Point","coordinates":[-70.96069,-53.21919]}},{"properties":{"name":"Recife, Brazil","description":"Posted by Pthornhill79<a title=\"Built for Community Mapping\" href=\"http://www.platial.com\"><img src=\"http://media.geocommons.com/platial/images/logotype_small.jpg\"></a>","id":"a7c0100ky1qw"},"type":"Feature","geometry":{"type":"Point","coordinates":[-34.92554,-8.07011]}},{"properties":{"name":"Reykjavik, Iceland","description":"Posted by Pthornhill79reykjavik, Iceland<a title=\"Built for Community Mapping\" href=\"http://www.platial.com\"><img src=\"http://media.geocommons.com/platial/images/logotype_small.jpg\"></a>","id":"a7c010aaqs3m"},"type":"Feature","geometry":{"type":"Point","coordinates":[-21.891632,64.142364]}},{"properties":{"name":"Rio De Janeiro, Brazil","description":"Posted by Pthornhill79<a title=\"Built for Community Mapping\" href=\"http://www.platial.com\"><img src=\"http://media.geocommons.com/platial/images/logotype_small.jpg\"></a>","id":"a7c00zwftfpy"},"type":"Feature","geometry":{"type":"Point","coordinates":[-43.30811,-23.01402]}},{"properties":{"name":"Robinson Crusoe Island","description":"Posted by Pthornhill79<a title=\"Built for Community Mapping\" href=\"http://www.platial.com\"><img src=\"http://media.geocommons.com/platial/images/logotype_small.jpg\"></a>","id":"a7c00zzb62s6"},"type":"Feature","geometry":{"type":"Point","coordinates":[-78.87085,-33.63749]}},{"properties":{"name":"Salvador, Brazil","description":"Posted by Pthornhill79<a title=\"Built for Community Mapping\" href=\"http://www.platial.com\"><img src=\"http://media.geocommons.com/platial/images/logotype_small.jpg\"></a>","id":"a7c00zyl5xpm"},"type":"Feature","geometry":{"type":"Point","coordinates":[-38.71582,-13.04737]}},{"properties":{"name":"San Blas Islands, Panama","description":"Posted by Pthornhill79<a title=\"Built for Community Mapping\" href=\"http://www.platial.com\"><img src=\"http://media.geocommons.com/platial/images/logotype_small.jpg\"></a>","id":"a7c00zzkwn9e"},"type":"Feature","geometry":{"type":"Point","coordinates":[-79.6344,9.56283]}},{"properties":{"name":"San Cristobal, Galapagos Islands","description":"Posted by Pthornhill79<a title=\"Built for Community Mapping\" href=\"http://www.platial.com\"><img src=\"http://media.geocommons.com/platial/images/logotype_small.jpg\"></a>","id":"a7c00zx2eeph"},"type":"Feature","geometry":{"type":"Point","coordinates":[-89.56055,-0.88986]}},{"properties":{"name":"Santarem, Brazil","description":"Posted by Pthornhill79<a title=\"Built for Community Mapping\" href=\"http://www.platial.com\"><img src=\"http://media.geocommons.com/platial/images/logotype_small.jpg\"></a>","id":"a7c00zv8c3g9"},"type":"Feature","geometry":{"type":"Point","coordinates":[-54.73389,-2.45469]}},{"properties":{"name":"Santiago de Cuba, Cuba","description":"Posted by Pthornhill79<a title=\"Built for Community Mapping\" href=\"http://www.platial.com\"><img src=\"http://media.geocommons.com/platial/images/logotype_small.jpg\"></a>","id":"a7c0107q4hvz"},"type":"Feature","geometry":{"type":"Point","coordinates":[-75.870833,19.966667]}},{"properties":{"name":"Santiago, Chile","description":"Posted by Pthornhill79<a title=\"Built for Community Mapping\" href=\"http://www.platial.com\"><img src=\"http://media.geocommons.com/platial/images/logotype_small.jpg\"></a>","id":"a7c0107aqk85"},"type":"Feature","geometry":{"type":"Point","coordinates":[-71.61438,-30.79847]}},{"properties":{"name":"Santorini, Greece","description":"Posted by Pthornhill79<a title=\"Built for Community Mapping\" href=\"http://www.platial.com\"><img src=\"http://media.geocommons.com/platial/images/logotype_small.jpg\"></a>","id":"a7c00zyaqrtm"},"type":"Feature","geometry":{"type":"Point","coordinates":[25.39318,36.40249]}},{"properties":{"name":"Sao Vicente, Cape Verde Islands","description":"Posted by Pthornhill79<a title=\"Built for Community Mapping\" href=\"http://www.platial.com\"><img src=\"http://media.geocommons.com/platial/images/logotype_small.jpg\"></a>","id":"a7c0103fyyem"},"type":"Feature","geometry":{"type":"Point","coordinates":[-24.96094,16.82557]}},{"properties":{"name":"Sevastopol, Ukraine","description":"Posted by Pthornhill79<a title=\"Built for Community Mapping\" href=\"http://www.platial.com\"><img src=\"http://media.geocommons.com/platial/images/logotype_small.jpg\"></a>","id":"a7c0102a8692"},"type":"Feature","geometry":{"type":"Point","coordinates":[33.52959,44.60025]}},{"properties":{"name":"Seydhisfjordur, Iceland","description":"Posted by Pthornhill79<a title=\"Built for Community Mapping\" href=\"http://www.platial.com\"><img src=\"http://media.geocommons.com/platial/images/logotype_small.jpg\"></a>","id":"a7c0108e20kr"},"type":"Feature","geometry":{"type":"Point","coordinates":[-13.98285,65.24981]}},{"properties":{"name":"Sisimiut, Greenland","description":"Posted by Pthornhill79<a title=\"Built for Community Mapping\" href=\"http://www.platial.com\"><img src=\"http://media.geocommons.com/platial/images/logotype_small.jpg\"></a>","id":"a7c00zv99jgq"},"type":"Feature","geometry":{"type":"Point","coordinates":[-53.81104,67.04173]}},{"properties":{"name":"Sochi, Russia","description":"Posted by Pthornhill79<a title=\"Built for Community Mapping\" href=\"http://www.platial.com\"><img src=\"http://media.geocommons.com/platial/images/logotype_small.jpg\"></a>","id":"a7c0105o93qt"},"type":"Feature","geometry":{"type":"Point","coordinates":[39.19922,43.99281]}},{"properties":{"name":"Sorrento, Italy","description":"Posted by Pthornhill79sorrento italy<a title=\"Built for Community Mapping\" href=\"http://www.platial.com\"><img src=\"http://media.geocommons.com/platial/images/logotype_small.jpg\"></a>","id":"a7c0101hr099"},"type":"Feature","geometry":{"type":"Point","coordinates":[14.375738,40.626322]}},{"properties":{"name":"St Lucia","description":"Posted by Pthornhill79<a title=\"Built for Community Mapping\" href=\"http://www.platial.com\"><img src=\"http://media.geocommons.com/platial/images/logotype_small.jpg\"></a>","id":"a7c0109f7fdm"},"type":"Feature","geometry":{"type":"Point","coordinates":[-60.96863,13.88608]}},{"properties":{"name":"St Petersburg, Russia","description":"Posted by Pthornhill79<a title=\"Built for Community Mapping\" href=\"http://www.platial.com\"><img src=\"http://media.geocommons.com/platial/images/logotype_small.jpg\"></a>","id":"a7c0107kovif"},"type":"Feature","geometry":{"type":"Point","coordinates":[30.25909,59.94951]}},{"properties":{"name":"St Vincent","description":"Posted by Pthornhill79<a title=\"Built for Community Mapping\" href=\"http://www.platial.com\"><img src=\"http://media.geocommons.com/platial/images/logotype_small.jpg\"></a>","id":"a7c0103md5h9"},"type":"Feature","geometry":{"type":"Point","coordinates":[-61.18286,13.22925]}},{"properties":{"name":"Stockholm","description":"Posted by Pthornhill79Stockholm, Sweden<a title=\"Built for Community Mapping\" href=\"http://www.platial.com\"><img src=\"http://media.geocommons.com/platial/images/logotype_small.jpg\"></a>","id":"a7c0107nz6h8"},"type":"Feature","geometry":{"type":"Point","coordinates":[18.070707,59.329556]}},{"properties":{"name":"Tallinn, Estonia","description":"Posted by Pthornhill79Tallinn<a title=\"Built for Community Mapping\" href=\"http://www.platial.com\"><img src=\"http://media.geocommons.com/platial/images/logotype_small.jpg\"></a>","id":"a7c01050yoij"},"type":"Feature","geometry":{"type":"Point","coordinates":[24.66431,59.40596]}},{"properties":{"name":"Tobago","description":"Posted by Pthornhill79<a title=\"Built for Community Mapping\" href=\"http://www.platial.com\"><img src=\"http://media.geocommons.com/platial/images/logotype_small.jpg\"></a>","id":"a7c00zv51kaa"},"type":"Feature","geometry":{"type":"Point","coordinates":[-60.633545,11.243062]}},{"properties":{"name":"Torshavn, Faroe Islands","description":"Posted by Pthornhill79<a title=\"Built for Community Mapping\" href=\"http://www.platial.com\"><img src=\"http://media.geocommons.com/platial/images/logotype_small.jpg\"></a>","id":"a7c00zv6jpf8"},"type":"Feature","geometry":{"type":"Point","coordinates":[-6.70166,62.14498]}},{"properties":{"name":"Trabzon Province","description":"Posted by Pthornhill79<a title=\"Built for Community Mapping\" href=\"http://www.platial.com\"><img src=\"http://media.geocommons.com/platial/images/logotype_small.jpg\"></a>","id":"a7c0107rlqew"},"type":"Feature","geometry":{"type":"Point","coordinates":[39.433022,41.10238]}},{"properties":{"name":"Trinidad","description":"Posted by Pthornhill79<a title=\"Built for Community Mapping\" href=\"http://www.platial.com\"><img src=\"http://media.geocommons.com/platial/images/logotype_small.jpg\"></a>","id":"a7c00zvy3ev0"},"type":"Feature","geometry":{"type":"Point","coordinates":[-61.17187,10.61742]}},{"properties":{"name":"Tripoli, Libya","description":"Posted by Pthornhill79tripoli<a title=\"Built for Community Mapping\" href=\"http://www.platial.com\"><img src=\"http://media.geocommons.com/platial/images/logotype_small.jpg\"></a>","id":"a7c00zwu2i29"},"type":"Feature","geometry":{"type":"Point","coordinates":[13.18,32.869998]}},{"properties":{"name":"Tromso","description":"Posted by Pthornhill79Tromso, NorwayTromso<a title=\"Built for Community Mapping\" href=\"http://www.platial.com\"><img src=\"http://media.geocommons.com/platial/images/logotype_small.jpg\"></a>","id":"a7c00zv0wb6s"},"type":"Feature","geometry":{"type":"Point","coordinates":[18.95393,69.66703]}},{"properties":{"name":"Ushuaia, Argentina","description":"Posted by Pthornhill79<a title=\"Built for Community Mapping\" href=\"http://www.platial.com\"><img src=\"http://media.geocommons.com/platial/images/logotype_small.jpg\"></a>","id":"a7c0105g1w4d"},"type":"Feature","geometry":{"type":"Point","coordinates":[-68.31848,-54.79435]}},{"properties":{"name":"Valletta, Malta","description":"Posted by Pthornhill79<a title=\"Built for Community Mapping\" href=\"http://www.platial.com\"><img src=\"http://media.geocommons.com/platial/images/logotype_small.jpg\"></a>","id":"a7c0105njumr"},"type":"Feature","geometry":{"type":"Point","coordinates":[14.517145,35.899897]}},{"properties":{"name":"Valparaiso, Chile","description":"Posted by Pthornhill79<a title=\"Built for Community Mapping\" href=\"http://www.platial.com\"><img src=\"http://media.geocommons.com/platial/images/logotype_small.jpg\"></a>","id":"a7c0106x7qs9"},"type":"Feature","geometry":{"type":"Point","coordinates":[-71.49902,-31.01528]}},{"properties":{"name":"Venice, Italy","description":"Posted by Pthornhill79Venice, Italy<a title=\"Built for Community Mapping\" href=\"http://www.platial.com\"><img src=\"http://media.geocommons.com/platial/images/logotype_small.jpg\"></a>","id":"a7c0104vjxg9"},"type":"Feature","geometry":{"type":"Point","coordinates":[12.33593,45.432732]}},{"properties":{"name":"Volos, Greece","description":"Posted by Pthornhill79<a title=\"Built for Community Mapping\" href=\"http://www.platial.com\"><img src=\"http://media.geocommons.com/platial/images/logotype_small.jpg\"></a>","id":"a7c0106cutv6"},"type":"Feature","geometry":{"type":"Point","coordinates":[22.924175,39.361776]}},{"properties":{"name":"Warnemunde, Germany","description":"Posted by Pthornhill79<a title=\"Built for Community Mapping\" href=\"http://www.platial.com\"><img src=\"http://media.geocommons.com/platial/images/logotype_small.jpg\"></a>","id":"a7c0100ilri8"},"type":"Feature","geometry":{"type":"Point","coordinates":[13.0957,54.29088]}},{"properties":{"name":"Waterboat Point, Lemaire Channel","description":"Posted by Pthornhill79<a title=\"Built for Community Mapping\" href=\"http://www.platial.com\"><img src=\"http://media.geocommons.com/platial/images/logotype_small.jpg\"></a>","id":"a7c00zwcfnv9"},"type":"Feature","geometry":{"type":"Point","coordinates":[-58.23853,-63.46524]}},{"properties":{"name":"West Point, Falkland Islands","description":"Posted by Pthornhill79<a title=\"Built for Community Mapping\" href=\"http://www.platial.com\"><img src=\"http://media.geocommons.com/platial/images/logotype_small.jpg\"></a>","id":"a7c010664kri"},"type":"Feature","geometry":{"type":"Point","coordinates":[-60.68573,-51.35806]}},{"properties":{"name":"Yalta, Ukraine","description":"Posted by Pthornhill79<a title=\"Built for Community Mapping\" href=\"http://www.platial.com\"><img src=\"http://media.geocommons.com/platial/images/logotype_small.jpg\"></a>","id":"a7c010a0hgbh"},"type":"Feature","geometry":{"type":"Point","coordinates":[34.174,44.49969]}},{"properties":{"name":"Zadar, Croatia","description":"Posted by Pthornhill79<a title=\"Built for Community Mapping\" href=\"http://www.platial.com\"><img src=\"http://media.geocommons.com/platial/images/logotype_small.jpg\"></a>","id":"a7c00zukoch4"},"type":"Feature","geometry":{"type":"Point","coordinates":[15.24353,44.115198]}}],"is_temporal":false,"author":{"url":"http://www.platial.com/map/25279","metadata":null,"contact_name":"pthornhill79","contact_address":null,"source":"platial:pthornhill79","contact_phone":null},"source":"http://www.platial.com/map/25279","pagination":{"sort":null,"start":0,"total":119,"limit":1000000},"state":"complete","tags":"platial,platial:id=25279,platial:user=pthornhill79","published":"2010-03-02T17:00:00Z","id":27074}