{"type":"FeatureCollection","data_type":"Dataset","url_type":null,"permissions":[{"permissions":{"download":true,"view":true},"group_id":"everyone"}],"classification":null,"title":"Data (Schools FRL Proofed)","count":124,"stream_id":274607,"contributor":{"url":"http://geocommons.com/users/50968","name":"enelson"},"data_attributes":null,"calculation_params":null,"icon_link":null,"link":"http://geocommons.com/overlays/274607.json","extent":[-112.859,31.3778,-109.925,32.4746],"geometry_types":["point"],"unique_name":null,"name":"Data (Schools FRL Proofed)","feature_count":124,"description":"","next_feature":null,"is_raster":false,"short_classification":"Y","stats":{"# of qualified students":{"max":907,"variance":32275.3726724364,"mean":409.903225806452,"stdev":179.653479433148,"min":37,"median":383}},"features":[{"properties":{"site name":"Southwest Alternative Middle School","geo_score":0.902,"# of qualified students":37,"id":"a8lmadavm81d","address":"6855 South Mark Road,\nTucson, AZ 85757","geo_precision":"range"},"type":"Feature","geometry":{"type":"Point","coordinates":[-111.071754,32.130586]}},{"properties":{"site name":"Rillito Center","geo_score":0.927,"# of qualified students":55,"id":"a8lmaddd9gcb","address":"266 East Pastime,\nTucson, AZ, 85705","geo_precision":"range"},"type":"Feature","geometry":{"type":"Point","coordinates":[-110.966596,32.275596]}},{"properties":{"site name":"Mary Meredith K-12 School","geo_score":0.602,"# of qualified students":68,"id":"a8lmadqd1w1e","address":"755 North Magnolia,\nTucson, AZ, 85711","geo_precision":"zip"},"type":"Feature","geometry":{"type":"Point","coordinates":[-110.883744,32.214075]}},{"properties":{"site name":"Teenage Parent Program - TAPP","geo_score":1.0,"# of qualified students":84,"id":"a8lmadnds3g7","address":"102 North Plumer Avenue,\nTucson, AZ 85719","geo_precision":"range"},"type":"Feature","geometry":{"type":"Point","coordinates":[-110.939413,32.223603]}},{"properties":{"site name":"Dunham Elementary School","geo_score":0.935,"# of qualified students":115,"id":"a8lmadk6esib","address":"9850 East 29th Street,\nTucson, AZ 85748","geo_precision":"range"},"type":"Feature","geometry":{"type":"Point","coordinates":[-110.781164,32.199094]}},{"properties":{"site name":"Davis Bilingual Magnet School","geo_score":0.979,"# of qualified students":168,"id":"a8lmadpietz5","address":"500 West St. Mary's Rd.,\nTucson, AZ 85701","geo_precision":"range"},"type":"Feature","geometry":{"type":"Point","coordinates":[-110.978702,32.227806]}},{"properties":{"site name":"Bloom Elementary","geo_score":0.776,"# of qualified students":184,"id":"a8lmadnaxapy","address":"8310 East Pima Street\nTucson, Arizona 85715","geo_precision":"range"},"type":"Feature","geometry":{"type":"Point","coordinates":[-110.813294,32.242673]}},{"properties":{"site name":"Anna Henry Elementary School","geo_score":0.816,"# of qualified students":188,"id":"a8lmadl8cnd5","address":"650 North Igo Way\nTucson, AZ, 85710","geo_precision":"range"},"type":"Feature","geometry":{"type":"Point","coordinates":[-110.79819,32.228981]}},{"properties":{"site name":"Sopori Elementary School","geo_score":0.841,"# of qualified students":194,"id":"a8lmadbfmp2k","address":"5000 West Arivaca Rd.\nAmado, AZ, 85645","geo_precision":"range"},"type":"Feature","geometry":{"type":"Point","coordinates":[-111.068586,31.728908]}},{"properties":{"site name":"Marshall Elementary School","geo_score":0.762,"# of qualified students":200,"id":"a8lmadqfoq9v","address":"9066 East 29th Street\nTucson, AZ, 85710","geo_precision":"range"},"type":"Feature","geometry":{"type":"Point","coordinates":[-110.799039,32.199165]}},{"properties":{"site name":"W Arthur Sewel Elementary School","geo_score":0.835,"# of qualified students":205,"id":"a8lmadfeqax6","address":"425, North sahuara Ave\nTucson, AZ 85711","geo_precision":"range"},"type":"Feature","geometry":{"type":"Point","coordinates":[-110.866654,32.227776]}},{"properties":{"site name":"W V Whitmore Elementary School","geo_score":0.821,"# of qualified students":211,"id":"a8lmadi9bom1","address":"5330 East Glenn St\nTucson, Arizona  85712","geo_precision":"range"},"type":"Feature","geometry":{"type":"Point","coordinates":[-110.878644,32.257834]}},{"properties":{"site name":"Borton Primary Magnet School","geo_score":0.753,"# of qualified students":213,"id":"a8lmadi7xxfn","address":"700 East 22nd Street\nTucson, AZ   85713","geo_precision":"range"},"type":"Feature","geometry":{"type":"Point","coordinates":[-110.957718,32.206854]}},{"properties":{"site name":"Marion Donaldson Elementary School","geo_score":0.784,"# of qualified students":213,"id":"a8lmadp6nnih","address":"2040 West Omar Drive\nTucson, AZ 85704","geo_precision":"range"},"type":"Feature","geometry":{"type":"Point","coordinates":[-111.012968,32.332735]}},{"properties":{"site name":"Ochoa Elementary School","geo_score":0.77,"# of qualified students":213,"id":"a8lmadpvnr27","address":"101 West 25th Street\nTucson, AZ, 85713","geo_precision":"range"},"type":"Feature","geometry":{"type":"Point","coordinates":[-110.971531,32.203659]}},{"properties":{"site name":"S.T.A.R. Academic Center","geo_score":0.489,"# of qualified students":214,"id":"a8lmadcjy87g","address":"5093 South Liberty\nTucson, AZ, 85706","geo_precision":"street"},"type":"Feature","geometry":{"type":"Point","coordinates":[-111.038786,32.346914]}},{"properties":{"site name":"Holladay Intermediate Magnet School","geo_score":0.795,"# of qualified students":216,"id":"a8lmadb1vl1j","address":"1110 East 33rd St\nTucson, AZ, 85713","geo_precision":"range"},"type":"Feature","geometry":{"type":"Point","coordinates":[-110.95221,32.195447]}},{"properties":{"site name":"Robert Richardson Elementary School","geo_score":0.659,"# of qualified students":216,"id":"a8lmade56m27","address":"6901 N. Camino de la Tierra\nTucson, AZ, 85741","geo_precision":"range"},"type":"Feature","geometry":{"type":"Point","coordinates":[-110.845906,32.236032]}},{"properties":{"site name":"Picture Rocks Intermediate School","geo_score":0.837,"# of qualified students":223,"id":"a8lmadon7wr8","address":"5875 N. Sanders Rd.\nTucson, AZ, 85743","geo_precision":"range"},"type":"Feature","geometry":{"type":"Point","coordinates":[-111.235406,32.307496]}},{"properties":{"site name":"Manzo Elementary School","geo_score":0.841,"# of qualified students":226,"id":"a8lmaddhyzuj","address":"855 N. Melrose Ave.\nTucson, AZ, 85745","geo_precision":"range"},"type":"Feature","geometry":{"type":"Point","coordinates":[-110.992236,32.233045]}},{"properties":{"site name":"Wheeler Elementary School","geo_score":0.884,"# of qualified students":230,"id":"a8lmadit1v2g","address":"1818 Avenida del Sol                     Tucson, AZ 85710","geo_precision":"range"},"type":"Feature","geometry":{"type":"Point","coordinates":[-110.849598,32.199168]}},{"properties":{"site name":"Indian Oasis Intermediate School","geo_score":0.479,"# of qualified students":237,"id":"a8lmadow95gb","address":"111 Main St Of Highway 86               Sells, AZ 85634","geo_precision":"street"},"type":"Feature","geometry":{"type":"Point","coordinates":[-111.867804,31.914613]}},{"properties":{"site name":"Nan Lyons Elementary School","geo_score":0.603,"# of qualified students":245,"id":"a8lmadpdl1cy","address":"7555 East Dogwood\nTucson, AZ, 85730","geo_precision":"zip"},"type":"Feature","geometry":{"type":"Point","coordinates":[-110.772728,32.159829]}},{"properties":{"site name":"Carrillo Intermediate Magnet School","geo_score":0.789,"# of qualified students":247,"id":"a8lmadiv4s93","address":"440 South MAIN AVENUE\nTUCSON, AZ, 85701","geo_precision":"range"},"type":"Feature","geometry":{"type":"Point","coordinates":[-110.974401,32.215319]}},{"properties":{"site name":"Frances J Warren Elementary School","geo_score":0.828,"# of qualified students":247,"id":"a8lmadb54h61","address":"3505 West Milton Rd\nTucson, AZ 85746","geo_precision":"range"},"type":"Feature","geometry":{"type":"Point","coordinates":[-111.041352,32.146411]}},{"properties":{"site name":"Secrist Middle School","geo_score":0.814,"# of qualified students":251,"id":"a8lmadn1e187","address":"3400 South Houghton Road\nTucson, AZ 85730","geo_precision":"range"},"type":"Feature","geometry":{"type":"Point","coordinates":[-110.772703,32.18255]}},{"properties":{"site name":"Menlo Park Elementary School","geo_score":0.787,"# of qualified students":254,"id":"a8lmadoxqjwb","address":"1100 West Fresno Street\nTucson, AZ 85745","geo_precision":"range"},"type":"Feature","geometry":{"type":"Point","coordinates":[-110.991586,32.224674]}},{"properties":{"site name":"Southside Community School","geo_score":0.949,"# of qualified students":257,"id":"a8lmadfnfu3v","address":"2701 South Campbell Ave                            Tucson, AZ 85713","geo_precision":"range"},"type":"Feature","geometry":{"type":"Point","coordinates":[-110.943453,32.191403]}},{"properties":{"site name":"Hudlow Elementary School","geo_score":0.604,"# of qualified students":271,"id":"a8lmadeynvux","address":"502 N Caribe\nTucson AZ, AZ, 85710","geo_precision":"zip"},"type":"Feature","geometry":{"type":"Point","coordinates":[-110.78934,32.213926]}},{"properties":{"site name":"Harold Steele Elementary School","geo_score":0.819,"# of qualified students":281,"id":"a8lmadfpr9jo","address":"700 South Sarnoff Drive\nTucson, Arizona 85710","geo_precision":"range"},"type":"Feature","geometry":{"type":"Point","coordinates":[-110.813067,32.211733]}},{"properties":{"site name":"Drachman Primary Magnet School","geo_score":0.762,"# of qualified students":282,"id":"a8lmaddugaku","address":"1085 South 10th Avenue\nTucson, AZ 85701","geo_precision":"range"},"type":"Feature","geometry":{"type":"Point","coordinates":[-110.974571,32.208522]}},{"properties":{"site name":"Ford Elementary","geo_score":1.0,"# of qualified students":282,"id":"a8lmadglz5f3","address":"8001 East Stella Rd,                     Tucson, AZ 85730","geo_precision":"range"},"type":"Feature","geometry":{"type":"Point","coordinates":[-110.821191,32.184509]}},{"properties":{"site name":"Altar Valley Middle School","geo_score":0.493,"# of qualified students":290,"id":"a8lmadj2a4j5","address":"16350 West Ajo Way\nTucson, AZ, 85736","geo_precision":"street"},"type":"Feature","geometry":{"type":"Point","coordinates":[-111.011659,32.177906]}},{"properties":{"site name":"Anna Lawrence Intermediate School","geo_score":1.0,"# of qualified students":299,"id":"a8lmadktrgdx","address":"4850 West Jeffrey Road, Tucson, AZ 85757","geo_precision":"range"},"type":"Feature","geometry":{"type":"Point","coordinates":[-111.071798,32.126142]}},{"properties":{"site name":"Desert Winds Elementary School","geo_score":0.837,"# of qualified students":300,"id":"a8lmadc8lnwc","address":"12675 West Rudasill Rd.\nTucson, AZ 85743","geo_precision":"range"},"type":"Feature","geometry":{"type":"Point","coordinates":[-111.236014,32.313485]}},{"properties":{"site name":"Lineweaver Elementary School","geo_score":0.831,"# of qualified students":300,"id":"a8lmadi3ztsh","address":"461 South Bryant Ave.\nTucson, AZ, 85711","geo_precision":"range"},"type":"Feature","geometry":{"type":"Point","coordinates":[-110.902996,32.214462]}},{"properties":{"site name":"Robison Elementary School","geo_score":0.818,"# of qualified students":301,"id":"a8lmadjec6sr","address":"2745 East 18th St\nTucson, AZ 85716","geo_precision":"range"},"type":"Feature","geometry":{"type":"Point","coordinates":[-110.932482,32.212464]}},{"properties":{"site name":"Cavett Elementary School","geo_score":0.61,"# of qualified students":304,"id":"a8lmadgqybd8","address":"2120 East Naco Vista\nTucson, AZ, 85613","geo_precision":"range"},"type":"Feature","geometry":{"type":"Point","coordinates":[-109.925411,31.377762]}},{"properties":{"site name":"Maxwell Middle School","geo_score":0.806,"# of qualified students":305,"id":"a8lmadapfbww","address":"2802 West Anklam Road\nTucson, AZ 85745","geo_precision":"range"},"type":"Feature","geometry":{"type":"Point","coordinates":[-111.024834,32.225012]}},{"properties":{"site name":"Schumaker Elementary School","geo_score":0.805,"# of qualified students":305,"id":"a8lmade65bat","address":"501 North Maguire Avenue\nTucson, AZ 85710","geo_precision":"range"},"type":"Feature","geometry":{"type":"Point","coordinates":[-110.819467,32.228218]}},{"properties":{"site name":"Butterfield Elementary School","geo_score":0.843,"# of qualified students":308,"id":"a8lmaddlpm0x","address":"3400 West Massingale Rd.\nTucson, AZ, 85741","geo_precision":"range"},"type":"Feature","geometry":{"type":"Point","coordinates":[-111.04082,32.344619]}},{"properties":{"site name":"Brichta Elementary School","geo_score":0.833,"# of qualified students":309,"id":"a8lmadgia05j","address":"2110 West Brichta Dr.\nTucson, AZ, 85745","geo_precision":"range"},"type":"Feature","geometry":{"type":"Point","coordinates":[-111.012155,32.241453]}},{"properties":{"site name":"Mission View Elementary School","geo_score":0.896,"# of qualified students":309,"id":"a8lmadg1dga1","address":"2600 South 8th Ave.                              Tucson, AZ 85713","geo_precision":"range"},"type":"Feature","geometry":{"type":"Point","coordinates":[-110.971443,32.191397]}},{"properties":{"site name":"Dietz Elementary School","geo_score":0.782,"# of qualified students":311,"id":"a8lmadamedbh","address":"7575 East Palma Street\nTucson, AZ, 85710","geo_precision":"range"},"type":"Feature","geometry":{"type":"Point","coordinates":[-110.831886,32.199274]}},{"properties":{"site name":"Laura N. Banks Elementary","geo_score":0.798,"# of qualified students":316,"id":"a8lmadfd3ahe","address":"3200 South Lead Flower Avenue\nTucson, AZ 85735","geo_precision":"range"},"type":"Feature","geometry":{"type":"Point","coordinates":[-111.139791,32.183589]}},{"properties":{"site name":"Howell Peter Elementary","geo_score":0.646,"# of qualified students":319,"id":"a8lmadfjr3pt","address":"401 N. Irving\nTucson, AZ 85711","geo_precision":"street"},"type":"Feature","geometry":{"type":"Point","coordinates":[-110.905214,32.229836]}},{"properties":{"site name":"Davidson Elementary School","geo_score":0.477,"# of qualified students":321,"id":"a8lmados3f0d","address":"3950 East Paradise Falls\nTucson, AZ, 85712","geo_precision":"street"},"type":"Feature","geometry":{"type":"Point","coordinates":[-111.014161,32.283453]}},{"properties":{"site name":"J  Robert Hendricks Elementary School","geo_score":0.599,"# of qualified students":321,"id":"a8lmadhbba6j","address":"3400 West Orange Grove\nTucson, AZ, AZ, 85741","geo_precision":"zip"},"type":"Feature","geometry":{"type":"Point","coordinates":[-111.058754,32.340073]}},{"properties":{"site name":"Cragin Elementary School","geo_score":0.841,"# of qualified students":323,"id":"a8lmaddppcmv","address":"2945 N. Tucson Blvd.\nTucson, AZ, 85716","geo_precision":"range"},"type":"Feature","geometry":{"type":"Point","coordinates":[-110.935358,32.260437]}},{"properties":{"site name":"Annie Kellond Elementary School","geo_score":0.603,"# of qualified students":332,"id":"a8lmadfolx8b","address":"6606 East Lehigh\nTucson, AZ, 85710","geo_precision":"zip"},"type":"Feature","geometry":{"type":"Point","coordinates":[-110.78934,32.213926]}},{"properties":{"site name":"Ocotillo Elementary School","geo_score":0.81,"# of qualified students":346,"id":"a8lmadqf8szf","address":"5702 South Campbell Avenue\nTucson, AZ 85706","geo_precision":"range"},"type":"Feature","geometry":{"type":"Point","coordinates":[-110.943522,32.145035]}},{"properties":{"site name":"Tolson Elementary School","geo_score":0.805,"# of qualified students":347,"id":"a8lmadpu7297","address":"1000 South Greasewood Ave\nTucson, AZ, 85745","geo_precision":"range"},"type":"Feature","geometry":{"type":"Point","coordinates":[-111.02036,32.212159]}},{"properties":{"site name":"Harriet Johnson Primary School","geo_score":0.709,"# of qualified students":348,"id":"a8lmadndekif","address":"6060 South Joseph Avenue, Tucson, AZ, 85757","geo_precision":"street"},"type":"Feature","geometry":{"type":"Point","coordinates":[-111.071911,32.138259]}},{"properties":{"site name":"Frances Owen Holaway Elementary School","geo_score":0.837,"# of qualified students":352,"id":"a8lmadaugaej","address":"3500 N. Cherry Ave.\nTucson, AZ, 85719","geo_precision":"range"},"type":"Feature","geometry":{"type":"Point","coordinates":[-110.948043,32.27218]}},{"properties":{"site name":"Corbett Elementary School","geo_score":0.818,"# of qualified students":360,"id":"a8lmadmlieeb","address":"5949 East 29th St.\nTucson, AZ, 85711","geo_precision":"range"},"type":"Feature","geometry":{"type":"Point","coordinates":[-110.865868,32.199778]}},{"properties":{"site name":"Bonillas Elementary Basic Curriculum Magnet School","geo_score":0.61,"# of qualified students":363,"id":"a8lmadfyoo1c","address":"4757 East Winsett Blvd.\nTucson, Az., AZ, 85711","geo_precision":"range"},"type":"Feature","geometry":{"type":"Point","coordinates":[-110.889391,32.214374]}},{"properties":{"site name":"Centennial Elementary School","geo_score":0.833,"# of qualified students":364,"id":"a8lmadarjbmt","address":"2200 West Wetmore Rd\nTucson, AZ, 85705","geo_precision":"range"},"type":"Feature","geometry":{"type":"Point","coordinates":[-111.015049,32.287137]}},{"properties":{"site name":"Lulu Walker School","geo_score":0.838,"# of qualified students":369,"id":"a8lmadk7bnye","address":"1750 West Roller Coaster Road\nTucson, AZ, 85704","geo_precision":"range"},"type":"Feature","geometry":{"type":"Point","coordinates":[-111.001737,32.301249]}},{"properties":{"site name":"Hohokam Middle School","geo_score":0.805,"# of qualified students":370,"id":"a8lmadghk86k","address":"7400 South Settler Avenue\nTucson, AZ 85746","geo_precision":"range"},"type":"Feature","geometry":{"type":"Point","coordinates":[-111.054605,32.116329]}},{"properties":{"site name":"Magee Middle School","geo_score":0.843,"# of qualified students":373,"id":"a8lmadj5he22","address":"8300 East Speedway Blvd.\nTucson, AZ, 85710","geo_precision":"range"},"type":"Feature","geometry":{"type":"Point","coordinates":[-110.813439,32.235448]}},{"properties":{"site name":"Ajo Elementary School","geo_score":0.819,"# of qualified students":377,"id":"a8lmadabx2gu","address":"111 N. Well Road\nAjo, AZ 85321","geo_precision":"range"},"type":"Feature","geometry":{"type":"Point","coordinates":[-112.858763,32.375671]}},{"properties":{"site name":"Irene Erickson Elementary School","geo_score":0.828,"# of qualified students":378,"id":"a8lmadlk6q0m","address":"6750 East Stella Rd.\nTucson , AZ, 85730","geo_precision":"range"},"type":"Feature","geometry":{"type":"Point","coordinates":[-110.848338,32.184624]}},{"properties":{"site name":"Roadrunner Elementary School","geo_score":0.6,"# of qualified students":383,"id":"a8lmadiklz3n","address":"16651 West Calle Carmela\nMarana, AZ, 85653","geo_precision":"zip"},"type":"Feature","geometry":{"type":"Point","coordinates":[-111.159344,32.442979]}},{"properties":{"site name":"Carson Middle School","geo_score":0.828,"# of qualified students":386,"id":"a8lmadbzg1rz","address":"7777 East Stella Rd.\nTucson, AZ, 85730","geo_precision":"range"},"type":"Feature","geometry":{"type":"Point","coordinates":[-110.824207,32.184687]}},{"properties":{"site name":"Homer Davis Elementary School","geo_score":0.81,"# of qualified students":389,"id":"a8lmadnwftrn","address":"4250 N. Romero Road\nTucson, AZ, 85705","geo_precision":"range"},"type":"Feature","geometry":{"type":"Point","coordinates":[-111.003349,32.284624]}},{"properties":{"site name":"Robles Elementary School","geo_score":0.605,"# of qualified students":393,"id":"a8lmadihd4sj","address":"9875 S. Sasabe\nTucson, AZ, 85736","geo_precision":"zip"},"type":"Feature","geometry":{"type":"Point","coordinates":[-111.890713,31.970131]}},{"properties":{"site name":"Pueblo Gardens Elementary","geo_score":0.77,"# of qualified students":404,"id":"a8lmadlzx0m6","address":"2210 E. 33rd Street\nTucson, AZ, 85713","geo_precision":"range"},"type":"Feature","geometry":{"type":"Point","coordinates":[-110.938428,32.196319]}},{"properties":{"site name":"Blenman Elementary School","geo_score":0.948,"# of qualified students":408,"id":"a8lmadg99s4y","address":"1695 N. Country Club, Tucson, AZ 85716","geo_precision":"range"},"type":"Feature","geometry":{"type":"Point","coordinates":[-110.926851,32.241572]}},{"properties":{"site name":"Henry Hank Oyama","geo_score":0.847,"# of qualified students":412,"id":"a8lmadl2n6o2","address":"2700 S. LaCholla Blvd.\nTucson, AZ, 85713","geo_precision":"range"},"type":"Feature","geometry":{"type":"Point","coordinates":[-111.011801,32.191291]}},{"properties":{"site name":"Tully Elementary Accelerated Magnet School","geo_score":0.691,"# of qualified students":413,"id":"a8lmadl7camg","address":"1701 W. El Rio Drive\nTucson, Arizona, AZ, 85745","geo_precision":"range"},"type":"Feature","geometry":{"type":"Point","coordinates":[-111.000639,32.243038]}},{"properties":{"site name":"Van Buskirk Elementary School","geo_score":0.831,"# of qualified students":413,"id":"a8lmadbr3lm0","address":"725 E. FAIR ST.\nTUCSON, AZ 85714","geo_precision":"range"},"type":"Feature","geometry":{"type":"Point","coordinates":[-110.959443,32.170669]}},{"properties":{"site name":"Myers-Ganoung Elementary School","geo_score":0.787,"# of qualified students":423,"id":"a8lmadkc0zvq","address":"5000 East Andrew Street\nTucson, AZ 85711","geo_precision":"range"},"type":"Feature","geometry":{"type":"Point","coordinates":[-110.88472,32.20326]}},{"properties":{"site name":"Indian Oasis Primary School","geo_score":0.436,"# of qualified students":426,"id":"a8lmadqa7n4i","address":"111 Main Street\nSells, AZ, 85634","geo_precision":"street"},"type":"Feature","geometry":{"type":"Point","coordinates":[-111.867804,31.914613]}},{"properties":{"site name":"John B Wright Elementary School","geo_score":0.834,"# of qualified students":433,"id":"a8lmadgob5mw","address":"4311 E. Linden St.\nTucson, AZ 85712","geo_precision":"range"},"type":"Feature","geometry":{"type":"Point","coordinates":[-110.899237,32.245304]}},{"properties":{"site name":"Maldonado Amelia Elementary School","geo_score":0.841,"# of qualified students":435,"id":"a8lmadiud8cl","address":"3535 W. Messala Way\nTucson, AZ 85746","geo_precision":"range"},"type":"Feature","geometry":{"type":"Point","coordinates":[-111.040636,32.117239]}},{"properties":{"site name":"Laguna Elementary School","geo_score":0.837,"# of qualified students":445,"id":"a8lmadfdgpv3","address":"5001 N. Shannon Rd.\nTucson, AZ, 85705","geo_precision":"range"},"type":"Feature","geometry":{"type":"Point","coordinates":[-111.028955,32.301498]}},{"properties":{"site name":"Helen Keeling Elementary School","geo_score":0.817,"# of qualified students":450,"id":"a8lmadewdacl","address":"2837 N. Los Altos Avenue\nTucson, AZ, 85705","geo_precision":"range"},"type":"Feature","geometry":{"type":"Point","coordinates":[-110.963489,32.258801]}},{"properties":{"site name":"Hollinger Elementary School","geo_score":0.642,"# of qualified students":456,"id":"a8lmadn57sny","address":"150 W. Ajo Way\nTucson, AZ, AZ, 85713","geo_precision":"range"},"type":"Feature","geometry":{"type":"Point","coordinates":[-110.966471,32.177773]}},{"properties":{"site name":"Coronado K-8 School","geo_score":0.805,"# of qualified students":459,"id":"a8lmadi40rtg","address":"3401 E. Wilds Road\nTucson, AZ, 85739","geo_precision":"range"},"type":"Feature","geometry":{"type":"Point","coordinates":[-110.920865,32.474577]}},{"properties":{"site name":"Rio Vista Elementary School","geo_score":0.837,"# of qualified students":460,"id":"a8lmadldsp73","address":"1351 E. Limberlost\nTucson, AZ, 85719","geo_precision":"range"},"type":"Feature","geometry":{"type":"Point","coordinates":[-110.95072,32.283134]}},{"properties":{"site name":"La Cima Middle School","geo_score":0.818,"# of qualified students":469,"id":"a8lmadfxvnso","address":"5600 N. La Canada Drive\nTucson, AZ 85704","geo_precision":"range"},"type":"Feature","geometry":{"type":"Point","coordinates":[-110.995222,32.310189]}},{"properties":{"site name":"Townsend Middle School","geo_score":0.603,"# of qualified students":469,"id":"a8lmadee1q6g","address":"2120 North Beverly\nTucson, AZ 85712","geo_precision":"zip"},"type":"Feature","geometry":{"type":"Point","coordinates":[-110.883744,32.253714]}},{"properties":{"site name":"Wakefield Middle School","geo_score":0.74,"# of qualified students":477,"id":"a8lmada3epo4","address":"101 W. 44th St.                                Tucson, AZ 85704","geo_precision":"range"},"type":"Feature","geometry":{"type":"Point","coordinates":[-110.968676,32.184985]}},{"properties":{"site name":"McCorkle PK-8","geo_score":0.488,"# of qualified students":489,"id":"a8lmadkcm4bk","address":"4455 South Mission Rd,                     Tucson, AZ 85746","geo_precision":"street"},"type":"Feature","geometry":{"type":"Point","coordinates":[-111.065609,32.36399]}},{"properties":{"site name":"Doolen Middle School","geo_score":0.829,"# of qualified students":501,"id":"a8lmadav5css","address":"2400 North Country Club Road\nTucson, AZ 85716","geo_precision":"range"},"type":"Feature","geometry":{"type":"Point","coordinates":[-110.926838,32.251765]}},{"properties":{"site name":"Gallego Basic Elementary School","geo_score":0.638,"# of qualified students":502,"id":"a8lmadg7lmdr","address":"6200 S. Hemisphere Pl.\nTucson, AZ, 85706","geo_precision":"street"},"type":"Feature","geometry":{"type":"Point","coordinates":[-110.918822,32.139051]}},{"properties":{"site name":"Mansfeld Middle School","geo_score":0.75,"# of qualified students":507,"id":"a8lmadf1kae7","address":"1300 East 6th Street\nTucson, AZ 85719","geo_precision":"range"},"type":"Feature","geometry":{"type":"Point","coordinates":[-110.951001,32.227781]}},{"properties":{"site name":"Billy Lane Lauffer Middle School","geo_score":0.847,"# of qualified students":515,"id":"a8lmadnsoi4n","address":"5385 E. Littletown Rd.\nTucson, AZ, 85706","geo_precision":"range"},"type":"Feature","geometry":{"type":"Point","coordinates":[-110.876488,32.134265]}},{"properties":{"site name":"Summit View Elementary","geo_score":0.902,"# of qualified students":518,"id":"a8lmadni54nj","address":"1900 East Summit St., Tucson, AZ, 85756","geo_precision":"range"},"type":"Feature","geometry":{"type":"Point","coordinates":[-110.942513,32.066992]}},{"properties":{"site name":"E C Nash School","geo_score":0.606,"# of qualified students":528,"id":"a8lmadej51p9","address":"515 W. Kelso\nTucson, AZ, 85705","geo_precision":"zip"},"type":"Feature","geometry":{"type":"Point","coordinates":[-110.900395,32.294945]}},{"properties":{"site name":"C E Rose Elementary School","geo_score":0.941,"# of qualified students":541,"id":"a8lmadn2sj4z","address":"710 W. Michigan Dr.                      Tucson, AZ 85714","geo_precision":"range"},"type":"Feature","geometry":{"type":"Point","coordinates":[-110.977574,32.170486]}},{"properties":{"site name":"Los Ranchitos Elementary School","geo_score":0.902,"# of qualified students":543,"id":"a8lmadf8cuy2","address":"2054 East Ginter Road, Tucson, AZ","geo_precision":"range"},"type":"Feature","geometry":{"type":"Point","coordinates":[-110.939651,32.137625]}},{"properties":{"site name":"John E White Elementary School","geo_score":0.787,"# of qualified students":547,"id":"a8lmadnnrui7","address":"2315 West Canada Street\nTucson, AZ 85746","geo_precision":"range"},"type":"Feature","geometry":{"type":"Point","coordinates":[-111.017602,32.151945]}},{"properties":{"site name":"Elvira Elementary School","geo_score":0.902,"# of qualified students":553,"id":"a8lmadmxlxdg","address":"250 West Elvira Road, Tucson, AZ, 85756","geo_precision":"range"},"type":"Feature","geometry":{"type":"Point","coordinates":[-110.971958,32.126831]}},{"properties":{"site name":"Mission Manor Elementary School","geo_score":0.849,"# of qualified students":553,"id":"a8lmadi8f6mn","address":"600 West Santa Rosa\nTucson, AZ, 85706","geo_precision":"range"},"type":"Feature","geometry":{"type":"Point","coordinates":[-110.979144,32.14129]}},{"properties":{"site name":"Alice Vail Middle School","geo_score":0.762,"# of qualified students":556,"id":"a8lmadfltq16","address":"5350 East 16th Street\nTucson, AZ 85711","geo_precision":"range"},"type":"Feature","geometry":{"type":"Point","coordinates":[-110.875515,32.214289]}},{"properties":{"site name":"Roskruge Bilingual Magnet Middle School","geo_score":0.75,"# of qualified students":562,"id":"a8lmadk9xko3","address":"501 East 6th Street\nTucson, AZ 85705","geo_precision":"range"},"type":"Feature","geometry":{"type":"Point","coordinates":[-110.962532,32.227745]}},{"properties":{"site name":"Miller Elementary School","geo_score":0.907,"# of qualified students":563,"id":"a8lmadnnwdis","address":"6951 S. Camino de la Tierra                      Tucson, AZ 85746","geo_precision":"range"},"type":"Feature","geometry":{"type":"Point","coordinates":[-111.037286,32.125804]}},{"properties":{"site name":"Craycroft Elementary School","geo_score":0.902,"# of qualified students":572,"id":"a8lmadnt2gm1","address":"5455 East Littletown Rd., Tucson, AZ, 85756","geo_precision":"range"},"type":"Feature","geometry":{"type":"Point","coordinates":[-110.878177,32.134288]}},{"properties":{"site name":"Esperanza Elementary School","geo_score":0.605,"# of qualified students":573,"id":"a8lmadprygkh","address":"2353 E. Bantam\nTucson, AZ, 85706","geo_precision":"zip"},"type":"Feature","geometry":{"type":"Point","coordinates":[-110.879684,32.093314]}},{"properties":{"site name":"Santa Clara Elementary School","geo_score":0.406,"# of qualified students":578,"id":"a8lmadnah7io","address":"6910 S. Santa Clara Ave.\nTucson, AZ, 85756","geo_precision":"street"},"type":"Feature","geometry":{"type":"Point","coordinates":[-110.698747,31.789379]}},{"properties":{"site name":"Los Ninos Elementary School","geo_score":0.751,"# of qualified students":584,"id":"a8lmadq09hgg","address":"5445 S. Alvernon Way\nTucson, AZ, 85706","geo_precision":"street"},"type":"Feature","geometry":{"type":"Point","coordinates":[-110.909283,32.154126]}},{"properties":{"site name":"Vesey Elementary School","geo_score":1.0,"# of qualified students":586,"id":"a8lmadgf5i61","address":"5005 South Butts Road, Tucson, Az. 85757","geo_precision":"range"},"type":"Feature","geometry":{"type":"Point","coordinates":[-111.076049,32.162714]}},{"properties":{"site name":"Chaparral Middle School","geo_score":0.819,"# of qualified students":589,"id":"a8lmadgh1nok","address":"3700 E. Alvord\nTucson, AZ, 85706","geo_precision":"range"},"type":"Feature","geometry":{"type":"Point","coordinates":[-110.911961,32.145241]}},{"properties":{"site name":"Amphitheater Middle School","geo_score":0.806,"# of qualified students":590,"id":"a8lmada63120","address":"315 East Prince Road\nTucson, AZ 85705","geo_precision":"range"},"type":"Feature","geometry":{"type":"Point","coordinates":[-110.970532,32.272065]}},{"properties":{"site name":"Flowing Wells Junior High School","geo_score":0.849,"# of qualified students":595,"id":"a8lmadpf3ov2","address":"4545 N. La Cholla Blvd\nTucson, AZ, 85705","geo_precision":"range"},"type":"Feature","geometry":{"type":"Point","coordinates":[-111.012049,32.289671]}},{"properties":{"site name":"L M Prince School","geo_score":0.828,"# of qualified students":603,"id":"a8lmade7kzfn","address":"125 East Prince Rd.\nTucson, AZ 85705","geo_precision":"range"},"type":"Feature","geometry":{"type":"Point","coordinates":[-110.968952,32.272078]}},{"properties":{"site name":"Valencia Middle School","geo_score":0.629,"# of qualified students":608,"id":"a8lmadplqxx9","address":"4400 West Irvington Road\nTucson, AZ 85746","geo_precision":"street"},"type":"Feature","geometry":{"type":"Point","coordinates":[-111.052228,32.162853]}},{"properties":{"site name":"Walter Douglas Elementary School","geo_score":0.854,"# of qualified students":608,"id":"a8lmadgflzi3","address":"3302 N. Flowing Wells Rd\nTucson, AZ, 85705","geo_precision":"range"},"type":"Feature","geometry":{"type":"Point","coordinates":[-110.994962,32.266541]}},{"properties":{"site name":"Lynn Urquides","geo_score":0.829,"# of qualified students":623,"id":"a8lmadlv7m55","address":"1573 West Ajo Way\nTucson, AZ 85713","geo_precision":"range"},"type":"Feature","geometry":{"type":"Point","coordinates":[-110.996248,32.177791]}},{"properties":{"site name":"Rivera Elementary","geo_score":0.605,"# of qualified students":632,"id":"a8lmadobuhb6","address":"5102 S. Cherry\nTucson, AZ, 85706","geo_precision":"zip"},"type":"Feature","geometry":{"type":"Point","coordinates":[-110.879684,32.093314]}},{"properties":{"site name":"Naylor Middle School","geo_score":1.0,"# of qualified students":634,"id":"a8lmadhbrp0h","address":"1701 South Columbus Blvd,           Tucson, AZ 85711","geo_precision":"range"},"type":"Feature","geometry":{"type":"Point","coordinates":[-110.90081,32.202988]}},{"properties":{"site name":"Drexel Elementary School","geo_score":0.607,"# of qualified students":642,"id":"a8lmadamhmni","address":"801 East Drexel Road\nTucson, AZ 85706","geo_precision":"zip"},"type":"Feature","geometry":{"type":"Point","coordinates":[-111.028427,32.141189]}},{"properties":{"site name":"Raul Grijalva Elementary School","geo_score":0.601,"# of qualified students":663,"id":"a8lmadghraun","address":"1795 West Drexel Road\nTucson, AZ 85746","geo_precision":"zip"},"type":"Feature","geometry":{"type":"Point","coordinates":[-111.890713,31.970131]}},{"properties":{"site name":"Utterback Middle School","geo_score":0.83,"# of qualified students":668,"id":"a8lmadgsni57","address":"3233 South Pinal Vista\nTucson, AZ 85713","geo_precision":"range"},"type":"Feature","geometry":{"type":"Point","coordinates":[-110.936881,32.187021]}},{"properties":{"site name":"Safford Engineering/Technology Magnet Middle School","geo_score":0.762,"# of qualified students":671,"id":"a8lmadihpvfo","address":"200 East 13th Street\nTucson, AZ 85701","geo_precision":"range"},"type":"Feature","geometry":{"type":"Point","coordinates":[-110.966277,32.218579]}},{"properties":{"site name":"Liberty Elementary School","geo_score":0.601,"# of qualified students":673,"id":"a8lmadkwr9dt","address":"5495 S. LibertyAvenue\nTucson, AZ, 85706","geo_precision":"zip"},"type":"Feature","geometry":{"type":"Point","coordinates":[-110.879684,32.093314]}},{"properties":{"site name":"Apollo Middle School","geo_score":0.848,"# of qualified students":711,"id":"a8lmadeybmjp","address":"265 W. Nebraska\nTucson , AZ, 85706","geo_precision":"range"},"type":"Feature","geometry":{"type":"Point","coordinates":[-110.972415,32.155886]}},{"properties":{"site name":"Los Amigos Elementary School","geo_score":0.608,"# of qualified students":711,"id":"a8lmadg6f6ye","address":"2200 E. Drexel Road\nTucson, AZ, 85706","geo_precision":"zip"},"type":"Feature","geometry":{"type":"Point","coordinates":[-111.028427,32.141189]}},{"properties":{"site name":"Challenger Middle School","geo_score":0.834,"# of qualified students":792,"id":"a8lmadnx8f0r","address":"100 E. Elvira Rd\nTucson, AZ, 85706","geo_precision":"range"},"type":"Feature","geometry":{"type":"Point","coordinates":[-110.96654,32.126697]}},{"properties":{"site name":"Sahuarita Primary School","geo_score":0.809,"# of qualified students":854,"id":"a8lmadgcapud","address":"350 W. Sahuarita Road\nSahuarita , AZ, 85629","geo_precision":"range"},"type":"Feature","geometry":{"type":"Point","coordinates":[-110.976119,31.957994]}},{"properties":{"site name":"Pistor Middle School","geo_score":0.926,"# of qualified students":860,"id":"a8lmadq6as40","address":"5455 South Cardinal Ave.      \n Tucson, AZ 85746","geo_precision":"range"},"type":"Feature","geometry":{"type":"Point","coordinates":[-111.02876,32.15261]}},{"properties":{"site name":"Booth-Fickett Math/Science Magnet School","geo_score":1.0,"# of qualified students":873,"id":"a8lmadlu8z6l","address":"450 South Montego Dr,               Tucson, AZ 85710","geo_precision":"range"},"type":"Feature","geometry":{"type":"Point","coordinates":[-110.836783,32.21469]}},{"properties":{"site name":"Sierra Middle School","geo_score":0.854,"# of qualified students":907,"id":"a8lmaddzf5b8","address":"5801 S. Del Moral Blvd\nTucson, AZ, 85706","geo_precision":"range"},"type":"Feature","geometry":{"type":"Point","coordinates":[-110.947996,32.144964]}}],"is_temporal":false,"author":{"url":"","metadata":"","contact_name":"","contact_address":"","source":"","contact_phone":""},"source":"","pagination":{"sort":null,"start":0,"total":124,"limit":1000000},"state":"complete","tags":"","published":"2014-08-14T21:07:01-04:00","id":274607}