{"type":"FeatureCollection","data_type":"Dataset","url_type":null,"permissions":[{"permissions":{"download":true,"view":true},"group_id":"everyone"}],"classification":null,"title":"\neaben's places\n","count":71,"stream_id":28247,"contributor":{"url":"http://geocommons.com/users/11444","name":"platial"},"data_attributes":null,"calculation_params":null,"icon_link":null,"link":"http://geocommons.com/overlays/28247.json","extent":[-157.858,-23.1333,16.4667,59.927],"geometry_types":["point"],"unique_name":null,"name":"\neaben's places\n","feature_count":71,"description":"\nA Map by Eaben\n\n\n","next_feature":null,"is_raster":false,"short_classification":"Y","stats":{},"features":[{"properties":{"name":"61F - Print.H. Homme","description":"Posted by EabenPARIS, NA<a title=\"Built for Community Mapping\" href=\"http://www.platial.com\"><img src=\"http://media.geocommons.com/platial/images/logotype_small.jpg\"></a>","id":"a6e4e3aob1sh"},"type":"Feature","geometry":{"type":"Point","coordinates":[-104.896673,21.483601]}},{"properties":{"name":"64UK - HoF Cardiff","description":"Posted by EabenCardiff, NA<a title=\"Built for Community Mapping\" href=\"http://www.platial.com\"><img src=\"http://media.geocommons.com/platial/images/logotype_small.jpg\"></a>","id":"a6e4e3j1zr8m"},"type":"Feature","geometry":{"type":"Point","coordinates":[-6.240708,53.344883]}},{"properties":{"name":"64UK - Liverpool","description":"Posted by EabenLiverpool, NA<a title=\"Built for Community Mapping\" href=\"http://www.platial.com\"><img src=\"http://media.geocommons.com/platial/images/logotype_small.jpg\"></a>","id":"a6e4e38wasq4"},"type":"Feature","geometry":{"type":"Point","coordinates":[-105.22818,20.633545]}},{"properties":{"name":"Accessories St. Paris E.Marcel","description":"Posted by EabenPARIS, NA<a title=\"Built for Community Mapping\" href=\"http://www.platial.com\"><img src=\"http://media.geocommons.com/platial/images/logotype_small.jpg\"></a>","id":"a6e4e39ycpfd"},"type":"Feature","geometry":{"type":"Point","coordinates":[-104.896673,21.483601]}},{"properties":{"name":"Amsterdam","description":"Posted by EabenAmsterdam, NA<a title=\"Built for Community Mapping\" href=\"http://www.platial.com\"><img src=\"http://media.geocommons.com/platial/images/logotype_small.jpg\"></a>","id":"a6e4e3erw9z6"},"type":"Feature","geometry":{"type":"Point","coordinates":[-91.302389,43.984426]}},{"properties":{"name":"D. Birmingham Selfridges","description":"Posted by EabenBirmingham, NA<a title=\"Built for Community Mapping\" href=\"http://www.platial.com\"><img src=\"http://media.geocommons.com/platial/images/logotype_small.jpg\"></a>","id":"a6e4e3dbsiju"},"type":"Feature","geometry":{"type":"Point","coordinates":[8.578196,50.102029]}},{"properties":{"name":"D. Denim Gallery NY","description":"Posted by Eaben<img src=\"http://media.geocommons.com/platial/images/categories/ICON_culture_verD.gif\"> NEW YORK, NY<a title=\"Built for Community Mapping\" href=\"http://www.platial.com\"><img src=\"http://media.geocommons.com/platial/images/logotype_small.jpg\"></a>","id":"a6e4e3fnslqp"},"type":"Feature","geometry":{"type":"Point","coordinates":[-74.006389,40.714167]}},{"properties":{"name":"D. HOF2","description":"Posted by EabenBirmingham, NA<a title=\"Built for Community Mapping\" href=\"http://www.platial.com\"><img src=\"http://media.geocommons.com/platial/images/logotype_small.jpg\"></a>","id":"a6e4e394g028"},"type":"Feature","geometry":{"type":"Point","coordinates":[8.578196,50.102029]}},{"properties":{"name":"D. London Bentalls","description":"Posted by EabenLONDON, NA<a title=\"Built for Community Mapping\" href=\"http://www.platial.com\"><img src=\"http://media.geocommons.com/platial/images/logotype_small.jpg\"></a>","id":"a6e4e3ibgq0v"},"type":"Feature","geometry":{"type":"Point","coordinates":[-0.36217,51.58472]}},{"properties":{"name":"D. London Harrods","description":"Posted by EabenLONDON, NA<a title=\"Built for Community Mapping\" href=\"http://www.platial.com\"><img src=\"http://media.geocommons.com/platial/images/logotype_small.jpg\"></a>","id":"a6e4e38zcd84"},"type":"Feature","geometry":{"type":"Point","coordinates":[-0.36217,51.58472]}},{"properties":{"name":"D. London Harvey Nichols","description":"Posted by EabenLONDON, NA<a title=\"Built for Community Mapping\" href=\"http://www.platial.com\"><img src=\"http://media.geocommons.com/platial/images/logotype_small.jpg\"></a>","id":"a6e4e3detw55"},"type":"Feature","geometry":{"type":"Point","coordinates":[-0.36217,51.58472]}},{"properties":{"name":"D. London Selfridges","description":"Posted by EabenLONDON, NA<a title=\"Built for Community Mapping\" href=\"http://www.platial.com\"><img src=\"http://media.geocommons.com/platial/images/logotype_small.jpg\"></a>","id":"a6e4e3c5gh6x"},"type":"Feature","geometry":{"type":"Point","coordinates":[-0.36217,51.58472]}},{"properties":{"name":"D. Manchester Selfridges","description":"Posted by EabenMANCHESTER, NA<a title=\"Built for Community Mapping\" href=\"http://www.platial.com\"><img src=\"http://media.geocommons.com/platial/images/logotype_small.jpg\"></a>","id":"a6e4e3mmvg8i"},"type":"Feature","geometry":{"type":"Point","coordinates":[-88.258311,41.562069]}},{"properties":{"name":"D. St Barcelona la Illa","description":"Posted by EabenBARCELONA, NA<a title=\"Built for Community Mapping\" href=\"http://www.platial.com\"><img src=\"http://media.geocommons.com/platial/images/logotype_small.jpg\"></a>","id":"a6e4e3i5jt44"},"type":"Feature","geometry":{"type":"Point","coordinates":[-1.685362,41.994253]}},{"properties":{"name":"D. St Los Angeles, Melrose place","description":"Posted by EabenLOS ANGELES, CA<a title=\"Built for Community Mapping\" href=\"http://www.platial.com\"><img src=\"http://media.geocommons.com/platial/images/logotype_small.jpg\"></a>","id":"a6e4e3k614qr"},"type":"Feature","geometry":{"type":"Point","coordinates":[-118.242778,34.052222]}},{"properties":{"name":"D. St. Aarhus","description":"Posted by EabenAarhus, NA<a title=\"Built for Community Mapping\" href=\"http://www.platial.com\"><img src=\"http://media.geocommons.com/platial/images/logotype_small.jpg\"></a>","id":"a6e4e39wibmg"},"type":"Feature","geometry":{"type":"Point","coordinates":[9.577342,59.22553]}},{"properties":{"name":"D. St. Amsterdam PC Hoofstraat","description":"Posted by EabenAmsterdam, NA<a title=\"Built for Community Mapping\" href=\"http://www.platial.com\"><img src=\"http://media.geocommons.com/platial/images/logotype_small.jpg\"></a>","id":"a6e4e3lksdvd"},"type":"Feature","geometry":{"type":"Point","coordinates":[-91.302389,43.984426]}},{"properties":{"name":"D. St. Austin","description":"Posted by EabenAustin, TX<a title=\"Built for Community Mapping\" href=\"http://www.platial.com\"><img src=\"http://media.geocommons.com/platial/images/logotype_small.jpg\"></a>","id":"a6e4e38jyu8o"},"type":"Feature","geometry":{"type":"Point","coordinates":[-97.742778,30.266944]}},{"properties":{"name":"D. St. Aventura","description":"Posted by EabenMIAMI, FL<a title=\"Built for Community Mapping\" href=\"http://www.platial.com\"><img src=\"http://media.geocommons.com/platial/images/logotype_small.jpg\"></a>","id":"a6e4e3a6pn2t"},"type":"Feature","geometry":{"type":"Point","coordinates":[-80.193889,25.773889]}},{"properties":{"name":"D. St. Bilbao Gran Via","description":"Posted by EabenBilbao, NA<a title=\"Built for Community Mapping\" href=\"http://www.platial.com\"><img src=\"http://media.geocommons.com/platial/images/logotype_small.jpg\"></a>","id":"a6e4e38xh09e"},"type":"Feature","geometry":{"type":"Point","coordinates":[-104.88302,21.48642]}},{"properties":{"name":"D. St. Birmingham","description":"Posted by EabenBirmingham, NA<a title=\"Built for Community Mapping\" href=\"http://www.platial.com\"><img src=\"http://media.geocommons.com/platial/images/logotype_small.jpg\"></a>","id":"a6e4e38ehsdm"},"type":"Feature","geometry":{"type":"Point","coordinates":[8.578196,50.102029]}},{"properties":{"name":"D. St. Boston","description":"Posted by EabenBoston, MA<a title=\"Built for Community Mapping\" href=\"http://www.platial.com\"><img src=\"http://media.geocommons.com/platial/images/logotype_small.jpg\"></a>","id":"a6e4e37zbzwe"},"type":"Feature","geometry":{"type":"Point","coordinates":[-71.060278,42.358333]}},{"properties":{"name":"D. St. Castro","description":"Posted by EabenSAN FRANCISCO, CA<a title=\"Built for Community Mapping\" href=\"http://www.platial.com\"><img src=\"http://media.geocommons.com/platial/images/logotype_small.jpg\"></a>","id":"a6e4e3iip9kp"},"type":"Feature","geometry":{"type":"Point","coordinates":[-122.418333,37.775]}},{"properties":{"name":"D. St. Chicago","description":"Posted by EabenChicago, IL<a title=\"Built for Community Mapping\" href=\"http://www.platial.com\"><img src=\"http://media.geocommons.com/platial/images/logotype_small.jpg\"></a>","id":"a6e4e3df20hz"},"type":"Feature","geometry":{"type":"Point","coordinates":[-87.65,41.85]}},{"properties":{"name":"D. St. Costa Mesa S.Coast","description":"Posted by EabenCosta Mesa, CA<a title=\"Built for Community Mapping\" href=\"http://www.platial.com\"><img src=\"http://media.geocommons.com/platial/images/logotype_small.jpg\"></a>","id":"a6e4e3myybsb"},"type":"Feature","geometry":{"type":"Point","coordinates":[-117.917778,33.641111]}},{"properties":{"name":"D. St. Denver Cherry Creek","description":"Posted by EabenDenver, CO<a title=\"Built for Community Mapping\" href=\"http://www.platial.com\"><img src=\"http://media.geocommons.com/platial/images/logotype_small.jpg\"></a>","id":"a6e4e3amq2nz"},"type":"Feature","geometry":{"type":"Point","coordinates":[-104.984167,39.739167]}},{"properties":{"name":"D. St. Glasgow","description":"Posted by EabenGlasgow, NA<a title=\"Built for Community Mapping\" href=\"http://www.platial.com\"><img src=\"http://media.geocommons.com/platial/images/logotype_small.jpg\"></a>","id":"a6e4e3giqdxd"},"type":"Feature","geometry":{"type":"Point","coordinates":[-4.152796,55.839631]}},{"properties":{"name":"D. St. Hawaii Kalakawa","description":"Posted by EabenHONOLULU, HI<a title=\"Built for Community Mapping\" href=\"http://www.platial.com\"><img src=\"http://media.geocommons.com/platial/images/logotype_small.jpg\"></a>","id":"a6e4e3jv18jv"},"type":"Feature","geometry":{"type":"Point","coordinates":[-157.858333,21.306944]}},{"properties":{"name":"D. St. Helsinki Mansku","description":"Posted by EabenHelsinki, NA<a title=\"Built for Community Mapping\" href=\"http://www.platial.com\"><img src=\"http://media.geocommons.com/platial/images/logotype_small.jpg\"></a>","id":"a6e4e383yf45"},"type":"Feature","geometry":{"type":"Point","coordinates":[8.391822,49.540544]}},{"properties":{"name":"D. St. Honolulu Ala Moana","description":"Posted by EabenHONOLULU, HI<a title=\"Built for Community Mapping\" href=\"http://www.platial.com\"><img src=\"http://media.geocommons.com/platial/images/logotype_small.jpg\"></a>","id":"a6e4e3lib4lq"},"type":"Feature","geometry":{"type":"Point","coordinates":[-157.858333,21.306944]}},{"properties":{"name":"D. St. Kent Bluewater","description":"Posted by EabenKent, NA<a title=\"Built for Community Mapping\" href=\"http://www.platial.com\"><img src=\"http://media.geocommons.com/platial/images/logotype_small.jpg\"></a>","id":"a6e4e3my18in"},"type":"Feature","geometry":{"type":"Point","coordinates":[-8.890084,51.622277]}},{"properties":{"name":"D. St. King of Prussia","description":"Posted by EabenPHILADELPHIA, PA<a title=\"Built for Community Mapping\" href=\"http://www.platial.com\"><img src=\"http://media.geocommons.com/platial/images/logotype_small.jpg\"></a>","id":"a6e4e3jifo6a"},"type":"Feature","geometry":{"type":"Point","coordinates":[-75.164167,39.952222]}},{"properties":{"name":"D. St. L.A. Beverly Center","description":"Posted by EabenLOS ANGELES, CA<a title=\"Built for Community Mapping\" href=\"http://www.platial.com\"><img src=\"http://media.geocommons.com/platial/images/logotype_small.jpg\"></a>","id":"a6e4e3celfhj"},"type":"Feature","geometry":{"type":"Point","coordinates":[-118.242778,34.052222]}},{"properties":{"name":"D. St. LA Pasedena","description":"Posted by EabenPasadena, CA<a title=\"Built for Community Mapping\" href=\"http://www.platial.com\"><img src=\"http://media.geocommons.com/platial/images/logotype_small.jpg\"></a>","id":"a6e4e3mge33d"},"type":"Feature","geometry":{"type":"Point","coordinates":[-118.143611,34.147778]}},{"properties":{"name":"D. St. Las Vegas","description":"Posted by EabenLAS VEGAS, NV<a title=\"Built for Community Mapping\" href=\"http://www.platial.com\"><img src=\"http://media.geocommons.com/platial/images/logotype_small.jpg\"></a>","id":"a6e4e3ks7egp"},"type":"Feature","geometry":{"type":"Point","coordinates":[-115.136389,36.175]}},{"properties":{"name":"D. St. Las Vegas Fashion Show","description":"Posted by Eaben<img src=\"http://media.geocommons.com/platial/images/categories/ICON_culture_verD.gif\"> LAS VEGAS, NV<a title=\"Built for Community Mapping\" href=\"http://www.platial.com\"><img src=\"http://media.geocommons.com/platial/images/logotype_small.jpg\"></a>","id":"a6e4e3imlubp"},"type":"Feature","geometry":{"type":"Point","coordinates":[-115.136389,36.175]}},{"properties":{"name":"D. St. Lille","description":"Posted by EabenLille, NA<a title=\"Built for Community Mapping\" href=\"http://www.platial.com\"><img src=\"http://media.geocommons.com/platial/images/logotype_small.jpg\"></a>","id":"a6e4e3g6xkjs"},"type":"Feature","geometry":{"type":"Point","coordinates":[10.716465,59.915164]}},{"properties":{"name":"D. St. London Carnaby","description":"Posted by EabenLONDON, NA<a title=\"Built for Community Mapping\" href=\"http://www.platial.com\"><img src=\"http://media.geocommons.com/platial/images/logotype_small.jpg\"></a>","id":"a6e4e3lkbuaj"},"type":"Feature","geometry":{"type":"Point","coordinates":[-0.36217,51.58472]}},{"properties":{"name":"D. St. London Kensington","description":"Posted by EabenLONDON, NA<a title=\"Built for Community Mapping\" href=\"http://www.platial.com\"><img src=\"http://media.geocommons.com/platial/images/logotype_small.jpg\"></a>","id":"a6e4e3n1uw5z"},"type":"Feature","geometry":{"type":"Point","coordinates":[-0.36217,51.58472]}},{"properties":{"name":"D. St. Madrid Fuencarral","description":"Posted by EabenMADRID, NA<a title=\"Built for Community Mapping\" href=\"http://www.platial.com\"><img src=\"http://media.geocommons.com/platial/images/logotype_small.jpg\"></a>","id":"a6e4e3i7lzsg"},"type":"Feature","geometry":{"type":"Point","coordinates":[-105.187348,20.666185]}},{"properties":{"name":"D. St. Madrid Serrano","description":"Posted by EabenMADRID, NA<a title=\"Built for Community Mapping\" href=\"http://www.platial.com\"><img src=\"http://media.geocommons.com/platial/images/logotype_small.jpg\"></a>","id":"a6e4e3n3vqne"},"type":"Feature","geometry":{"type":"Point","coordinates":[-105.187348,20.666185]}},{"properties":{"name":"D. St. Manchester","description":"Posted by EabenMANCHESTER, NA<a title=\"Built for Community Mapping\" href=\"http://www.platial.com\"><img src=\"http://media.geocommons.com/platial/images/logotype_small.jpg\"></a>","id":"a6e4e3ha5451"},"type":"Feature","geometry":{"type":"Point","coordinates":[-88.258311,41.562069]}},{"properties":{"name":"D. St. Miami south beach","description":"Posted by Eaben<img src=\"http://media.geocommons.com/platial/images/categories/ICON_recreation_verD.gif\"> <img src=\"http://media.geocommons.com/platial/images/categories/ICON_nature_verD.gif\"> MIAMI South, FL<a title=\"Built for Community Mapping\" href=\"http://www.platial.com\"><img src=\"http://media.geocommons.com/platial/images/logotype_small.jpg\"></a>","id":"a6e4e3jj415r"},"type":"Feature","geometry":{"type":"Point","coordinates":[-80.294891,25.704062]}},{"properties":{"name":"D. St. Nottingham","description":"Posted by EabenNottingham, NA<a title=\"Built for Community Mapping\" href=\"http://www.platial.com\"><img src=\"http://media.geocommons.com/platial/images/logotype_small.jpg\"></a>","id":"a6e4e3iw2w7h"},"type":"Feature","geometry":{"type":"Point","coordinates":[-6.242871,53.359423]}},{"properties":{"name":"D. St. Oslo","description":"Posted by EabenOslo, NA<a title=\"Built for Community Mapping\" href=\"http://www.platial.com\"><img src=\"http://media.geocommons.com/platial/images/logotype_small.jpg\"></a>","id":"a6e4e3ixb6nw"},"type":"Feature","geometry":{"type":"Point","coordinates":[10.738741,59.91382]}},{"properties":{"name":"D. St. Paris Opera","description":"Posted by EabenPARIS, NA<a title=\"Built for Community Mapping\" href=\"http://www.platial.com\"><img src=\"http://media.geocommons.com/platial/images/logotype_small.jpg\"></a>","id":"a6e4e3kzr3ta"},"type":"Feature","geometry":{"type":"Point","coordinates":[-104.896673,21.483601]}},{"properties":{"name":"D. St. Philadelphia","description":"Posted by EabenPHILADELPHIA, PA<a title=\"Built for Community Mapping\" href=\"http://www.platial.com\"><img src=\"http://media.geocommons.com/platial/images/logotype_small.jpg\"></a>","id":"a6e4e3cvg6k0"},"type":"Feature","geometry":{"type":"Point","coordinates":[-75.164167,39.952222]}},{"properties":{"name":"D. St. Portland","description":"Posted by EabenPortland, OR<a title=\"Built for Community Mapping\" href=\"http://www.platial.com\"><img src=\"http://media.geocommons.com/platial/images/logotype_small.jpg\"></a>","id":"a6e4e3faleja"},"type":"Feature","geometry":{"type":"Point","coordinates":[-122.675,45.523611]}},{"properties":{"name":"D. St. Roosvelt Field","description":"Posted by EabenLong Island, NY<a title=\"Built for Community Mapping\" href=\"http://www.platial.com\"><img src=\"http://media.geocommons.com/platial/images/logotype_small.jpg\"></a>","id":"a6e4e3j7fm0n"},"type":"Feature","geometry":{"type":"Point","coordinates":[-73.94917,40.74472]}},{"properties":{"name":"D. St. S.Monica","description":"Posted by EabenSanta Monica, CA<a title=\"Built for Community Mapping\" href=\"http://www.platial.com\"><img src=\"http://media.geocommons.com/platial/images/logotype_small.jpg\"></a>","id":"a6e4e3d2cxdn"},"type":"Feature","geometry":{"type":"Point","coordinates":[-118.490278,34.019444]}},{"properties":{"name":"D. St. San José","description":"Posted by EabenSan Jose, CA<a title=\"Built for Community Mapping\" href=\"http://www.platial.com\"><img src=\"http://media.geocommons.com/platial/images/logotype_small.jpg\"></a>","id":"a6e4e3n09k5f"},"type":"Feature","geometry":{"type":"Point","coordinates":[-121.893889,37.335278]}},{"properties":{"name":"D. St. Seattle","description":"Posted by EabenSeattle, WA<a title=\"Built for Community Mapping\" href=\"http://www.platial.com\"><img src=\"http://media.geocommons.com/platial/images/logotype_small.jpg\"></a>","id":"a6e4e3bz9t8w"},"type":"Feature","geometry":{"type":"Point","coordinates":[-122.330833,47.606389]}},{"properties":{"name":"D. St. Short Hills","description":"Posted by EabenShort Hill, NJ<a title=\"Built for Community Mapping\" href=\"http://www.platial.com\"><img src=\"http://media.geocommons.com/platial/images/logotype_small.jpg\"></a>","id":"a6e4e3b9q79b"},"type":"Feature","geometry":{"type":"Point","coordinates":[-74.744695,40.947127]}},{"properties":{"name":"D. St. St Germain Rue Grenelle","description":"Posted by EabenPARIS, NA<a title=\"Built for Community Mapping\" href=\"http://www.platial.com\"><img src=\"http://media.geocommons.com/platial/images/logotype_small.jpg\"></a>","id":"a6e4e3b92fkr"},"type":"Feature","geometry":{"type":"Point","coordinates":[-104.896673,21.483601]}},{"properties":{"name":"D. St. Tampa Intnal Plaza","description":"Posted by EabenTampa, FL<a title=\"Built for Community Mapping\" href=\"http://www.platial.com\"><img src=\"http://media.geocommons.com/platial/images/logotype_small.jpg\"></a>","id":"a6e4e3f8c5mj"},"type":"Feature","geometry":{"type":"Point","coordinates":[-82.458611,27.947222]}},{"properties":{"name":"D. St. Valencia","description":"Posted by EabenValencia, NA<a title=\"Built for Community Mapping\" href=\"http://www.platial.com\"><img src=\"http://media.geocommons.com/platial/images/logotype_small.jpg\"></a>","id":"a6e4e3eahgug"},"type":"Feature","geometry":{"type":"Point","coordinates":[16.466667,-23.133333]}},{"properties":{"name":"D. St. Washington DC GTown","description":"Posted by EabenWashington, IL<a title=\"Built for Community Mapping\" href=\"http://www.platial.com\"><img src=\"http://media.geocommons.com/platial/images/logotype_small.jpg\"></a>","id":"a6e4e3ifnnur"},"type":"Feature","geometry":{"type":"Point","coordinates":[-89.407222,40.703611]}},{"properties":{"name":"D. St. Wien Mariahilfer","description":"Posted by EabenVIENNA, NA<a title=\"Built for Community Mapping\" href=\"http://www.platial.com\"><img src=\"http://media.geocommons.com/platial/images/logotype_small.jpg\"></a>","id":"a6e4e3fct0il"},"type":"Feature","geometry":{"type":"Point","coordinates":[14.233095,40.928]}},{"properties":{"name":"Flag St. Barcelona  P. de Gracia","description":"Posted by EabenBARCELONA, NA<a title=\"Built for Community Mapping\" href=\"http://www.platial.com\"><img src=\"http://media.geocommons.com/platial/images/logotype_small.jpg\"></a>","id":"a6e4e3ex3cum"},"type":"Feature","geometry":{"type":"Point","coordinates":[-1.685362,41.994253]}},{"properties":{"name":"Flag St. Wien Kohlmarkt","description":"Posted by EabenVIENNA, NA<a title=\"Built for Community Mapping\" href=\"http://www.platial.com\"><img src=\"http://media.geocommons.com/platial/images/logotype_small.jpg\"></a>","id":"a6e4e3ghdhwk"},"type":"Feature","geometry":{"type":"Point","coordinates":[14.233095,40.928]}},{"properties":{"name":"Flag. St. London Bond Street","description":"Posted by EabenLONDON, NA<a title=\"Built for Community Mapping\" href=\"http://www.platial.com\"><img src=\"http://media.geocommons.com/platial/images/logotype_small.jpg\"></a>","id":"a6e4e3kzl4qs"},"type":"Feature","geometry":{"type":"Point","coordinates":[-0.36217,51.58472]}},{"properties":{"name":"Flag. St. London CG","description":"Posted by EabenLONDON, NA<a title=\"Built for Community Mapping\" href=\"http://www.platial.com\"><img src=\"http://media.geocommons.com/platial/images/logotype_small.jpg\"></a>","id":"a6e4e3jnd4he"},"type":"Feature","geometry":{"type":"Point","coordinates":[-0.36217,51.58472]}},{"properties":{"name":"Flag. St. London Kings Rd","description":"Posted by EabenLONDON, NA<a title=\"Built for Community Mapping\" href=\"http://www.platial.com\"><img src=\"http://media.geocommons.com/platial/images/logotype_small.jpg\"></a>","id":"a6e4e3k1305g"},"type":"Feature","geometry":{"type":"Point","coordinates":[-0.36217,51.58472]}},{"properties":{"name":"Flag. St. NY Lex. Av.","description":"Posted by EabenNEW YORK, NY<a title=\"Built for Community Mapping\" href=\"http://www.platial.com\"><img src=\"http://media.geocommons.com/platial/images/logotype_small.jpg\"></a>","id":"a6e4e3e928rm"},"type":"Feature","geometry":{"type":"Point","coordinates":[-74.006389,40.714167]}},{"properties":{"name":"Flag. St. NY Soho Spring Street","description":"Posted by EabenNEW YORK, NY<a title=\"Built for Community Mapping\" href=\"http://www.platial.com\"><img src=\"http://media.geocommons.com/platial/images/logotype_small.jpg\"></a>","id":"a6e4e38v2ab5"},"type":"Feature","geometry":{"type":"Point","coordinates":[-74.006389,40.714167]}},{"properties":{"name":"Flag. St. NY Union Sq","description":"Posted by EabenNEW YORK, NY<a title=\"Built for Community Mapping\" href=\"http://www.platial.com\"><img src=\"http://media.geocommons.com/platial/images/logotype_small.jpg\"></a>","id":"a6e4e3akcwnr"},"type":"Feature","geometry":{"type":"Point","coordinates":[-74.006389,40.714167]}},{"properties":{"name":"Flag. St. Paris E.Marcel","description":"Posted by EabenPARIS, NA<a title=\"Built for Community Mapping\" href=\"http://www.platial.com\"><img src=\"http://media.geocommons.com/platial/images/logotype_small.jpg\"></a>","id":"a6e4e3jhax6i"},"type":"Feature","geometry":{"type":"Point","coordinates":[-104.896673,21.483601]}},{"properties":{"name":"Flag. St. S.Francisco","description":"Posted by EabenSAN FRANCISCO, CA<a title=\"Built for Community Mapping\" href=\"http://www.platial.com\"><img src=\"http://media.geocommons.com/platial/images/logotype_small.jpg\"></a>","id":"a6e4e3m06bux"},"type":"Feature","geometry":{"type":"Point","coordinates":[-122.418333,37.775]}},{"properties":{"name":"Gallerie LF","description":"Posted by EabenPARIS, NA<a title=\"Built for Community Mapping\" href=\"http://www.platial.com\"><img src=\"http://media.geocommons.com/platial/images/logotype_small.jpg\"></a>","id":"a6e4e3iqgqm7"},"type":"Feature","geometry":{"type":"Point","coordinates":[-104.896673,21.483601]}},{"properties":{"name":"Malmoe","description":"Posted by EabenMalmoe, NA<a title=\"Built for Community Mapping\" href=\"http://www.platial.com\"><img src=\"http://media.geocommons.com/platial/images/logotype_small.jpg\"></a>","id":"a6e4e3ihnacp"},"type":"Feature","geometry":{"type":"Point","coordinates":[10.766606,59.926877]}},{"properties":{"name":"Stockholm","description":"Posted by EabenStockholm, NA<a title=\"Built for Community Mapping\" href=\"http://www.platial.com\"><img src=\"http://media.geocommons.com/platial/images/logotype_small.jpg\"></a>","id":"a6e4e3887eh9"},"type":"Feature","geometry":{"type":"Point","coordinates":[10.76898,59.927035]}}],"is_temporal":false,"author":{"url":"http://www.platial.com/map/288489","metadata":null,"contact_name":"eaben","contact_address":null,"source":"platial:eaben","contact_phone":null},"source":"http://www.platial.com/map/288489","pagination":{"sort":null,"start":0,"total":71,"limit":1000000},"state":"complete","tags":"platial,platial:id=288489,platial:user=eaben","published":"2010-03-03T17:00:00Z","id":28247}