{"type":"FeatureCollection","data_type":"Dataset","url_type":null,"permissions":[{"permissions":{"download":true,"view":true},"group_id":"everyone"}],"classification":null,"title":"Inc_5000_1_thru_100","count":162,"stream_id":283868,"contributor":{"url":"http://geocommons.com/users/45691","name":"CalebChase"},"data_attributes":null,"calculation_params":null,"icon_link":null,"link":"http://geocommons.com/overlays/283868.json","extent":[-123.886,5.73472,-4.23,52.5],"geometry_types":["point"],"unique_name":null,"name":"Inc_5000_1_thru_100","feature_count":162,"description":"","next_feature":null,"is_raster":false,"short_classification":"Y","stats":{"employees":{"max":1300,"variance":22442.4278787879,"mean":88.42,"stdev":149.807970010904,"min":9,"median":45}},"features":[{"properties":{"3-year % growth":"23646%","city":"North Miami Beach","industry":"? Financial Services","company name":"Unified Payments","geo_score":0.0,"rank":"1","employees":31,"revenue (millions)":"$59.5 million","id":"a9aapg7y5c0w","geo_precision":"unmatched","state":"FL"},"type":"Feature","geometry":null},{"properties":{"3-year % growth":"23577%","city":"Annapolis Junction","industry":"? Energy","company name":"Astrum Solar","geo_score":0.0,"rank":"2","employees":170,"revenue (millions)":"$26.9 million","id":"a9aapg4wtlzh","geo_precision":"unmatched","state":"MD"},"type":"Feature","geometry":null},{"properties":{"3-year % growth":"21036%","city":"Alpharetta","industry":"? IT Services","company name":"Edge Solutions","geo_score":0.0,"rank":"3","employees":21,"revenue (millions)":"$21.8 million","id":"a9aapg0hg58v","geo_precision":"unmatched","state":"GA"},"type":"Feature","geometry":null},{"properties":{"3-year % growth":"12443%","city":"Sarasota","industry":"? Financial Services","company name":"Integrity Funding","geo_score":0.0,"rank":"4","employees":22,"revenue (millions)":"$14.7 million","id":"a9aapg78oqtg","geo_precision":"unmatched","state":"FL"},"type":"Feature","geometry":null},{"properties":{"3-year % growth":"12222%","city":"Spring","industry":"? Consumer Products &amp; Services","company name":"Gold &amp; Silver Buyers","geo_score":0.0,"rank":"5","employees":253,"revenue (millions)":"$55 million","id":"a9aapg9ubxca","geo_precision":"unmatched","state":"TX"},"type":"Feature","geometry":null},{"properties":{"3-year % growth":"11676%","city":"Atlanta","industry":"? Financial Services","company name":"Bluefin Payment Systems","geo_score":0.0,"rank":"6","employees":30,"revenue (millions)":"$55.6 million","id":"a9aapgeqd7d5","geo_precision":"unmatched","state":"GA"},"type":"Feature","geometry":null},{"properties":{"3-year % growth":"11082%","city":"San Francisco","industry":"? Advertising &amp; Marketing","company name":"AdRoll","geo_score":0.857,"rank":"7","employees":40,"revenue (millions)":"$12.4 million","id":"a9aapgeql8b1","geo_precision":"zip","state":"CA"},"type":"Feature","geometry":{"type":"Point","coordinates":[-80.466445516,48.350174128]}},{"properties":{"3-year % growth":"10461%","city":"Burlington","industry":"? Software","company name":"Acquia","geo_score":0.0,"rank":"8","employees":166,"revenue (millions)":"$21.8 million","id":"a9aapgbjchep","geo_precision":"unmatched","state":"MA"},"type":"Feature","geometry":null},{"properties":{"3-year % growth":"10404%","city":"Chicago","industry":"? Consumer Products &amp; Services","company name":"Red Frog Events","geo_score":0.0,"rank":"9","employees":110,"revenue (millions)":"$31.7 million","id":"a9aapg7ldyp5","geo_precision":"unmatched","state":"IL"},"type":"Feature","geometry":null},{"properties":{"3-year % growth":"10237%","city":"Elk Grove","industry":"? Consumer Products &amp; Services","company name":"Cartagz","geo_score":0.857,"rank":"10","employees":10,"revenue (millions)":"$14.2 million","id":"a9aapg92yaa3","geo_precision":"zip","state":"CA"},"type":"Feature","geometry":{"type":"Point","coordinates":[-59.831737067,46.166836215]}},{"properties":{"3-year % growth":"10160%","city":"Los Angeles","industry":"? Retail","company name":"Nasty Gal","geo_score":0.857,"rank":"11","employees":85,"revenue (millions)":"$22.9 million","id":"a9aapg1z1m6t","geo_precision":"zip","state":"CA"},"type":"Feature","geometry":{"type":"Point","coordinates":[-73.734174418,46.256476309]}},{"properties":{"3-year % growth":"9143%","city":"New York","industry":"? Media","company name":"Livestream","geo_score":0.0,"rank":"12","employees":126,"revenue (millions)":"$12.3 million","id":"a9aapgcebh3m","geo_precision":"unmatched","state":"NY"},"type":"Feature","geometry":null},{"properties":{"3-year % growth":"8853%","city":"Chicago","industry":"? Financial Services","company name":"HighTower Advisors","geo_score":0.0,"rank":"13","employees":178,"revenue (millions)":"$43.9 million","id":"a9aapg6hhbuo","geo_precision":"unmatched","state":"IL"},"type":"Feature","geometry":null},{"properties":{"3-year % growth":"8593%","city":"Pasadena","industry":"? Advertising &amp; Marketing","company name":"RateSpecial Interactive","geo_score":0.857,"rank":"14","employees":28,"revenue (millions)":"$15.5 million","id":"a9aapgdzsh7k","geo_precision":"zip","state":"CA"},"type":"Feature","geometry":{"type":"Point","coordinates":[-57.598368708,49.016714544]}},{"properties":{"3-year % growth":"8423%","city":"Kyle","industry":"? Energy","company name":"Xtreme Power","geo_score":0.0,"rank":"15","employees":265,"revenue (millions)":"$22.2 million","id":"a9aapg1r1fdd","geo_precision":"unmatched","state":"TX"},"type":"Feature","geometry":null},{"properties":{"3-year % growth":"8284%","city":"Southborough","industry":"? IT Services","company name":"uTest","geo_score":0.0,"rank":"16","employees":68,"revenue (millions)":"$8.6 million","id":"a9aapgfdcppr","geo_precision":"unmatched","state":"MA"},"type":"Feature","geometry":null},{"properties":{"3-year % growth":"8175%","city":"Ogden","industry":"? Education","company name":"Campus Book Rentals","geo_score":0.0,"rank":"17","employees":118,"revenue (millions)":"$23 million","id":"a9aapg90lkla","geo_precision":"unmatched","state":"UT"},"type":"Feature","geometry":null},{"properties":{"3-year % growth":"7852%","city":"Miami Beach","industry":"? Financial Services","company name":"Merchant Services LTD","geo_score":0.0,"rank":"18","employees":1300,"revenue (millions)":"$14.1 million","id":"a9aapg0it2xd","geo_precision":"unmatched","state":"FL"},"type":"Feature","geometry":null},{"properties":{"3-year % growth":"7531%","city":"Provo","industry":"? Financial Services","company name":"Complete Merchant Solutions","geo_score":0.0,"rank":"19","employees":30,"revenue (millions)":"$17.9 million","id":"a9aapgc7w2hv","geo_precision":"unmatched","state":"UT"},"type":"Feature","geometry":null},{"properties":{"3-year % growth":"7378%","city":"Riverview","industry":"? Logistics &amp; Transportation","company name":"BlueGrace Logistics","geo_score":0.0,"rank":"20","employees":108,"revenue (millions)":"$63.6 million","id":"a9aapgeqbvv0","geo_precision":"unmatched","state":"FL"},"type":"Feature","geometry":null},{"properties":{"3-year % growth":"7331%","city":"McLean","industry":"? Government Services","company name":"Zantech IT Services","geo_score":0.0,"rank":"21","employees":55,"revenue (millions)":"$17.8 million","id":"a9aapgfz8731","geo_precision":"unmatched","state":"VA"},"type":"Feature","geometry":null},{"properties":{"3-year % growth":"7135%","city":"Newport Beach","industry":"? Financial Services","company name":"Jackson Hunter Morris &amp; Knight","geo_score":0.857,"rank":"22","employees":63,"revenue (millions)":"$9 million","id":"a9aapg85opu4","geo_precision":"zip","state":"CA"},"type":"Feature","geometry":{"type":"Point","coordinates":[-74.549179628,49.933438264]}},{"properties":{"3-year % growth":"6978%","city":"Dumfries","industry":"? Government Services","company name":"FederalConference.com","geo_score":0.0,"rank":"23","employees":46,"revenue (millions)":"$21.7 million","id":"a9aapgccfdqp","geo_precision":"unmatched","state":"VA"},"type":"Feature","geometry":null},{"properties":{"3-year % growth":"6772%","city":"North Miami Beach","industry":"? Consumer Products &amp; Services","company name":"ING Solutions","geo_score":0.0,"rank":"24","employees":15,"revenue (millions)":"$26.3 million","id":"a9aapg15dqgf","geo_precision":"unmatched","state":"FL"},"type":"Feature","geometry":null},{"properties":{"3-year % growth":"6581%","city":"Greenville","industry":"? Retail","company name":"Wireless Communications","geo_score":0.0,"rank":"25","employees":200,"revenue (millions)":"$22.9 million","id":"a9aapgcb21ao","geo_precision":"unmatched","state":"SC"},"type":"Feature","geometry":null},{"properties":{"3-year % growth":"6429%","city":"Philadelphia","industry":"? Advertising &amp; Marketing","company name":"Leadnomics","geo_score":0.857,"rank":"26","employees":23,"revenue (millions)":"$11.3 million","id":"a9aapgai8lza","geo_precision":"zip","state":"PA"},"type":"Feature","geometry":{"type":"Point","coordinates":[-81.4,7.9833333]}},{"properties":{"3-year % growth":"6316%","city":"New York","industry":"? Advertising &amp; Marketing","company name":"Spongecell","geo_score":0.0,"rank":"27","employees":46,"revenue (millions)":"$7.6 million","id":"a9aapg7shupu","geo_precision":"unmatched","state":"NY"},"type":"Feature","geometry":null},{"properties":{"3-year % growth":"6277%","city":"Austin","industry":"? Business Products &amp; Services","company name":"MHD Enterprises","geo_score":0.0,"rank":"28","employees":17,"revenue (millions)":"$7 million","id":"a9aapg4tycmv","geo_precision":"unmatched","state":"TX"},"type":"Feature","geometry":null},{"properties":{"3-year % growth":"6267%","city":"Marietta","industry":"? Real Estate","company name":"Valuation Management Group","geo_score":0.0,"rank":"29","employees":62,"revenue (millions)":"$34.3 million","id":"a9aapg28v9ur","geo_precision":"unmatched","state":"GA"},"type":"Feature","geometry":null},{"properties":{"3-year % growth":"6133%","city":"Portland","industry":"? Business Products &amp; Services","company name":"Vets First Choice","geo_score":0.0,"rank":"30","employees":41,"revenue (millions)":"$7.5 million","id":"a9aapg8vi6ia","geo_precision":"unmatched","state":"ME"},"type":"Feature","geometry":null},{"properties":{"3-year % growth":"5906%","city":"Chicago","industry":"? Government Services","company name":"Lucid Technology","geo_score":0.0,"rank":"31","employees":25,"revenue (millions)":"$9.7 million","id":"a9aapg1oyvt8","geo_precision":"unmatched","state":"IL"},"type":"Feature","geometry":null},{"properties":{"3-year % growth":"5872%","city":"San Mateo","industry":"? Advertising &amp; Marketing","company name":"Adap.tv","geo_score":0.857,"rank":"32","employees":85,"revenue (millions)":"$33.4 million","id":"a9aapgcqnao9","geo_precision":"zip","state":"CA"},"type":"Feature","geometry":{"type":"Point","coordinates":[-76.832710082,48.30017534]}},{"properties":{"3-year % growth":"5866%","city":"Plymouth Meeting","industry":"? Health","company name":"Accolade","geo_score":0.0,"rank":"33","employees":153,"revenue (millions)":"$17.9 million","id":"a9aapg38gfc4","geo_precision":"unmatched","state":"PA"},"type":"Feature","geometry":null},{"properties":{"3-year % growth":"5855%","city":"Fort Lauderdale","industry":"? Health","company name":"EngagePoint","geo_score":0.0,"rank":"34","employees":120,"revenue (millions)":"$13.2 million","id":"a9aapg86virq","geo_precision":"unmatched","state":"FL"},"type":"Feature","geometry":null},{"properties":{"3-year % growth":"5779%","city":"Vienna","industry":"? Government Services","company name":"OBXtek","geo_score":0.0,"rank":"35","employees":92,"revenue (millions)":"$6.3 million","id":"a9aapg9r5ov4","geo_precision":"unmatched","state":"VA"},"type":"Feature","geometry":null},{"properties":{"3-year % growth":"5708%","city":"Irvine","industry":"? Advertising &amp; Marketing","company name":"29 Prime","geo_score":0.857,"rank":"36","employees":149,"revenue (millions)":"$6.4 million","id":"a9aapg8z8612","geo_precision":"zip","state":"CA"},"type":"Feature","geometry":{"type":"Point","coordinates":[-119.685756752,51.649870533]}},{"properties":{"3-year % growth":"5651%","city":"Mount Laurel","industry":"? Advertising &amp; Marketing","company name":"WebiMax","geo_score":0.0,"rank":"37","employees":150,"revenue (millions)":"$7.1 million","id":"a9aapgdwno7l","geo_precision":"unmatched","state":"NJ"},"type":"Feature","geometry":null},{"properties":{"3-year % growth":"5554%","city":"Norwalk","industry":"? Security","company name":"Datto","geo_score":0.0,"rank":"38","employees":75,"revenue (millions)":"$8.8 million","id":"a9aapg3adjeo","geo_precision":"unmatched","state":"CT"},"type":"Feature","geometry":null},{"properties":{"3-year % growth":"5552%","city":"Dallas","industry":"? Energy","company name":"Clearview Electric","geo_score":0.0,"rank":"39","employees":17,"revenue (millions)":"$29.3 million","id":"a9aapgax30p2","geo_precision":"unmatched","state":"TX"},"type":"Feature","geometry":null},{"properties":{"3-year % growth":"5279%","city":"San Francisco","industry":"? Financial Services","company name":"Credit Karma","geo_score":0.857,"rank":"40","employees":27,"revenue (millions)":"$5.7 million","id":"a9aapgc4gifb","geo_precision":"zip","state":"CA"},"type":"Feature","geometry":{"type":"Point","coordinates":[-80.466445516,48.350174128]}},{"properties":{"3-year % growth":"5186%","city":"Louisville","industry":"? IT Services","company name":"Strategic Communications","geo_score":0.0,"rank":"41","employees":27,"revenue (millions)":"$45.4 million","id":"a9aapgc5eyy2","geo_precision":"unmatched","state":"KY"},"type":"Feature","geometry":null},{"properties":{"3-year % growth":"5087%","city":"Berkeley","industry":"? Consumer Products &amp; Services","company name":"Honey-Can-Do International","geo_score":0.0,"rank":"42","employees":45,"revenue (millions)":"$23.6 million","id":"a9aapg7ivyrp","geo_precision":"unmatched","state":"IL"},"type":"Feature","geometry":null},{"properties":{"3-year % growth":"5058%","city":"Bronx","industry":"? Energy","company name":"OnForce Solar","geo_score":0.0,"rank":"43","employees":22,"revenue (millions)":"$14.9 million","id":"a9aapgb2yytj","geo_precision":"unmatched","state":"NY"},"type":"Feature","geometry":null},{"properties":{"3-year % growth":"4980%","city":"Norwalk","industry":"? Advertising &amp; Marketing","company name":"Inspira Marketing Group","geo_score":0.0,"rank":"44","employees":15,"revenue (millions)":"$8.1 million","id":"a9aapg50i12l","geo_precision":"unmatched","state":"CT"},"type":"Feature","geometry":null},{"properties":{"3-year % growth":"4882%","city":"San Diego","industry":"? Energy","company name":"Solar Alliance of America","geo_score":0.857,"rank":"45","employees":40,"revenue (millions)":"$9.9 million","id":"a9aapg2kqbt5","geo_precision":"zip","state":"CA"},"type":"Feature","geometry":{"type":"Point","coordinates":[-101.584220585,51.399979807]}},{"properties":{"3-year % growth":"4756%","city":"Los Angeles","industry":"? Business Products &amp; Services","company name":"I.T. Source","geo_score":0.857,"rank":"46","employees":29,"revenue (millions)":"$24.8 million","id":"a9aapg5ulnng","geo_precision":"zip","state":"CA"},"type":"Feature","geometry":{"type":"Point","coordinates":[-73.734174418,46.256476309]}},{"properties":{"3-year % growth":"4637%","city":"Lyndhurst","industry":"? Health","company name":"Vitals","geo_score":0.0,"rank":"47","employees":89,"revenue (millions)":"$6.4 million","id":"a9aapg4c9gi6","geo_precision":"unmatched","state":"NJ"},"type":"Feature","geometry":null},{"properties":{"3-year % growth":"4613%","city":"Boston","industry":"? Retail","company name":"Gemvara","geo_score":0.857,"rank":"48","employees":50,"revenue (millions)":"$7.4 million","id":"a9aapg6exrps","geo_precision":"zip","state":"MA"},"type":"Feature","geometry":{"type":"Point","coordinates":[-4.23,34.11]}},{"properties":{"3-year % growth":"4604%","city":"Costa Mesa","industry":"? Advertising &amp; Marketing","company name":"YMarketing","geo_score":0.857,"rank":"49","employees":32,"revenue (millions)":"$38.4 million","id":"a9aapgej7i72","geo_precision":"zip","state":"CA"},"type":"Feature","geometry":{"type":"Point","coordinates":[-123.886001997,49.049630101]}},{"properties":{"3-year % growth":"4562%","city":"Miami","industry":"? Insurance","company name":"BrokersWeb.com","geo_score":0.0,"rank":"50","employees":65,"revenue (millions)":"$54.5 million","id":"a9aapg8ddf4j","geo_precision":"unmatched","state":"FL"},"type":"Feature","geometry":null},{"properties":{"3-year % growth":"4522%","city":"Austin","industry":"? Food &amp; Beverage","company name":"Vital Farms","geo_score":0.0,"rank":"51","employees":17,"revenue (millions)":"$4.9 million","id":"a9aapg31a7l6","geo_precision":"unmatched","state":"TX"},"type":"Feature","geometry":null},{"properties":{"3-year % growth":"4518%","city":"Portland","industry":"? Software","company name":"Elemental Technologies","geo_score":0.0,"rank":"52","employees":49,"revenue (millions)":"$10.2 million","id":"a9aapgfs72yn","geo_precision":"unmatched","state":"OR"},"type":"Feature","geometry":null},{"properties":{"3-year % growth":"4491%","city":"Orem","industry":"? Construction","company name":"Edge Homes","geo_score":0.0,"rank":"53","employees":15,"revenue (millions)":"$37.2 million","id":"a9aapgd37vuy","geo_precision":"unmatched","state":"UT"},"type":"Feature","geometry":null},{"properties":{"3-year % growth":"4380%","city":"Denver","industry":"? Advertising &amp; Marketing","company name":"Altitude Digital Partners","geo_score":0.0,"rank":"54","employees":19,"revenue (millions)":"$6 million","id":"a9aapg7hhzc8","geo_precision":"unmatched","state":"CO"},"type":"Feature","geometry":null},{"properties":{"3-year % growth":"4337%","city":"Midvale","industry":"? Advertising &amp; Marketing","company name":"MediaForge","geo_score":0.0,"rank":"55","employees":31,"revenue (millions)":"$5.5 million","id":"a9aapgeas9dp","geo_precision":"unmatched","state":"UT"},"type":"Feature","geometry":null},{"properties":{"3-year % growth":"4330%","city":"New York","industry":"? Telecommunications","company name":"Quantum Networks","geo_score":0.0,"rank":"56","employees":24,"revenue (millions)":"$6 million","id":"a9aapg1ctfeh","geo_precision":"unmatched","state":"NY"},"type":"Feature","geometry":null},{"properties":{"3-year % growth":"4315%","city":"San Bruno","industry":"? Consumer Products &amp; Services","company name":"Stella &amp; Dot","geo_score":0.857,"rank":"57","employees":125,"revenue (millions)":"$175.3 million","id":"a9aapg1zyk4r","geo_precision":"zip","state":"CA"},"type":"Feature","geometry":{"type":"Point","coordinates":[-81.999630598,50.800157563]}},{"properties":{"3-year % growth":"4159%","city":"Saint Louis","industry":"? Construction","company name":"Innovative Construction","geo_score":0.0,"rank":"58","employees":10,"revenue (millions)":"$15.1 million","id":"a9aapg37yqsw","geo_precision":"unmatched","state":"MO"},"type":"Feature","geometry":null},{"properties":{"3-year % growth":"4112%","city":"Plano","industry":"? IT Services","company name":"AustinCSI","geo_score":0.0,"rank":"59","employees":41,"revenue (millions)":"$4.9 million","id":"a9aapg5z3f95","geo_precision":"unmatched","state":"TX"},"type":"Feature","geometry":null},{"properties":{"3-year % growth":"4101%","city":"Traverse City","industry":"? Energy","company name":"Keen Technical Solutions","geo_score":0.0,"rank":"60","employees":11,"revenue (millions)":"$4.2 million","id":"a9aapga4noin","geo_precision":"unmatched","state":"MI"},"type":"Feature","geometry":null},{"properties":{"3-year % growth":"4084%","city":"Boston","industry":"? Advertising &amp; Marketing","company name":"Brafton","geo_score":0.857,"rank":"61","employees":184,"revenue (millions)":"$11.6 million","id":"a9aapg8cjo05","geo_precision":"zip","state":"MA"},"type":"Feature","geometry":{"type":"Point","coordinates":[-4.23,34.11]}},{"properties":{"3-year % growth":"4064%","city":"Dallas","industry":"? Software","company name":"Bottle Rocket Apps","geo_score":0.0,"rank":"62","employees":58,"revenue (millions)":"$6.1 million","id":"a9aapgbqs3ow","geo_precision":"unmatched","state":"TX"},"type":"Feature","geometry":null},{"properties":{"3-year % growth":"4056%","city":"Emeryville","industry":"? Food &amp; Beverage","company name":"Plum Organics","geo_score":0.857,"rank":"63","employees":38,"revenue (millions)":"$38.4 million","id":"a9aapg4a4s2m","geo_precision":"zip","state":"CA"},"type":"Feature","geometry":{"type":"Point","coordinates":[-82.749827918,42.300081796]}},{"properties":{"3-year % growth":"4014%","city":"Andover","industry":"? Human Resources","company name":"The Start Group","geo_score":0.857,"rank":"64","employees":32,"revenue (millions)":"$17.4 million","id":"a9aapgfnj4j2","geo_precision":"zip","state":"MA"},"type":"Feature","geometry":{"type":"Point","coordinates":[-10.38,28.38]}},{"properties":{"3-year % growth":"3894%","city":"Fresno","industry":"? Logistics &amp; Transportation","company name":"CargoBarn","geo_score":0.857,"rank":"65","employees":10,"revenue (millions)":"$7 million","id":"a9aapg1yxe70","geo_precision":"zip","state":"CA"},"type":"Feature","geometry":{"type":"Point","coordinates":[-58.748210046,51.300121117]}},{"properties":{"3-year % growth":"3880%","city":"Mountain View","industry":"? Telecommunications","company name":"Audience","geo_score":0.857,"rank":"66","employees":189,"revenue (millions)":"$97.7 million","id":"a9aapg4ai9nf","geo_precision":"zip","state":"CA"},"type":"Feature","geometry":{"type":"Point","coordinates":[-104.58434708,49.166763401]}},{"properties":{"3-year % growth":"3780%","city":"Pleasanton","industry":"? Software","company name":"Spigit","geo_score":0.857,"rank":"67","employees":121,"revenue (millions)":"$9.7 million","id":"a9aapgbip5ij","geo_precision":"zip","state":"CA"},"type":"Feature","geometry":{"type":"Point","coordinates":[-104.417708634,52.500015356]}},{"properties":{"3-year % growth":"3754%","city":"East Windsor","industry":"? Consumer Products &amp; Services","company name":"CardCash.com","geo_score":0.0,"rank":"68","employees":10,"revenue (millions)":"$6.5 million","id":"a9aapg2ae0wj","geo_precision":"unmatched","state":"NJ"},"type":"Feature","geometry":null},{"properties":{"3-year % growth":"3751%","city":"Thermal","industry":"? Logistics &amp; Transportation","company name":"Desert Jet","geo_score":0.0,"rank":"69","employees":11,"revenue (millions)":"$5 million","id":"a9aapg7mdr7v","geo_precision":"unmatched","state":"CA"},"type":"Feature","geometry":null},{"properties":{"3-year % growth":"3732%","city":"Murray","industry":"? Health","company name":"VRx","geo_score":0.0,"rank":"70","employees":43,"revenue (millions)":"$70.7 million","id":"a9aapg394izm","geo_precision":"unmatched","state":"UT"},"type":"Feature","geometry":null},{"properties":{"3-year % growth":"3684%","city":"Plymouth","industry":"? Environmental Services","company name":"GarbageMan, A Green Company","geo_score":0.0,"rank":"71","employees":20,"revenue (millions)":"$4.5 million","id":"a9aapg0ymckd","geo_precision":"unmatched","state":"MN"},"type":"Feature","geometry":null},{"properties":{"3-year % growth":"3672%","city":"San Francisco","industry":"? Software","company name":"Rocket Lawyer","geo_score":0.857,"rank":"72","employees":80,"revenue (millions)":"$14.2 million","id":"a9aapgbfq5fz","geo_precision":"zip","state":"CA"},"type":"Feature","geometry":{"type":"Point","coordinates":[-80.466445516,48.350174128]}},{"properties":{"3-year % growth":"3623%","city":"Irvine","industry":"? Advertising &amp; Marketing","company name":"eGumball","geo_score":0.857,"rank":"73","employees":65,"revenue (millions)":"$6.4 million","id":"a9aapgfokpry","geo_precision":"zip","state":"CA"},"type":"Feature","geometry":{"type":"Point","coordinates":[-119.685756752,51.649870533]}},{"properties":{"3-year % growth":"3620%","city":"Huntsville","industry":"? Government Services","company name":"Connected Logistics","geo_score":0.0,"rank":"74","employees":72,"revenue (millions)":"$22.5 million","id":"a9aapgbrshcp","geo_precision":"unmatched","state":"AL"},"type":"Feature","geometry":null},{"properties":{"3-year % growth":"3615%","city":"Jacksonville","industry":"? Construction","company name":"Dream Finders Homes","geo_score":0.0,"rank":"75","employees":30,"revenue (millions)":"$24.8 million","id":"a9aapgb5c9sa","geo_precision":"unmatched","state":"FL"},"type":"Feature","geometry":null},{"properties":{"3-year % growth":"3602%","city":"Bellevue","industry":"? Software","company name":"DBBest Technologies","geo_score":0.0,"rank":"76","employees":100,"revenue (millions)":"$4.4 million","id":"a9aapg92mzep","geo_precision":"unmatched","state":"WA"},"type":"Feature","geometry":null},{"properties":{"3-year % growth":"3586%","city":"El Monte","industry":"? Retail","company name":"Xenon Project International","geo_score":0.857,"rank":"77","employees":12,"revenue (millions)":"$4.4 million","id":"a9aapg3lif3w","geo_precision":"zip","state":"CA"},"type":"Feature","geometry":{"type":"Point","coordinates":[-83.233182423,46.216760816]}},{"properties":{"3-year % growth":"3545%","city":"San Mateo","industry":"? Software","company name":"Marketo","geo_score":0.857,"rank":"78","employees":235,"revenue (millions)":"$32.9 million","id":"a9aapgd2n6jr","geo_precision":"zip","state":"CA"},"type":"Feature","geometry":{"type":"Point","coordinates":[-76.832710082,48.30017534]}},{"properties":{"3-year % growth":"3530%","city":"La Crosse","industry":"? Environmental Services","company name":"Dynamic Recycling","geo_score":0.0,"rank":"79","employees":41,"revenue (millions)":"$7.1 million","id":"a9aapg93mch0","geo_precision":"unmatched","state":"WI"},"type":"Feature","geometry":null},{"properties":{"3-year % growth":"3500%","city":"Arlington","industry":"? Real Estate","company name":"Innotion Enterprises","geo_score":0.0,"rank":"80","employees":43,"revenue (millions)":"$35.8 million","id":"a9aapggizfx5","geo_precision":"unmatched","state":"VA"},"type":"Feature","geometry":null},{"properties":{"3-year % growth":"3363%","city":"Irvine","industry":"? Advertising &amp; Marketing","company name":"Reputation Management Consultants","geo_score":0.857,"rank":"81","employees":35,"revenue (millions)":"$4 million","id":"a9aapgfn2l48","geo_precision":"zip","state":"CA"},"type":"Feature","geometry":{"type":"Point","coordinates":[-119.685756752,51.649870533]}},{"properties":{"3-year % growth":"3359%","city":"Panama City","industry":"? Health","company name":"iSirona","geo_score":0.0,"rank":"82","employees":45,"revenue (millions)":"$6.7 million","id":"a9aapg8qavze","geo_precision":"unmatched","state":"FL"},"type":"Feature","geometry":null},{"properties":{"3-year % growth":"3340%","city":"Sandy","industry":"? Retail","company name":"Bohme","geo_score":0.0,"rank":"83","employees":130,"revenue (millions)":"$8.6 million","id":"a9aapgfj652u","geo_precision":"unmatched","state":"UT"},"type":"Feature","geometry":null},{"properties":{"3-year % growth":"3320%","city":"Santa Clara","industry":"? Security","company name":"Palo Alto Networks","geo_score":0.857,"rank":"84","employees":600,"revenue (millions)":"$185.1 million","id":"a9aapg73cfj1","geo_precision":"zip","state":"CA"},"type":"Feature","geometry":{"type":"Point","coordinates":[-104.084339828,52.016706709]}},{"properties":{"3-year % growth":"3312%","city":"Fort Collins","industry":"? Consumer Products &amp; Services","company name":"OtterBox","geo_score":0.857,"rank":"85","employees":400,"revenue (millions)":"$347.5 million","id":"a9aapgcfeqbg","geo_precision":"zip","state":"CO"},"type":"Feature","geometry":{"type":"Point","coordinates":[-74.0652778,5.7347222]}},{"properties":{"3-year % growth":"3306%","city":"San Francisco","industry":"? Advertising &amp; Marketing","company name":"Bizo","geo_score":0.857,"rank":"86","employees":50,"revenue (millions)":"$12.3 million","id":"a9aapg85avx3","geo_precision":"zip","state":"CA"},"type":"Feature","geometry":{"type":"Point","coordinates":[-80.466445516,48.350174128]}},{"properties":{"3-year % growth":"3278%","city":"Frisco","industry":"? Financial Services","company name":"Century Payments","geo_score":0.0,"rank":"87","employees":150,"revenue (millions)":"$42.7 million","id":"a9aapgc6i1vq","geo_precision":"unmatched","state":"TX"},"type":"Feature","geometry":null},{"properties":{"3-year % growth":"3272%","city":"Huntsville","industry":"? Government Services","company name":"Pinnacle Solutions","geo_score":0.0,"rank":"88","employees":66,"revenue (millions)":"$9.6 million","id":"a9aapg8h6ntc","geo_precision":"unmatched","state":"AL"},"type":"Feature","geometry":null},{"properties":{"3-year % growth":"3270%","city":"Coplay","industry":"? Consumer Products &amp; Services","company name":"ReplaceMyContacts.com","geo_score":0.0,"rank":"89","employees":12,"revenue (millions)":"$3.8 million","id":"a9aapgbyd9ng","geo_precision":"unmatched","state":"PA"},"type":"Feature","geometry":null},{"properties":{"3-year % growth":"3215%","city":"San Antonio","industry":"? Education","company name":"Armando Montelongo Companies","geo_score":0.0,"rank":"90","employees":203,"revenue (millions)":"$74.5 million","id":"a9aapg56btko","geo_precision":"unmatched","state":"TX"},"type":"Feature","geometry":null},{"properties":{"3-year % growth":"3185%","city":"Odenton","industry":"? Consumer Products &amp; Services","company name":"M-Edge Accessories","geo_score":0.0,"rank":"91","employees":56,"revenue (millions)":"$37.2 million","id":"a9aapg4090bq","geo_precision":"unmatched","state":"MD"},"type":"Feature","geometry":null},{"properties":{"3-year % growth":"3154%","city":"Billerica","industry":"? Consumer Products &amp; Services","company name":"NextWorth Solutions","geo_score":0.0,"rank":"92","employees":17,"revenue (millions)":"$20.4 million","id":"a9aapga0ufqr","geo_precision":"unmatched","state":"MA"},"type":"Feature","geometry":null},{"properties":{"3-year % growth":"3113%","city":"Dallas","industry":"? Construction","company name":"C-DM Network","geo_score":0.0,"rank":"93","employees":16,"revenue (millions)":"$3.8 million","id":"a9aapg4si56a","geo_precision":"unmatched","state":"TX"},"type":"Feature","geometry":null},{"properties":{"3-year % growth":"3113%","city":"Scottsdale","industry":"? Health","company name":"The Joint","geo_score":0.0,"rank":"94","employees":9,"revenue (millions)":"$3.8 million","id":"a9aapgfupgbc","geo_precision":"unmatched","state":"AZ"},"type":"Feature","geometry":null},{"properties":{"3-year % growth":"3094%","city":"Scottsdale","industry":"? Health","company name":"GlobalMed","geo_score":0.0,"rank":"95","employees":113,"revenue (millions)":"$26.3 million","id":"a9aapgdzne0h","geo_precision":"unmatched","state":"AZ"},"type":"Feature","geometry":null},{"properties":{"3-year % growth":"3085%","city":"Charleston","industry":"? Software","company name":"BoomTown","geo_score":0.0,"rank":"96","employees":38,"revenue (millions)":"$4.6 million","id":"a9aapgbn0y5x","geo_precision":"unmatched","state":"SC"},"type":"Feature","geometry":null},{"properties":{"3-year % growth":"3069%","city":"Chicago","industry":"? Telecommunications","company name":"Peerless Network","geo_score":0.0,"rank":"97","employees":44,"revenue (millions)":"$46 million","id":"a9aapggnayxu","geo_precision":"unmatched","state":"IL"},"type":"Feature","geometry":null},{"properties":{"3-year % growth":"3040%","city":"Honolulu","industry":"? Advertising &amp; Marketing","company name":"Asentra","geo_score":0.0,"rank":"98","employees":26,"revenue (millions)":"$8.6 million","id":"a9aapg3jb8n8","geo_precision":"unmatched","state":"HI"},"type":"Feature","geometry":null},{"properties":{"3-year % growth":"3031%","city":"San Mateo","industry":"? IT Services","company name":"SugarSync","geo_score":0.857,"rank":"99","employees":52,"revenue (millions)":"$11.3 million","id":"a9aapgcs3a5e","geo_precision":"zip","state":"CA"},"type":"Feature","geometry":{"type":"Point","coordinates":[-76.832710082,48.30017534]}},{"properties":{"3-year % growth":"3029%","city":"Parsippany","industry":"? Telecommunications","company name":"Wall Street Network Solutions","geo_score":0.0,"rank":"100","employees":10,"revenue (millions)":"$3.4 million","id":"a9aapgaoy8j7","geo_precision":"unmatched","state":"NJ"},"type":"Feature","geometry":null},{"properties":{"3-year % growth":null,"city":null,"industry":null,"company name":null,"geo_score":0.0,"rank":"Page 1 of 51","employees":null,"revenue (millions)":null,"id":"a9aapgefb7iq","geo_precision":"","state":null},"type":"Feature","geometry":null},{"properties":{"3-year % growth":null,"city":null,"industry":null,"company name":null,"geo_score":0.0,"rank":"1","employees":null,"revenue (millions)":null,"id":"a9aapg7mtfjj","geo_precision":"","state":null},"type":"Feature","geometry":null},{"properties":{"3-year % growth":null,"city":null,"industry":null,"company name":null,"geo_score":0.0,"rank":"2","employees":null,"revenue (millions)":null,"id":"a9aapg1nzupo","geo_precision":"","state":null},"type":"Feature","geometry":null},{"properties":{"3-year % growth":null,"city":null,"industry":null,"company name":null,"geo_score":0.0,"rank":"3","employees":null,"revenue (millions)":null,"id":"a9aapgdhci6i","geo_precision":"","state":null},"type":"Feature","geometry":null},{"properties":{"3-year % growth":null,"city":null,"industry":null,"company name":null,"geo_score":0.0,"rank":"4","employees":null,"revenue (millions)":null,"id":"a9aapg2bw954","geo_precision":"","state":null},"type":"Feature","geometry":null},{"properties":{"3-year % growth":null,"city":null,"industry":null,"company name":null,"geo_score":0.0,"rank":"5","employees":null,"revenue (millions)":null,"id":"a9aapgfxjkrk","geo_precision":"","state":null},"type":"Feature","geometry":null},{"properties":{"3-year % growth":null,"city":null,"industry":null,"company name":null,"geo_score":0.0,"rank":"...","employees":null,"revenue (millions)":null,"id":"a9aapgd9ogqc","geo_precision":"","state":null},"type":"Feature","geometry":null},{"properties":{"3-year % growth":null,"city":null,"industry":null,"company name":null,"geo_score":0.0,"rank":"51","employees":null,"revenue (millions)":null,"id":"a9aapg92myh7","geo_precision":"","state":null},"type":"Feature","geometry":null},{"properties":{"3-year % growth":null,"city":null,"industry":null,"company name":null,"geo_score":0.0,"rank":"Next","employees":null,"revenue (millions)":null,"id":"a9aapg14nn61","geo_precision":"","state":null},"type":"Feature","geometry":null},{"properties":{"3-year % growth":null,"city":null,"industry":null,"company name":null,"geo_score":0.0,"rank":"ADVERTISEMENT","employees":null,"revenue (millions)":null,"id":"a9aapgaa0e1b","geo_precision":"","state":null},"type":"Feature","geometry":null},{"properties":{"3-year % growth":null,"city":null,"industry":null,"company name":null,"geo_score":0.0,"rank":"THE BEST OF THE INC. 5000","employees":null,"revenue (millions)":null,"id":"a9aapg5y7vgv","geo_precision":"","state":null},"type":"Feature","geometry":null},{"properties":{"3-year % growth":null,"city":null,"industry":null,"company name":null,"geo_score":0.0,"rank":"Americaâ€™s fastest growers by state, industry, metro, and much more.","employees":null,"revenue (millions)":null,"id":"a9aapgcpj6b3","geo_precision":"","state":null},"type":"Feature","geometry":null},{"properties":{"3-year % growth":null,"city":null,"industry":null,"company name":null,"geo_score":0.0,"rank":"STORIES OF THE INC.5000","employees":null,"revenue (millions)":null,"id":"a9aapg965gpw","geo_precision":"","state":null},"type":"Feature","geometry":null},{"properties":{"3-year % growth":null,"city":null,"industry":null,"company name":null,"geo_score":0.0,"rank":"Meet No.1 Oleg Firer of Unified Payments","employees":null,"revenue (millions)":null,"id":"a9aapg0dfx0f","geo_precision":"","state":null},"type":"Feature","geometry":null},{"properties":{"3-year % growth":null,"city":null,"industry":null,"company name":null,"geo_score":0.0,"rank":"Guts and Optimism: What It Takes to Make the 2012 List","employees":null,"revenue (millions)":null,"id":"a9aapg1on4y9","geo_precision":"","state":null},"type":"Feature","geometry":null},{"properties":{"3-year % growth":null,"city":null,"industry":null,"company name":null,"geo_score":0.0,"rank":"Is Your Company an IT Company at Heart?","employees":null,"revenue (millions)":null,"id":"a9aapgabmjix","geo_precision":"","state":null},"type":"Feature","geometry":null},{"properties":{"3-year % growth":null,"city":null,"industry":null,"company name":null,"geo_score":0.0,"rank":"WHO ARE THE INC.5000","employees":null,"revenue (millions)":null,"id":"a9aapgcbpo29","geo_precision":"","state":null},"type":"Feature","geometry":null},{"properties":{"3-year % growth":null,"city":null,"industry":null,"company name":null,"geo_score":0.0,"rank":"Life After the 5000: Fortune, Flameout, and Self Discovery","employees":null,"revenue (millions)":null,"id":"a9aapgf7lfbm","geo_precision":"","state":null},"type":"Feature","geometry":null},{"properties":{"3-year % growth":null,"city":null,"industry":null,"company name":null,"geo_score":0.0,"rank":"Life After the 500: Fortune, Flameout, and Self Discovery","employees":null,"revenue (millions)":null,"id":"a9aapgdj2sg8","geo_precision":"","state":null},"type":"Feature","geometry":null},{"properties":{"3-year % growth":null,"city":null,"industry":null,"company name":null,"geo_score":0.0,"rank":"Shaking Up the Healthy Foods Category, Again","employees":null,"revenue (millions)":null,"id":"a9aapge160uv","geo_precision":"","state":null},"type":"Feature","geometry":null},{"properties":{"3-year % growth":null,"city":null,"industry":null,"company name":null,"geo_score":0.0,"rank":"No Succession Plan &amp; an Uncertain Legacy","employees":null,"revenue (millions)":null,"id":"a9aapgeodshp","geo_precision":"","state":null},"type":"Feature","geometry":null},{"properties":{"3-year % growth":null,"city":null,"industry":null,"company name":null,"geo_score":0.0,"rank":"Still Growing, Still Independent, Still Happy","employees":null,"revenue (millions)":null,"id":"a9aapg2iukta","geo_precision":"","state":null},"type":"Feature","geometry":null},{"properties":{"3-year % growth":null,"city":null,"industry":null,"company name":null,"geo_score":0.0,"rank":"The Difference Between Success and Significance","employees":null,"revenue (millions)":null,"id":"a9aapg7ctxk3","geo_precision":"","state":null},"type":"Feature","geometry":null},{"properties":{"3-year % growth":null,"city":null,"industry":null,"company name":null,"geo_score":0.0,"rank":"Set a Remarkable Goal, Then Blow It Away","employees":null,"revenue (millions)":null,"id":"a9aapg1a2k3f","geo_precision":"","state":null},"type":"Feature","geometry":null},{"properties":{"3-year % growth":null,"city":null,"industry":null,"company name":null,"geo_score":0.0,"rank":"Private Again and On the Move","employees":null,"revenue (millions)":null,"id":"a9aapgan5bom","geo_precision":"","state":null},"type":"Feature","geometry":null},{"properties":{"3-year % growth":null,"city":null,"industry":null,"company name":null,"geo_score":0.0,"rank":"My Story: By the Inc. 5000 CEOs","employees":null,"revenue (millions)":null,"id":"a9aapgavwdpo","geo_precision":"","state":null},"type":"Feature","geometry":null},{"properties":{"3-year % growth":null,"city":null,"industry":null,"company name":null,"geo_score":0.0,"rank":"Why I Stopped Firing Everyone and Started Being a Better Boss","employees":null,"revenue (millions)":null,"id":"a9aapg0fm00c","geo_precision":"","state":null},"type":"Feature","geometry":null},{"properties":{"3-year % growth":null,"city":null,"industry":null,"company name":null,"geo_score":0.0,"rank":"How We Turned a Wedding in a Baseball Stadium Into an Ad Firm","employees":null,"revenue (millions)":null,"id":"a9aapgegvhzk","geo_precision":"","state":null},"type":"Feature","geometry":null},{"properties":{"3-year % growth":null,"city":null,"industry":null,"company name":null,"geo_score":0.0,"rank":"Why I Thrive Under Pressure (&amp; Why My Clients Do, Too)","employees":null,"revenue (millions)":null,"id":"a9aapg67nfxr","geo_precision":"","state":null},"type":"Feature","geometry":null},{"properties":{"3-year % growth":null,"city":null,"industry":null,"company name":null,"geo_score":0.0,"rank":"How I Came Here as an Arranged Bride and Became My Own Boss","employees":null,"revenue (millions)":null,"id":"a9aapg22babi","geo_precision":"","state":null},"type":"Feature","geometry":null},{"properties":{"3-year % growth":null,"city":null,"industry":null,"company name":null,"geo_score":0.0,"rank":"Why Those Cease-and-Desist Letters Aren't All Bad","employees":null,"revenue (millions)":null,"id":"a9aapg1w00c7","geo_precision":"","state":null},"type":"Feature","geometry":null},{"properties":{"3-year % growth":null,"city":null,"industry":null,"company name":null,"geo_score":0.0,"rank":"I'm Still Getting My Hands Dirty","employees":null,"revenue (millions)":null,"id":"a9aapg0j1jrw","geo_precision":"","state":null},"type":"Feature","geometry":null},{"properties":{"3-year % growth":null,"city":null,"industry":null,"company name":null,"geo_score":0.0,"rank":"How I Learned to Love Diesel","employees":null,"revenue (millions)":null,"id":"a9aapg73q3xo","geo_precision":"","state":null},"type":"Feature","geometry":null},{"properties":{"3-year % growth":null,"city":null,"industry":null,"company name":null,"geo_score":0.0,"rank":"Why I Love Giving Second Chances--to People and Machines","employees":null,"revenue (millions)":null,"id":"a9aapgg4l5s0","geo_precision":"","state":null},"type":"Feature","geometry":null},{"properties":{"3-year % growth":null,"city":null,"industry":null,"company name":null,"geo_score":0.0,"rank":"Why Cheerleaders Make the Best Employees","employees":null,"revenue (millions)":null,"id":"a9aapgecxcv7","geo_precision":"","state":null},"type":"Feature","geometry":null},{"properties":{"3-year % growth":null,"city":null,"industry":null,"company name":null,"geo_score":0.0,"rank":"Why I Stopped Giving It Away","employees":null,"revenue (millions)":null,"id":"a9aapg0p6lb5","geo_precision":"","state":null},"type":"Feature","geometry":null},{"properties":{"3-year % growth":null,"city":null,"industry":null,"company name":null,"geo_score":0.0,"rank":"Why I Could Not Have Done It Alone","employees":null,"revenue (millions)":null,"id":"a9aapg8eeiyb","geo_precision":"","state":null},"type":"Feature","geometry":null},{"properties":{"3-year % growth":null,"city":null,"industry":null,"company name":null,"geo_score":0.0,"rank":"Why I Wasted A Perfectly Good Doctorate","employees":null,"revenue (millions)":null,"id":"a9aapg5fbgu6","geo_precision":"","state":null},"type":"Feature","geometry":null},{"properties":{"3-year % growth":null,"city":null,"industry":null,"company name":null,"geo_score":0.0,"rank":"Images of the Inc. 5000","employees":null,"revenue (millions)":null,"id":"a9aapg70l6rg","geo_precision":"","state":null},"type":"Feature","geometry":null},{"properties":{"3-year % growth":null,"city":null,"industry":null,"company name":null,"geo_score":0.0,"rank":"Target Logistics: Luxury On an Oil Field","employees":null,"revenue (millions)":null,"id":"a9aapg4rscm4","geo_precision":"","state":null},"type":"Feature","geometry":null},{"properties":{"3-year % growth":null,"city":null,"industry":null,"company name":null,"geo_score":0.0,"rank":"At Onsite OHS, Everyday is a Matter of Life and Death","employees":null,"revenue (millions)":null,"id":"a9aapg766dmw","geo_precision":"","state":null},"type":"Feature","geometry":null},{"properties":{"3-year % growth":null,"city":null,"industry":null,"company name":null,"geo_score":0.0,"rank":"Free-Range Chickens Make for a Vital Business","employees":null,"revenue (millions)":null,"id":"a9aapgf7j1pi","geo_precision":"","state":null},"type":"Feature","geometry":null},{"properties":{"3-year % growth":null,"city":null,"industry":null,"company name":null,"geo_score":0.0,"rank":"Where the Average Joe Can Be a Warrior","employees":null,"revenue (millions)":null,"id":"a9aapg6ybcir","geo_precision":"","state":null},"type":"Feature","geometry":null},{"properties":{"3-year % growth":null,"city":null,"industry":null,"company name":null,"geo_score":0.0,"rank":"Sorting Through Radioactive Waste...All in a Days Work","employees":null,"revenue (millions)":null,"id":"a9aapg2vynne","geo_precision":"","state":null},"type":"Feature","geometry":null},{"properties":{"3-year % growth":null,"city":null,"industry":null,"company name":null,"geo_score":0.0,"rank":"USP&amp;E Global is Giving Power to the People","employees":null,"revenue (millions)":null,"id":"a9aapg1m75t5","geo_precision":"","state":null},"type":"Feature","geometry":null},{"properties":{"3-year % growth":null,"city":null,"industry":null,"company name":null,"geo_score":0.0,"rank":"Galleries: Top Women, Fastest Growers, Biggest Companies &amp; More","employees":null,"revenue (millions)":null,"id":"a9aapg2g1u7v","geo_precision":"","state":null},"type":"Feature","geometry":null},{"properties":{"3-year % growth":null,"city":null,"industry":null,"company name":null,"geo_score":0.0,"rank":"America's 10 Fastest Growing Private Companies","employees":null,"revenue (millions)":null,"id":"a9aapgcz24tr","geo_precision":"","state":null},"type":"Feature","geometry":null},{"properties":{"3-year % growth":null,"city":null,"industry":null,"company name":null,"geo_score":0.0,"rank":"Biggest Companies of the 2012 Inc. 5000","employees":null,"revenue (millions)":null,"id":"a9aapg5ai7ch","geo_precision":"","state":null},"type":"Feature","geometry":null},{"properties":{"3-year % growth":null,"city":null,"industry":null,"company name":null,"geo_score":0.0,"rank":"Top Female CEOs of the 2012 Inc. 500","employees":null,"revenue (millions)":null,"id":"a9aapg8gjrkf","geo_precision":"","state":null},"type":"Feature","geometry":null},{"properties":{"3-year % growth":null,"city":null,"industry":null,"company name":null,"geo_score":0.0,"rank":"Top Black Entrepreneurs of the 2012 Inc. 5000","employees":null,"revenue (millions)":null,"id":"a9aapg5gonf5","geo_precision":"","state":null},"type":"Feature","geometry":null},{"properties":{"3-year % growth":null,"city":null,"industry":null,"company name":null,"geo_score":0.0,"rank":"Top Asian Entrepreneurs of the 2012 Inc. 500","employees":null,"revenue (millions)":null,"id":"a9aapg4c7do3","geo_precision":"","state":null},"type":"Feature","geometry":null},{"properties":{"3-year % growth":null,"city":null,"industry":null,"company name":null,"geo_score":0.0,"rank":"Fast-Growing Companies Call These Cities Home","employees":null,"revenue (millions)":null,"id":"a9aapgb07aan","geo_precision":"","state":null},"type":"Feature","geometry":null},{"properties":{"3-year % growth":null,"city":null,"industry":null,"company name":null,"geo_score":0.0,"rank":"Inc. 5000: 5 Stories of Grit &amp; Resilience","employees":null,"revenue (millions)":null,"id":"a9aapg9qz893","geo_precision":"","state":null},"type":"Feature","geometry":null},{"properties":{"3-year % growth":null,"city":null,"industry":null,"company name":null,"geo_score":0.0,"rank":"Inc. 500: Gotta Love These Companies","employees":null,"revenue (millions)":null,"id":"a9aapgadt4m9","geo_precision":"","state":null},"type":"Feature","geometry":null},{"properties":{"3-year % growth":null,"city":null,"industry":null,"company name":null,"geo_score":0.0,"rank":"Inside the Minds of the Top CEOs","employees":null,"revenue (millions)":null,"id":"a9aapg7i1504","geo_precision":"","state":null},"type":"Feature","geometry":null},{"properties":{"3-year % growth":null,"city":null,"industry":null,"company name":null,"geo_score":0.0,"rank":"What Is It About Middle-Aged White Guys?","employees":null,"revenue (millions)":null,"id":"a9aapg9mlh1o","geo_precision":"","state":null},"type":"Feature","geometry":null},{"properties":{"3-year % growth":null,"city":null,"industry":null,"company name":null,"geo_score":0.0,"rank":"Health Insurance is Nothing to Debate About","employees":null,"revenue (millions)":null,"id":"a9aapg0del4w","geo_precision":"","state":null},"type":"Feature","geometry":null},{"properties":{"3-year % growth":null,"city":null,"industry":null,"company name":null,"geo_score":0.0,"rank":"What Leader Do Inc. 500 CEOS Identify Most With?","employees":null,"revenue (millions)":null,"id":"a9aapg4xrsxq","geo_precision":"","state":null},"type":"Feature","geometry":null},{"properties":{"3-year % growth":null,"city":null,"industry":null,"company name":null,"geo_score":0.0,"rank":"The One Thing Holding Back Inc. 500 Companies","employees":null,"revenue (millions)":null,"id":"a9aapg78xprp","geo_precision":"","state":null},"type":"Feature","geometry":null},{"properties":{"3-year % growth":null,"city":null,"industry":null,"company name":null,"geo_score":0.0,"rank":"TWITTER FEED","employees":null,"revenue (millions)":null,"id":"a9aapgem6w8w","geo_precision":"","state":null},"type":"Feature","geometry":null},{"properties":{"3-year % growth":null,"city":null,"industry":null,"company name":null,"geo_score":0.0,"rank":"ARCHIVES","employees":null,"revenue (millions)":null,"id":"a9aapg7g35ay","geo_precision":"","state":null},"type":"Feature","geometry":null},{"properties":{"3-year % growth":null,"city":null,"industry":null,"company name":null,"geo_score":0.0,"rank":"2011 2010 2009","employees":null,"revenue (millions)":null,"id":"a9aapgfmlnax","geo_precision":"","state":null},"type":"Feature","geometry":null}],"is_temporal":false,"author":{"url":"","metadata":null,"contact_name":null,"contact_address":null,"source":null,"contact_phone":null},"source":"","pagination":{"sort":null,"start":0,"total":162,"limit":1000000},"state":"complete","tags":"","published":"2014-08-14T19:34:29-04:00","id":283868}