{"type":"FeatureCollection","data_type":"Dataset","url_type":null,"permissions":[{"permissions":{"download":true,"view":true},"group_id":"everyone"}],"classification":null,"title":"\nryguy9's places\n","count":50,"stream_id":29711,"contributor":{"url":"http://geocommons.com/users/11444","name":"platial"},"data_attributes":null,"calculation_params":null,"icon_link":null,"link":"http://geocommons.com/overlays/29711.json","extent":[-123.261,-75.0494,170.516,78.8826],"geometry_types":["point"],"unique_name":null,"name":"\nryguy9's places\n","feature_count":50,"description":"\nA Map by Ryguy9\n\n\n","next_feature":null,"is_raster":false,"short_classification":"Y","stats":{},"features":[{"properties":{"name":"Allison Fitzpatrick","description":"Posted by Ryguy9<img src=\"http://media.geocommons.com/platial/img/2009/02/1/n1007452630_3685.jpg\">Charlotte, NC<a title=\"Built for Community Mapping\" href=\"http://www.platial.com\"><img src=\"http://media.geocommons.com/platial/images/logotype_small.jpg\"></a>","id":"a6j7mp8d121l"},"type":"Feature","geometry":{"type":"Point","coordinates":[-80.843333,35.226944]}},{"properties":{"name":"Bertha Molina","description":"Posted by Ryguy9Quito<a title=\"Built for Community Mapping\" href=\"http://www.platial.com\"><img src=\"http://media.geocommons.com/platial/images/logotype_small.jpg\"></a>","id":"a6j7mp67z7sb"},"type":"Feature","geometry":{"type":"Point","coordinates":[-78.5,-0.189999]}},{"properties":{"name":"Brad Evoy","description":"Posted by Ryguy9<img src=\"http://media.geocommons.com/platial/img/2009/02/0/KBleep.jpg\">atlantic oceanSecret Mod Hideout under the Sea<a title=\"Built for Community Mapping\" href=\"http://www.platial.com\"><img src=\"http://media.geocommons.com/platial/images/logotype_small.jpg\"></a>","id":"a6j7mozmvbz4"},"type":"Feature","geometry":{"type":"Point","coordinates":[-42.0,24.0]}},{"properties":{"name":"Cara Vosloo","description":"Posted by Ryguy9<img src=\"http://media.geocommons.com/platial/img/2009/02/0/IMG_1433.jpg\">Pretoria<a title=\"Built for Community Mapping\" href=\"http://www.platial.com\"><img src=\"http://media.geocommons.com/platial/images/logotype_small.jpg\"></a>","id":"a6j7mp2lx94w"},"type":"Feature","geometry":{"type":"Point","coordinates":[28.219999,-25.729999]}},{"properties":{"name":"Carlos Beltran","description":"Posted by Ryguy9<img src=\"http://media.geocommons.com/platial/img/2009/02/0/moto.jpg\">san juan<a title=\"Built for Community Mapping\" href=\"http://www.platial.com\"><img src=\"http://media.geocommons.com/platial/images/logotype_small.jpg\"></a>","id":"a6j7mp4x3wre"},"type":"Feature","geometry":{"type":"Point","coordinates":[-66.106111,18.468333]}},{"properties":{"name":"Christina Pace","description":"Posted by Ryguy9<img src=\"http://media.geocommons.com/platial/img/2009/02/0/1_5_.jpg\">06109Hii<a title=\"Built for Community Mapping\" href=\"http://www.platial.com\"><img src=\"http://media.geocommons.com/platial/images/logotype_small.jpg\"></a>","id":"a6j7mp8gczoh"},"type":"Feature","geometry":{"type":"Point","coordinates":[-72.676308,41.701332]}},{"properties":{"name":"Clare Dorsey","description":"Posted by Ryguy9<img src=\"http://media.geocommons.com/platial/img/2009/02/0/clare.jpg\">York<a title=\"Built for Community Mapping\" href=\"http://www.platial.com\"><img src=\"http://media.geocommons.com/platial/images/logotype_small.jpg\"></a>","id":"a6j7mp5jzws6"},"type":"Feature","geometry":{"type":"Point","coordinates":[-1.082329,53.957744]}},{"properties":{"name":"Daniel Blinky Bleikamp","description":"Posted by Ryguy9Carrollton, TX<a title=\"Built for Community Mapping\" href=\"http://www.platial.com\"><img src=\"http://media.geocommons.com/platial/images/logotype_small.jpg\"></a>","id":"a6j7mp0fri2c"},"type":"Feature","geometry":{"type":"Point","coordinates":[-96.89,32.953611]}},{"properties":{"name":"Danielle Martin","description":"Posted by Ryguy9<img src=\"http://media.geocommons.com/platial/img/2009/02/0/Photo_121.jpg\">Ellensburg WA<a title=\"Built for Community Mapping\" href=\"http://www.platial.com\"><img src=\"http://media.geocommons.com/platial/images/logotype_small.jpg\"></a>","id":"a6j7mouqagbl"},"type":"Feature","geometry":{"type":"Point","coordinates":[-120.548818,46.999606]}},{"properties":{"name":"Dave Puckett","description":"Posted by Ryguy9<img src=\"http://media.geocommons.com/platial/img/2009/02/1/Dave_Puckett_2_.jpg\">508 Presswick Lane Saint Charles, Missouri 63303<a title=\"Built for Community Mapping\" href=\"http://www.platial.com\"><img src=\"http://media.geocommons.com/platial/images/logotype_small.jpg\"></a>","id":"a6j7mozropv7"},"type":"Feature","geometry":{"type":"Point","coordinates":[-90.5171668,38.770828]}},{"properties":{"name":"Dave Puckett","description":"Posted by Ryguy9<img src=\"http://media.geocommons.com/platial/img/2009/02/1/Dave_Puckett_3_.jpg\">63303<a title=\"Built for Community Mapping\" href=\"http://www.platial.com\"><img src=\"http://media.geocommons.com/platial/images/logotype_small.jpg\"></a>","id":"a6j7mozvuop4"},"type":"Feature","geometry":{"type":"Point","coordinates":[-90.547059,38.762237]}},{"properties":{"name":"Dave Puckett","description":"Posted by Ryguy9<img src=\"http://media.geocommons.com/platial/img/2009/02/1/Dave_Puckett.jpg\">St. Charles<a title=\"Built for Community Mapping\" href=\"http://www.platial.com\"><img src=\"http://media.geocommons.com/platial/images/logotype_small.jpg\"></a>","id":"a6j7mothzp43"},"type":"Feature","geometry":{"type":"Point","coordinates":[-80.437238,46.350118]}},{"properties":{"name":"Deanna Millman","description":"Posted by Ryguy9<img src=\"http://media.geocommons.com/platial/img/2009/06/1/DSC00012.JPG\">Wiarton<a title=\"Built for Community Mapping\" href=\"http://www.platial.com\"><img src=\"http://media.geocommons.com/platial/images/logotype_small.jpg\"></a>","id":"a6j7mowcuj0v"},"type":"Feature","geometry":{"type":"Point","coordinates":[-81.140673,44.740125]}},{"properties":{"name":"Erez Sarousi","description":"Posted by Ryguy9<img src=\"http://media.geocommons.com/platial/img/2009/02/0/n761676837_1118240_9609.jpg\">01701Erezistible<a title=\"Built for Community Mapping\" href=\"http://www.platial.com\"><img src=\"http://media.geocommons.com/platial/images/logotype_small.jpg\"></a>","id":"a6j7mp4ofspl"},"type":"Feature","geometry":{"type":"Point","coordinates":[-71.4536835,42.3240042]}},{"properties":{"name":"Erin Nolan","description":"Posted by Ryguy9<img src=\"http://media.geocommons.com/platial/img/2009/02/0/me.JPG\">brisbane<a title=\"Built for Community Mapping\" href=\"http://www.platial.com\"><img src=\"http://media.geocommons.com/platial/images/logotype_small.jpg\"></a>","id":"a6j7mosylwxk"},"type":"Feature","geometry":{"type":"Point","coordinates":[153.020004,-27.459999]}},{"properties":{"name":"Erin Nolan","description":"Posted by Ryguy9<img src=\"http://media.geocommons.com/platial/img/2009/02/0/me_2_.JPG\">brisbane<a title=\"Built for Community Mapping\" href=\"http://www.platial.com\"><img src=\"http://media.geocommons.com/platial/images/logotype_small.jpg\"></a>","id":"a6j7mothr024"},"type":"Feature","geometry":{"type":"Point","coordinates":[153.020004,-27.459999]}},{"properties":{"name":"Imposter Island","description":"Posted by Ryguy9<img src=\"http://media.geocommons.com/platial/img/2009/02/0/amoeba.jpg\">Weddell SeaHere be fakes!<a title=\"Built for Community Mapping\" href=\"http://www.platial.com\"><img src=\"http://media.geocommons.com/platial/images/logotype_small.jpg\"></a>","id":"a6j7mp6p4q9f"},"type":"Feature","geometry":{"type":"Point","coordinates":[-47.262778,-75.049444]}},{"properties":{"name":"J Merrell","description":"Posted by Ryguy9<img src=\"http://media.geocommons.com/platial/img/2009/02/0/j_merrell_phots_part_1_003.JPG\">Richmond BCyo<a title=\"Built for Community Mapping\" href=\"http://www.platial.com\"><img src=\"http://media.geocommons.com/platial/images/logotype_small.jpg\"></a>","id":"a6j7mp7c1z21"},"type":"Feature","geometry":{"type":"Point","coordinates":[-123.136617,49.170175]}},{"properties":{"name":"Jeff Gurtizen","description":"Posted by Ryguy9<img src=\"http://media.geocommons.com/platial/img/2009/02/0/Moobyplush.gif\">16509MOOOO!<a title=\"Built for Community Mapping\" href=\"http://www.platial.com\"><img src=\"http://media.geocommons.com/platial/images/logotype_small.jpg\"></a>","id":"a6j7mov091n0"},"type":"Feature","geometry":{"type":"Point","coordinates":[-80.042315,42.049417]}},{"properties":{"name":"Jenn Shockey Cooper","description":"Posted by Ryguy9<img src=\"http://media.geocommons.com/platial/img/2009/02/1/Jenn.JPG\">arkadelphia, arkansas<a title=\"Built for Community Mapping\" href=\"http://www.platial.com\"><img src=\"http://media.geocommons.com/platial/images/logotype_small.jpg\"></a>","id":"a6j7mp3xrlcc"},"type":"Feature","geometry":{"type":"Point","coordinates":[-93.073827,34.123107]}},{"properties":{"name":"Jennifer Griffin","description":"Posted by Ryguy9<img src=\"http://media.geocommons.com/platial/img/2009/02/0/100_21252.jpg\">2329 Loreto dr fort worth txWHEEEEE!!!!!<a title=\"Built for Community Mapping\" href=\"http://www.platial.com\"><img src=\"http://media.geocommons.com/platial/images/logotype_small.jpg\"></a>","id":"a6j7mozyno5a"},"type":"Feature","geometry":{"type":"Point","coordinates":[-97.3250555,32.9101194]}},{"properties":{"name":"Jess W","description":"Posted by Ryguy9<img src=\"http://media.geocommons.com/platial/img/2009/02/1/n1411770013_30125465_6263.jpg\">45305<a title=\"Built for Community Mapping\" href=\"http://www.platial.com\"><img src=\"http://media.geocommons.com/platial/images/logotype_small.jpg\"></a>","id":"a6j7mosx26qf"},"type":"Feature","geometry":{"type":"Point","coordinates":[-84.070134,39.636549]}},{"properties":{"name":"Jesus Gonzalez","description":"Posted by Ryguy9<img src=\"http://media.geocommons.com/platial/img/2009/02/0/l_56bd98b4171dfb513f49e85ef9b582c6.jpg\">Hacienda HeightsCalifornia knows how to party? <a title=\"Built for Community Mapping\" href=\"http://www.platial.com\"><img src=\"http://media.geocommons.com/platial/images/logotype_small.jpg\"></a>","id":"a6j7mp1qoghn"},"type":"Feature","geometry":{"type":"Point","coordinates":[-117.967988,34.002381]}},{"properties":{"name":"Katie J","description":"Posted by Ryguy9<img src=\"http://media.geocommons.com/platial/img/2009/02/0/ktb.jpg\">23238<a title=\"Built for Community Mapping\" href=\"http://www.platial.com\"><img src=\"http://media.geocommons.com/platial/images/logotype_small.jpg\"></a>","id":"a6j7mp5rgro0"},"type":"Feature","geometry":{"type":"Point","coordinates":[-77.6421577,37.59161]}},{"properties":{"name":"Kike Weisselberger","description":"Posted by Ryguy9<img src=\"http://media.geocommons.com/platial/img/2009/02/0/kikebaires.jpg\">santiagoFrom the bottom of the world!!!<a title=\"Built for Community Mapping\" href=\"http://www.platial.com\"><img src=\"http://media.geocommons.com/platial/images/logotype_small.jpg\"></a>","id":"a6j7mp59c7jb"},"type":"Feature","geometry":{"type":"Point","coordinates":[-70.639999,-33.459999]}},{"properties":{"name":"Leah Woolley","description":"Posted by Ryguy9<img src=\"http://media.geocommons.com/platial/img/2009/02/0/Picture_044.jpg\">np23 6ps<a title=\"Built for Community Mapping\" href=\"http://www.platial.com\"><img src=\"http://media.geocommons.com/platial/images/logotype_small.jpg\"></a>","id":"a6j7mp2xhvnq"},"type":"Feature","geometry":{"type":"Point","coordinates":[-3.1678544,51.7991338]}},{"properties":{"name":"Mari Devold","description":"Posted by Ryguy9<img src=\"http://media.geocommons.com/platial/img/2009/02/0/DSC00074.JPG\">trondheim<a title=\"Built for Community Mapping\" href=\"http://www.platial.com\"><img src=\"http://media.geocommons.com/platial/images/logotype_small.jpg\"></a>","id":"a6j7mp0l06ll"},"type":"Feature","geometry":{"type":"Point","coordinates":[10.416667,63.416668]}},{"properties":{"name":"Matthew Crispin Hatfield","description":"Posted by Ryguy9<img src=\"http://media.geocommons.com/platial/img/2009/02/0/Blue_3_pseudo.jpg\">CorvallisOSU FTW<a title=\"Built for Community Mapping\" href=\"http://www.platial.com\"><img src=\"http://media.geocommons.com/platial/images/logotype_small.jpg\"></a>","id":"a6j7mp6key6n"},"type":"Feature","geometry":{"type":"Point","coordinates":[-123.260833,44.564722]}},{"properties":{"name":"Megan Winefield","description":"Posted by Ryguy9Dunedin<a title=\"Built for Community Mapping\" href=\"http://www.platial.com\"><img src=\"http://media.geocommons.com/platial/images/logotype_small.jpg\"></a>","id":"a6j7mp6a180m"},"type":"Feature","geometry":{"type":"Point","coordinates":[170.516183,-45.880039]}},{"properties":{"name":"Melike Saricoban","description":"Posted by Ryguy9istanbul<a title=\"Built for Community Mapping\" href=\"http://www.platial.com\"><img src=\"http://media.geocommons.com/platial/images/logotype_small.jpg\"></a>","id":"a6j7moy1ic5w"},"type":"Feature","geometry":{"type":"Point","coordinates":[29.0,41.099998]}},{"properties":{"name":"Mya","description":"Posted by Ryguy9<img src=\"http://media.geocommons.com/platial/img/2009/02/0/thumbnail3.jpg\">County Down Northern Ireland<a title=\"Built for Community Mapping\" href=\"http://www.platial.com\"><img src=\"http://media.geocommons.com/platial/images/logotype_small.jpg\"></a>","id":"a6j7moujtcgt"},"type":"Feature","geometry":{"type":"Point","coordinates":[-5.7484854,54.3412911]}},{"properties":{"name":"Nikky Raney","description":"Posted by Ryguy9<img src=\"http://media.geocommons.com/platial/img/2009/02/0/tinyy.jpg\">Dover, NHstalker<a title=\"Built for Community Mapping\" href=\"http://www.platial.com\"><img src=\"http://media.geocommons.com/platial/images/logotype_small.jpg\"></a>","id":"a6j7moy6zzsi"},"type":"Feature","geometry":{"type":"Point","coordinates":[-70.874167,43.197778]}},{"properties":{"name":"Pal Madhusudhan","description":"Posted by Ryguy9bangalore<a title=\"Built for Community Mapping\" href=\"http://www.platial.com\"><img src=\"http://media.geocommons.com/platial/images/logotype_small.jpg\"></a>","id":"a6j7mowlgt1w"},"type":"Feature","geometry":{"type":"Point","coordinates":[77.559997,12.97]}},{"properties":{"name":"Petar","description":"Posted by Ryguy9Bitola<a title=\"Built for Community Mapping\" href=\"http://www.platial.com\"><img src=\"http://media.geocommons.com/platial/images/logotype_small.jpg\"></a>","id":"a6j7mowx7l5b"},"type":"Feature","geometry":{"type":"Point","coordinates":[21.339683,41.031177]}},{"properties":{"name":"RSJ","description":"Posted by Ryguy9sydneyDown Under !!<a title=\"Built for Community Mapping\" href=\"http://www.platial.com\"><img src=\"http://media.geocommons.com/platial/images/logotype_small.jpg\"></a>","id":"a6j7moysgso5"},"type":"Feature","geometry":{"type":"Point","coordinates":[151.210006,-33.869998]}},{"properties":{"name":"Reginald McLoven","description":"Posted by Ryguy9<img src=\"http://media.geocommons.com/platial/img/2009/02/0/006_3_.JPG\">gainesville<a title=\"Built for Community Mapping\" href=\"http://www.platial.com\"><img src=\"http://media.geocommons.com/platial/images/logotype_small.jpg\"></a>","id":"a6j7moxc3aqu"},"type":"Feature","geometry":{"type":"Point","coordinates":[-82.325,29.651389]}},{"properties":{"name":"Rosie Brough","description":"Posted by Ryguy9<img src=\"http://media.geocommons.com/platial/img/2009/02/0/mirror_rosie.jpg\">Melbourne Australiawell - Melbourne is the closest big city ;)<a title=\"Built for Community Mapping\" href=\"http://www.platial.com\"><img src=\"http://media.geocommons.com/platial/images/logotype_small.jpg\"></a>","id":"a6j7moz8wv59"},"type":"Feature","geometry":{"type":"Point","coordinates":[144.960006,-37.810001]}},{"properties":{"name":"Ruari","description":"Posted by Ryguy9Canterbury<a title=\"Built for Community Mapping\" href=\"http://www.platial.com\"><img src=\"http://media.geocommons.com/platial/images/logotype_small.jpg\"></a>","id":"a6j7mp8t7gn0"},"type":"Feature","geometry":{"type":"Point","coordinates":[1.080517,51.277269]}},{"properties":{"name":"Ryan Knorr","description":"Posted by Ryguy9Browse Rd. Kelowna, BCMy house :D<a title=\"Built for Community Mapping\" href=\"http://www.platial.com\"><img src=\"http://media.geocommons.com/platial/images/logotype_small.jpg\"></a>","id":"a6j7movkjqr8"},"type":"Feature","geometry":{"type":"Point","coordinates":[-119.492647,49.988451]}},{"properties":{"name":"SEB","description":"Posted by Ryguy9little rock<a title=\"Built for Community Mapping\" href=\"http://www.platial.com\"><img src=\"http://media.geocommons.com/platial/images/logotype_small.jpg\"></a>","id":"a6j7mowtqsh3"},"type":"Feature","geometry":{"type":"Point","coordinates":[-92.289444,34.746389]}},{"properties":{"name":"Shani","description":"Posted by Ryguy9<img src=\"http://media.geocommons.com/platial/img/2009/02/0/n712756242_1496.jpg\">London<a title=\"Built for Community Mapping\" href=\"http://www.platial.com\"><img src=\"http://media.geocommons.com/platial/images/logotype_small.jpg\"></a>","id":"a6j7mp1jp8i8"},"type":"Feature","geometry":{"type":"Point","coordinates":[-0.126197,51.500197]}},{"properties":{"name":"Simon Hicks","description":"Posted by Ryguy9rawcliffe, East Yorkshire<a title=\"Built for Community Mapping\" href=\"http://www.platial.com\"><img src=\"http://media.geocommons.com/platial/images/logotype_small.jpg\"></a>","id":"a6j7mp8hq4ev"},"type":"Feature","geometry":{"type":"Point","coordinates":[-0.9644087,53.6988899]}},{"properties":{"name":"Simon Hicks","description":"Posted by Ryguy9goole<a title=\"Built for Community Mapping\" href=\"http://www.platial.com\"><img src=\"http://media.geocommons.com/platial/images/logotype_small.jpg\"></a>","id":"a6j7mp7k7goi"},"type":"Feature","geometry":{"type":"Point","coordinates":[-0.871465,53.703525]}},{"properties":{"name":"Stephanie Dodson","description":"Posted by Ryguy9<img src=\"http://media.geocommons.com/platial/img/2009/02/1/steph.jpg\">Denton, TXtexas ftw<a title=\"Built for Community Mapping\" href=\"http://www.platial.com\"><img src=\"http://media.geocommons.com/platial/images/logotype_small.jpg\"></a>","id":"a6j7mown0537"},"type":"Feature","geometry":{"type":"Point","coordinates":[-97.132778,33.214722]}},{"properties":{"name":"Super Secret Moderator Base","description":"Posted by Ryguy9Arctic Ocean*PLOTTING*<a title=\"Built for Community Mapping\" href=\"http://www.platial.com\"><img src=\"http://media.geocommons.com/platial/images/logotype_small.jpg\"></a>","id":"a6j7mp8a0th4"},"type":"Feature","geometry":{"type":"Point","coordinates":[0.0,78.882555]}},{"properties":{"name":"Suzy Hodgkins","description":"Posted by Ryguy9<img src=\"http://media.geocommons.com/platial/img/2009/02/0/QLS.JPG\">LeicesterThis is the only pic I have on this comp!! Hey maf buddies :)<a title=\"Built for Community Mapping\" href=\"http://www.platial.com\"><img src=\"http://media.geocommons.com/platial/images/logotype_small.jpg\"></a>","id":"a6j7mp8de68h"},"type":"Feature","geometry":{"type":"Point","coordinates":[-1.129126,52.634228]}},{"properties":{"name":"Zi Ray Wang","description":"Posted by Ryguy9<img src=\"http://media.geocommons.com/platial/img/2009/02/0/1st_year_6_2.jpg\">sydney<a title=\"Built for Community Mapping\" href=\"http://www.platial.com\"><img src=\"http://media.geocommons.com/platial/images/logotype_small.jpg\"></a>","id":"a6j7moz5rgm4"},"type":"Feature","geometry":{"type":"Point","coordinates":[151.210006,-33.869998]}},{"properties":{"name":"briege","description":"Posted by Ryguy9<img src=\"http://media.geocommons.com/platial/img/2009/02/0/n656395299_9679.jpg\">CA<a title=\"Built for Community Mapping\" href=\"http://www.platial.com\"><img src=\"http://media.geocommons.com/platial/images/logotype_small.jpg\"></a>","id":"a6j7mp360c4w"},"type":"Feature","geometry":{"type":"Point","coordinates":[-119.245693,37.267666]}},{"properties":{"name":"tammy L M","description":"Posted by Ryguy9Waterloo, Ontariohey hey<a title=\"Built for Community Mapping\" href=\"http://www.platial.com\"><img src=\"http://media.geocommons.com/platial/images/logotype_small.jpg\"></a>","id":"a6j7mp5156n5"},"type":"Feature","geometry":{"type":"Point","coordinates":[-80.537828,43.477918]}},{"properties":{"name":"usman","description":"Posted by Ryguy9<img src=\"http://media.geocommons.com/platial/img/2009/02/0/Image015.jpg\">new york=D<a title=\"Built for Community Mapping\" href=\"http://www.platial.com\"><img src=\"http://media.geocommons.com/platial/images/logotype_small.jpg\"></a>","id":"a6j7moux7oit"},"type":"Feature","geometry":{"type":"Point","coordinates":[-74.006389,40.714167]}}],"is_temporal":false,"author":{"url":"http://www.platial.com/map/594207","metadata":null,"contact_name":"ryguy9","contact_address":null,"source":"platial:ryguy9","contact_phone":null},"source":"http://www.platial.com/map/594207","pagination":{"sort":null,"start":0,"total":50,"limit":1000000},"state":"complete","tags":"platial,platial:id=594207,platial:user=ryguy9","published":"2010-03-03T17:00:00Z","id":29711}