{"type":"FeatureCollection","data_type":"Dataset","url_type":null,"permissions":[{"permissions":{"download":true,"view":true},"group_id":"everyone"}],"classification":null,"title":"Marriott Hotel Client","count":93,"stream_id":304000,"contributor":{"url":"http://geocommons.com/users/38967","name":"ironman.wei"},"data_attributes":null,"calculation_params":null,"icon_link":null,"link":"http://geocommons.com/overlays/304000.json","extent":[-155.975,19.6819,-71.4397,44.2636],"geometry_types":["point"],"unique_name":null,"name":"Marriott Hotel Client","feature_count":93,"description":"","next_feature":null,"is_raster":false,"short_classification":"Y","stats":{},"features":[{"properties":{"city":"Galveston","zip":"77550","event":"(2013) Ironman 70.3 Texas","type":"Starwood","contact name":null,"country":"USA","geo_score":1.0,"hotel name":"Four Points by Sheraton Galveston","street address":"2300 Seawall Blvd.","phone":null,"full address":"2300 Seawall Blvd., Galveston, TX, 77550, USA","id":"aanir5urhl2b","geo_precision":"range","email":null,"state":"TX"},"type":"Feature","geometry":{"type":"Point","coordinates":[-94.789496,29.289009]}},{"properties":{"city":"Tempe","zip":"85283","event":"(2013) Ironman Arizona","type":"Marriott","contact name":null,"country":"USA","geo_score":0.902,"hotel name":"SpringHill Suites Tempe at Arizona Mills Mall","street address":"5211 South Priest Drive","phone":null,"full address":"5211 South Priest Drive, Tempe, AZ, 85283, USA","id":"aanir63vl7hr","geo_precision":"range","email":null,"state":"AZ"},"type":"Feature","geometry":{"type":"Point","coordinates":[-111.96308,33.377997]}},{"properties":{"city":"Tempe","zip":"85282","event":"(2013) Ironman Arizona","type":"Marriott","contact name":null,"country":"USA","geo_score":1.0,"hotel name":"Residence Inn Tempe","street address":"5075 South Priest Drive","phone":null,"full address":"5075 South Priest Drive, Tempe, AZ, 85282, USA","id":"aanir5pk2vti","geo_precision":"range","email":null,"state":"AZ"},"type":"Feature","geometry":{"type":"Point","coordinates":[-111.96276,33.379201]}},{"properties":{"city":"Tempe","zip":"85283","event":"(2013) Ironman Arizona","type":"Marriott","contact name":null,"country":"USA","geo_score":1.0,"hotel name":"TownePlace Suites Tempe at Arizona Mills Mall","street address":"5223 South Priest Drive","phone":null,"full address":"5223 South Priest Drive, Tempe, AZ, 85283, USA","id":"aanir5ui6urv","geo_precision":"range","email":null,"state":"AZ"},"type":"Feature","geometry":{"type":"Point","coordinates":[-111.96308,33.377986]}},{"properties":{"city":"Tempe","zip":"85282","event":"(2013) Ironman Arizona","type":"Marriott","contact name":null,"country":"USA","geo_score":0.961,"hotel name":"Phoenix Marriott Tempe at The Buttes","street address":"2000 Westcourt Way","phone":null,"full address":"2000 Westcourt Way, Tempe, AZ, 85282, USA","id":"aanir5ybyw72","geo_precision":"range","email":null,"state":"AZ"},"type":"Feature","geometry":{"type":"Point","coordinates":[-111.971575,33.401981]}},{"properties":{"city":"Tempe","zip":"85034","event":"(2013) Ironman Arizona","type":"Marriott","contact name":null,"country":"USA","geo_score":0.916,"hotel name":"Fairfield Inn Phoenix Airport","street address":"4702 E University Drive","phone":null,"full address":"4702 E University Drive, Tempe, AZ, 85034, USA","id":"aanir5tb2r9w","geo_precision":"range","email":null,"state":"AZ"},"type":"Feature","geometry":{"type":"Point","coordinates":[-111.980157,33.421962]}},{"properties":{"city":"Tempe","zip":"85281","event":"(2013) Ironman Arizona","type":"Marriott","contact name":null,"country":"USA","geo_score":0.983,"hotel name":"SpringHill Suites Phoenix Tempe/Airport","street address":"1601 West Rio Salado Parkway","phone":null,"full address":"1601 West Rio Salado Parkway, Tempe, AZ, 85281, USA","id":"aanir5qypubb","geo_precision":"range","email":null,"state":"AZ"},"type":"Feature","geometry":{"type":"Point","coordinates":[-111.967435,33.431378]}},{"properties":{"city":"Tempe","zip":"85281","event":"(2013) Ironman Arizona","type":"Marriott","contact name":null,"country":"USA","geo_score":0.807,"hotel name":"Courtyard Tempe Downtown","street address":"601 South Ash Avenue","phone":null,"full address":"601 South Ash Avenue, Tempe, AZ, 85281, USA","id":"aanir5uwusfl","geo_precision":"street","email":null,"state":"AZ"},"type":"Feature","geometry":{"type":"Point","coordinates":[-111.942387,33.421943]}},{"properties":{"city":"Panama City","zip":"32405","event":"(2013) Ironman Florida","type":"Marriott","contact name":null,"country":"USA","geo_score":0.708,"hotel name":"TownePlace Suites Panama City","street address":"905 East 23rd Place","phone":null,"full address":"905 East 23rd Place, Panama City, FL, 32405, USA","id":"aanir5t94iw9","geo_precision":"street","email":null,"state":"FL"},"type":"Feature","geometry":{"type":"Point","coordinates":[-85.666709,30.191046]}},{"properties":{"city":"Panama City","zip":"32405","event":"(2013) Ironman Florida","type":"Marriott","contact name":null,"country":"USA","geo_score":0.708,"hotel name":"Courtyard Panama City","street address":"905 East 23rd Place","phone":null,"full address":"905 East 23rd Place, Panama City, FL, 32405, USA","id":"aanir5pgo99h","geo_precision":"street","email":null,"state":"FL"},"type":"Feature","geometry":{"type":"Point","coordinates":[-85.666709,30.191046]}},{"properties":{"city":"Panama City Beach","zip":"32408","event":"(2013) Ironman Florida","type":"Marriott","contact name":null,"country":"USA","geo_score":0.966,"hotel name":"Grand Residences by Marriott - Bay Point","street address":"4000 Marriott Drive","phone":null,"full address":"4000 Marriott Drive, Panama City Beach, FL, 32408, USA","id":"aanir61z9137","geo_precision":"range","email":null,"state":"FL"},"type":"Feature","geometry":{"type":"Point","coordinates":[-85.72615,30.143899]}},{"properties":{"city":"Panama City Beach","zip":"32408","event":"(2013) Ironman Florida","type":"Marriott","contact name":null,"country":"USA","geo_score":0.966,"hotel name":"Marriott's Legends Edge at Bay Point","street address":"4000 Marriott Drive","phone":null,"full address":"4000 Marriott Drive, Panama City Beach, FL, 32408, USA","id":"aanir5zlvmtd","geo_precision":"range","email":null,"state":"FL"},"type":"Feature","geometry":{"type":"Point","coordinates":[-85.72615,30.143899]}},{"properties":{"city":"Miami","zip":"33132","event":"(2013) Ironman 70.3 Miami","type":"Marriott","contact name":null,"country":"USA","geo_score":1.0,"hotel name":"Miami Marriott Biscayne Bay","street address":"1633 North Bayshore Drive","phone":null,"full address":"1633 North Bayshore Drive, Miami, FL, 33132, USA","id":"aanir5zh7lhk","geo_precision":"range","email":null,"state":"FL"},"type":"Feature","geometry":{"type":"Point","coordinates":[-80.187022,25.791646]}},{"properties":{"city":"Miami","zip":"33132","event":"(2013) Ironman 70.3 Miami","type":"Marriott","contact name":null,"country":"USA","geo_score":1.0,"hotel name":"Miami Marriott Biscayne Bay","street address":"1633 North Bayshore Drive","phone":null,"full address":"1633 North Bayshore Drive, Miami, FL, 33132, USA","id":"aanir63c1l7e","geo_precision":"range","email":null,"state":"FL"},"type":"Feature","geometry":{"type":"Point","coordinates":[-80.187022,25.791646]}},{"properties":{"city":"Miami","zip":"33131","event":"(2013) Ironman 70.3 Miami","type":"Marriott","contact name":null,"country":"USA","geo_score":0.585,"hotel name":"JW Marriott Hotel Miami","street address":"1109 Brickell Avenue","phone":null,"full address":"1109 Brickell Avenue, Miami, FL, 33131, USA","id":"aanir5yaoumj","geo_precision":"zip","email":null,"state":"FL"},"type":"Feature","geometry":{"type":"Point","coordinates":[-80.252552,25.378169]}},{"properties":{"city":"Miami","zip":"33131","event":"(2013) Ironman 70.3 Miami","type":"Marriott","contact name":null,"country":"USA","geo_score":1.0,"hotel name":"JW Marriott Marquis Miami","street address":"255 Biscayne Boulevard Way","phone":null,"full address":"255 Biscayne Boulevard Way, Miami, FL, 33131, USA","id":"aanir64yye05","geo_precision":"range","email":null,"state":"FL"},"type":"Feature","geometry":{"type":"Point","coordinates":[-80.189491,25.770975]}},{"properties":{"city":"Miami","zip":"33131","event":"(2013) Ironman 70.3 Miami","type":"Marriott","contact name":null,"country":"USA","geo_score":0.941,"hotel name":"Courtyard Miami Downtown","street address":"200 SE Second Avenue","phone":null,"full address":"200 SE Second Avenue, Miami, FL, 33131, USA","id":"aanir5opql42","geo_precision":"range","email":null,"state":"FL"},"type":"Feature","geometry":{"type":"Point","coordinates":[-80.190137,25.77209]}},{"properties":{"city":"Austin","zip":"78751","event":"(2013) Ironman 70.3 Austin","type":"Marriott","contact name":null,"country":"USA","geo_score":1.0,"hotel name":"Fairfield Inn &amp; Suites Austin-University Area","street address":"959 Reinli Street","phone":null,"full address":"959 Reinli Street, Austin, TX, 78751, USA","id":"aanir5unhv5o","geo_precision":"range","email":null,"state":"TX"},"type":"Feature","geometry":{"type":"Point","coordinates":[-97.708943,30.319322]}},{"properties":{"city":"Austin","zip":"78751","event":"(2013) Ironman 70.3 Austin","type":"Marriott","contact name":null,"country":"USA","geo_score":0.585,"hotel name":"Courtyard Austin-University Area","street address":"5660 North IH-35","phone":null,"full address":"5660 North IH-35, Austin, TX, 78751, USA","id":"aanir5p13qrb","geo_precision":"zip","email":null,"state":"TX"},"type":"Feature","geometry":{"type":"Point","coordinates":[-97.722382,30.310606]}},{"properties":{"city":"Austin","zip":"78744","event":"(2013) Ironman 70.3 Austin","type":"Marriott","contact name":null,"country":"USA","geo_score":0.585,"hotel name":"Residence Inn Austin South","street address":"4537 South IH-35","phone":null,"full address":"4537 South IH-35, Austin, TX, 78744, USA","id":"aanir5xp966q","geo_precision":"zip","email":null,"state":"TX"},"type":"Feature","geometry":{"type":"Point","coordinates":[-97.737181,30.166102]}},{"properties":{"city":"Austin","zip":"78744","event":"(2013) Ironman 70.3 Austin","type":"Marriott","contact name":null,"country":"USA","geo_score":0.585,"hotel name":"Courtyard Austin South","street address":"4533 South IH-35","phone":null,"full address":"4533 South IH-35, Austin, TX, 78744, USA","id":"aanir5xwgr7l","geo_precision":"zip","email":null,"state":"TX"},"type":"Feature","geometry":{"type":"Point","coordinates":[-97.737181,30.166102]}},{"properties":{"city":"Austin","zip":"78744","event":"(2013) Ironman 70.3 Austin","type":"Marriott","contact name":null,"country":"USA","geo_score":0.585,"hotel name":"SpringHill Suites Austin South","street address":"4501 South IH-35","phone":null,"full address":"4501 South IH-35, Austin, TX, 78744, USA","id":"aanir5xsu76b","geo_precision":"zip","email":null,"state":"TX"},"type":"Feature","geometry":{"type":"Point","coordinates":[-97.737181,30.166102]}},{"properties":{"city":"Austin","zip":"78744","event":"(2013) Ironman 70.3 Austin","type":"Marriott","contact name":null,"country":"USA","geo_score":0.585,"hotel name":"Austin Marriott South","street address":"4415 South IH-35","phone":null,"full address":"4415 South IH-35, Austin, TX, 78744, USA","id":"aanir5zpys4s","geo_precision":"zip","email":null,"state":"TX"},"type":"Feature","geometry":{"type":"Point","coordinates":[-97.737181,30.166102]}},{"properties":{"city":"Austin","zip":"78744","event":"(2013) Ironman 70.3 Austin","type":"Marriott","contact name":null,"country":"USA","geo_score":0.807,"hotel name":"Fairfield Inn &amp; Suites Austin South","street address":"4525 South Interstate Hwy 35","phone":null,"full address":"4525 South Interstate Hwy 35, Austin, TX, 78744, USA","id":"aanir5taqox6","geo_precision":"street","email":null,"state":"TX"},"type":"Feature","geometry":{"type":"Point","coordinates":[-97.757853,30.20543]}},{"properties":{"city":"Austin","zip":"78701","event":"(2013) Ironman 70.3 Austin","type":"Marriott","contact name":null,"country":"USA","geo_score":0.927,"hotel name":"Residence Inn Austin Downtown/Convention Center","street address":"300 East 4th Street","phone":null,"full address":"300 East 4th Street, Austin, TX, 78701, USA","id":"aanir61hgpc7","geo_precision":"range","email":null,"state":"TX"},"type":"Feature","geometry":{"type":"Point","coordinates":[-97.740001,30.265238]}},{"properties":{"city":"Austin","zip":"78701","event":"(2013) Ironman 70.3 Austin","type":"Marriott","contact name":null,"country":"USA","geo_score":0.927,"hotel name":"Courtyard Austin Downtown/Convention Center","street address":"300 East 4th Street","phone":null,"full address":"300 East 4th Street, Austin, TX, 78701, USA","id":"aanir5sscri1","geo_precision":"range","email":null,"state":"TX"},"type":"Feature","geometry":{"type":"Point","coordinates":[-97.740001,30.265238]}},{"properties":{"city":"Austin","zip":"78701","event":"(2013) Ironman 70.3 Austin","type":"Marriott","contact name":null,"country":"USA","geo_score":0.927,"hotel name":"JW Marriott Austin","street address":"110 E 2nd Street","phone":null,"full address":"110 E 2nd Street, Austin, TX, 78701, USA","id":"aanir5x4zxsr","geo_precision":"range","email":null,"state":"TX"},"type":"Feature","geometry":{"type":"Point","coordinates":[-97.742957,30.264056]}},{"properties":{"city":"Kailua-Kona","zip":"96740","event":"(2013) Ironman World Championship","type":"Marriott","contact name":null,"country":"USA","geo_score":0.698,"hotel name":"Courtyard King Kamehameha's Kona Beach Hotel","street address":"75-5660 Palani Road","phone":null,"full address":"75-5660 Palani Road, Kailua-Kona, HI, 96740, USA","id":"aanir5wpgtmy","geo_precision":"street","email":null,"state":"HI"},"type":"Feature","geometry":{"type":"Point","coordinates":[-155.97527,19.68194]}},{"properties":{"city":"Augusta","zip":"30909","event":"(2013) Ironman 70.3 Augusta","type":"Marriott","contact name":null,"country":"USA","geo_score":0.878,"hotel name":"Fairfield Inn &amp; Suites Augusta","street address":"2175 Gordon Highway","phone":null,"full address":"2175 Gordon Highway, Augusta, GA, 30909, USA","id":"aanir5u4tecq","geo_precision":"range","email":null,"state":"GA"},"type":"Feature","geometry":{"type":"Point","coordinates":[-82.062711,33.451542]}},{"properties":{"city":"Augusta","zip":"30907","event":"(2013) Ironman 70.3 Augusta","type":"Marriott","contact name":null,"country":"USA","geo_score":1.0,"hotel name":"Courtyard Augusta","street address":"1045 Stevens Creek Road","phone":null,"full address":"1045 Stevens Creek Road, Augusta, GA, 30907, USA","id":"aanir5tyqojt","geo_precision":"range","email":null,"state":"GA"},"type":"Feature","geometry":{"type":"Point","coordinates":[-82.044073,33.519395]}},{"properties":{"city":"Augusta","zip":"30901","event":"(2013) Ironman 70.3 Augusta","type":"Marriott","contact name":null,"country":"USA","geo_score":0.714,"hotel name":"Augusta Marriott at the Convention Center","street address":"Two Tenth Street","phone":null,"full address":"Two Tenth Street, Augusta, GA, 30901, USA","id":"aanir5tounsp","geo_precision":"street","email":null,"state":"GA"},"type":"Feature","geometry":{"type":"Point","coordinates":[-81.96895,33.478181]}},{"properties":{"city":"Madison","zip":"53704","event":"(2013) Ironman Wisconsin","type":"Marriott","contact name":null,"country":"USA","geo_score":1.0,"hotel name":"Residence Inn Madison East","street address":"4862 Hayes Road","phone":null,"full address":"4862 Hayes Road, Madison, WI, 53704, USA","id":"aanir5zdy9w5","geo_precision":"range","email":null,"state":"WI"},"type":"Feature","geometry":{"type":"Point","coordinates":[-89.300244,43.137067]}},{"properties":{"city":"Madison","zip":"53718","event":"(2013) Ironman Wisconsin","type":"Marriott","contact name":null,"country":"USA","geo_score":1.0,"hotel name":"Fairfield Inn &amp; Suites Madison East","street address":"2702 Crossroads Drive","phone":null,"full address":"2702 Crossroads Drive, Madison, WI, 53718, USA","id":"aanir64gc4mf","geo_precision":"range","email":null,"state":"WI"},"type":"Feature","geometry":{"type":"Point","coordinates":[-89.290724,43.133701]}},{"properties":{"city":"Madison","zip":"53718","event":"(2013) Ironman Wisconsin","type":"Marriott","contact name":null,"country":"USA","geo_score":1.0,"hotel name":"Courtyard Madison East","street address":"2502 Crossroads Drive","phone":null,"full address":"2502 Crossroads Drive, Madison, WI, 53718, USA","id":"aanir5pbkhou","geo_precision":"range","email":null,"state":"WI"},"type":"Feature","geometry":{"type":"Point","coordinates":[-89.290465,43.132122]}},{"properties":{"city":"South Lake Tahoe","zip":"96150","event":"(2013) Ironman Lake Tahoe","type":"Marriott","contact name":null,"country":"USA","geo_score":0.703,"hotel name":"Grand Residences by Marriott, Lake Tahoe - studios, 1 &amp; 2 bedrooms","street address":"1001 Heavenly Village Way","phone":null,"full address":"1001 Heavenly Village Way, South Lake Tahoe, CA, 96150, USA","id":"aanir5t5orqm","geo_precision":"street","email":null,"state":"CA"},"type":"Feature","geometry":{"type":"Point","coordinates":[-119.970877,38.93796]}},{"properties":{"city":"Henderson","zip":"89014","event":"(2013) Ironman World Championship 70.3","type":"Marriott","contact name":null,"country":"USA","geo_score":1.0,"hotel name":"Courtyard Las Vegas Henderson/Green Valley","street address":"2800 North Green Valley Parkway","phone":null,"full address":"2800 North Green Valley Parkway, Henderson, NV, 89014, USA","id":"aanir5pfxs8h","geo_precision":"range","email":null,"state":"NV"},"type":"Feature","geometry":{"type":"Point","coordinates":[-115.082362,36.07282]}},{"properties":{"city":"Henderson","zip":"89014","event":"(2013) Ironman World Championship 70.3","type":"Marriott","contact name":null,"country":"USA","geo_score":1.0,"hotel name":"Residence Inn Las Vegas Henderson/Green Valley","street address":"2190 Olympic Avenue","phone":null,"full address":"2190 Olympic Avenue, Henderson, NV, 89014, USA","id":"aanir5z7xcq4","geo_precision":"range","email":null,"state":"NV"},"type":"Feature","geometry":{"type":"Point","coordinates":[-115.078352,36.072905]}},{"properties":{"city":"Henderson","zip":"89012","event":"(2013) Ironman World Championship 70.3","type":"Marriott","contact name":null,"country":"USA","geo_score":0.484,"hotel name":"SpringHill Suites Las Vegas Henderson","street address":"1481 Paseo Verde Parkway","phone":null,"full address":"1481 Paseo Verde Parkway, Henderson, NV, 89012, USA","id":"aanir5pqba81","geo_precision":"street","email":null,"state":"NV"},"type":"Feature","geometry":{"type":"Point","coordinates":[-115.139407,36.248729]}},{"properties":{"city":"Henderson","zip":"89012","event":"(2013) Ironman World Championship 70.3","type":"Marriott","contact name":null,"country":"USA","geo_score":0.484,"hotel name":"TownePlace Suites Las Vegas Henderson","street address":"1471 Paseo Verde Parkway","phone":null,"full address":"1471 Paseo Verde Parkway, Henderson, NV, 89012, USA","id":"aanir60ar88f","geo_precision":"street","email":null,"state":"NV"},"type":"Feature","geometry":{"type":"Point","coordinates":[-115.139407,36.248729]}},{"properties":{"city":"Jeffersonville","zip":"47130","event":"(2013) Ironman Louisville","type":"Marriott","contact name":null,"country":"USA","geo_score":0.81,"hotel name":"TownePlace Suites Louisville North","street address":"703 North Shore Drive","phone":null,"full address":"703 North Shore Drive, Jeffersonville, IN, 47130, USA","id":"aanir61gnw02","geo_precision":"street","email":null,"state":"IN"},"type":"Feature","geometry":{"type":"Point","coordinates":[-85.748367,38.270603]}},{"properties":{"city":"Jeffersonville","zip":"47130","event":"(2013) Ironman Louisville","type":"Marriott","contact name":null,"country":"USA","geo_score":0.806,"hotel name":"Fairfield Inn &amp; Suites Louisville North","street address":"619 North Shore Drive","phone":null,"full address":"619 North Shore Drive, Jeffersonville, IN, 47130, USA","id":"aanir5qyk2di","geo_precision":"street","email":null,"state":"IN"},"type":"Feature","geometry":{"type":"Point","coordinates":[-85.748367,38.270603]}},{"properties":{"city":"Louisville","zip":"40202","event":"(2013) Ironman Louisville","type":"Marriott","contact name":null,"country":"USA","geo_score":1.0,"hotel name":"Residence Inn Louisville Downtown","street address":"333 East Market Street","phone":null,"full address":"333 East Market Street, Louisville, KY, 40202, USA","id":"aanir5vgyd6v","geo_precision":"range","email":null,"state":"KY"},"type":"Feature","geometry":{"type":"Point","coordinates":[-85.74661,38.254209]}},{"properties":{"city":"Louisville","zip":"40202","event":"(2013) Ironman Louisville","type":"Marriott","contact name":null,"country":"USA","geo_score":0.937,"hotel name":"SpringHill Suites Louisville Downtown","street address":"132 E Jefferson","phone":null,"full address":"132 E Jefferson, Louisville, KY, 40202, USA","id":"aanir5xjg1q5","geo_precision":"range","email":null,"state":"KY"},"type":"Feature","geometry":{"type":"Point","coordinates":[-85.750831,38.253092]}},{"properties":{"city":"Louisville","zip":"40202","event":"(2013) Ironman Louisville","type":"Marriott","contact name":null,"country":"USA","geo_score":0.937,"hotel name":"Fairfield Inn &amp; Suites Louisville Downtown","street address":"100 E Jefferson","phone":null,"full address":"100 E Jefferson, Louisville, KY, 40202, USA","id":"aanir63pk68j","geo_precision":"range","email":null,"state":"KY"},"type":"Feature","geometry":{"type":"Point","coordinates":[-85.750397,38.253108]}},{"properties":{"city":"Louisville","zip":"40202","event":"(2013) Ironman Louisville","type":"Marriott","contact name":null,"country":"USA","geo_score":0.927,"hotel name":"Courtyard Louisville Downtown","street address":"100 South Second Street","phone":null,"full address":"100 South Second Street, Louisville, KY, 40202, USA","id":"aanir5wbyzmx","geo_precision":"range","email":null,"state":"KY"},"type":"Feature","geometry":{"type":"Point","coordinates":[-85.753458,38.254861]}},{"properties":{"city":"Louisville","zip":"40202","event":"(2013) Ironman Louisville","type":"Marriott","contact name":null,"country":"USA","geo_score":0.937,"hotel name":"Louisville Marriott Downtown","street address":"280 West Jefferson","phone":null,"full address":"280 West Jefferson, Louisville, KY, 40202, USA","id":"aanir5s4tvjh","geo_precision":"range","email":null,"state":"KY"},"type":"Feature","geometry":{"type":"Point","coordinates":[-85.754316,38.253432]}},{"properties":{"city":"Gilford","zip":"03249","event":"(2013) Ironman 70.3 Timberman","type":"Marriott","contact name":null,"country":"USA","geo_score":0.642,"hotel name":"TownePlace Suites Gilford","street address":"14 Sawmill Road","phone":null,"full address":"14 Sawmill Road, Gilford, NE, 03249, USA","id":"aanir5t1q58o","geo_precision":"street","email":null,"state":"NE"},"type":"Feature","geometry":{"type":"Point","coordinates":[-71.439701,43.531795]}},{"properties":{"city":"Benton Harbor","zip":"49022","event":"(2013) Ironman 70.3 Steelhead","type":"Marriott","contact name":null,"country":"USA","geo_score":1.0,"hotel name":"Courtyard Benton Harbor St. Joseph","street address":"1592 Mall Drive","phone":null,"full address":"1592 Mall Drive, Benton Harbor, MI, 49022, USA","id":"aanir62856c0","geo_precision":"range","email":null,"state":"MI"},"type":"Feature","geometry":{"type":"Point","coordinates":[-86.421008,42.07875]}},{"properties":{"city":"Lake Placid","zip":"12946","event":"(2013) Ironman Lake Placid","type":"Marriott","contact name":null,"country":"USA","geo_score":0.805,"hotel name":"Courtyard Lake Placid","street address":"5920 Cascade Road","phone":null,"full address":"5920 Cascade Road, Lake Placid, NY, 12946, USA","id":"aanir60216cd","geo_precision":"street","email":null,"state":"NY"},"type":"Feature","geometry":{"type":"Point","coordinates":[-73.969246,44.263579]}},{"properties":{"city":"Racine","zip":"53406","event":"(2013) Ironman 70.3 Racine","type":"Marriott","contact name":null,"country":"USA","geo_score":0.786,"hotel name":"Racine Marriott","street address":"7111 Washington Avenue (Hwy 20)","phone":null,"full address":"7111 Washington Avenue (Hwy 20), Racine, WI, 53406, USA","id":"aanir5p67y77","geo_precision":"street","email":null,"state":"WI"},"type":"Feature","geometry":{"type":"Point","coordinates":[-87.837276,42.718637]}},{"properties":{"city":"Racine","zip":"53406","event":"(2013) Ironman 70.3 Racine","type":"Marriott","contact name":null,"country":"USA","geo_score":0.878,"hotel name":"Fairfield Inn Racine","street address":"6421 Washington Avenue","phone":null,"full address":"6421 Washington Avenue, Racine, WI, 53406, USA","id":"aanir5yeus4d","geo_precision":"range","email":null,"state":"WI"},"type":"Feature","geometry":{"type":"Point","coordinates":[-87.866689,42.719308]}},{"properties":{"city":"East Syracuse","zip":"13057","event":"(2013) Ironman 70.3 Syracuse","type":null,"contact name":null,"country":"USA","geo_score":0.585,"hotel name":"SpringHill Suites Syracuse Carrier Circle","street address":"6580 Weighlock Drive","phone":null,"full address":"6580 Weighlock Drive, East Syracuse, NY, 13057, USA","id":"aanir5vk4vkg","geo_precision":"zip","email":null,"state":"NY"},"type":"Feature","geometry":{"type":"Point","coordinates":[-76.047426,43.096216]}},{"properties":{"city":"East Syracuse","zip":"13057","event":"(2013) Ironman 70.3 Syracuse","type":null,"contact name":null,"country":"USA","geo_score":1.0,"hotel name":"Residence Inn Syracuse Carrier Circle","street address":"6420 Yorktown Circle","phone":null,"full address":"6420 Yorktown Circle, East Syracuse, NY, 13057, USA","id":"aanir5zbmjrf","geo_precision":"range","email":null,"state":"NY"},"type":"Feature","geometry":{"type":"Point","coordinates":[-76.087327,43.091197]}},{"properties":{"city":"East Syracuse","zip":"13057","event":"(2013) Ironman 70.3 Syracuse","type":null,"contact name":null,"country":"USA","geo_score":1.0,"hotel name":"Courtyard Syracuse Carrier Circle","street address":"6415 Yorktown Circle","phone":null,"full address":"6415 Yorktown Circle, East Syracuse, NY, 13057, USA","id":"aanir629px4y","geo_precision":"range","email":null,"state":"NY"},"type":"Feature","geometry":{"type":"Point","coordinates":[-76.087514,43.091234]}},{"properties":{"city":"Syracuse","zip":"13202","event":"(2013) Ironman 70.3 Syracuse","type":null,"contact name":null,"country":"USA","geo_score":1.0,"hotel name":"Residence Inn Syracuse Downtown","street address":"300 West Fayette Street","phone":null,"full address":"300 West Fayette Street, Syracuse, NY, 13202, USA","id":"aanir5saxj21","geo_precision":"range","email":null,"state":"NY"},"type":"Feature","geometry":{"type":"Point","coordinates":[-76.15717,43.048725]}},{"properties":{"city":"Syracuse","zip":"13202","event":"(2013) Ironman 70.3 Syracuse","type":null,"contact name":null,"country":"USA","geo_score":1.0,"hotel name":"Courtyard Syracuse Downtown","street address":"300 West Fayette Street","phone":null,"full address":"300 West Fayette Street, Syracuse, NY, 13202, USA","id":"aanir6419l7m","geo_precision":"range","email":null,"state":"NY"},"type":"Feature","geometry":{"type":"Point","coordinates":[-76.15717,43.048725]}},{"properties":{"city":"Boulder","zip":"80302","event":"(2013) Ironman 70.3 Boulder","type":"Marriott","contact name":null,"country":"USA","geo_score":1.0,"hotel name":"Boulder Marriott","street address":"2660 Canyon Boulevard","phone":null,"full address":"2660 Canyon Boulevard, Boulder, CO, 80302, USA","id":"aanir5r5zgvg","geo_precision":"range","email":null,"state":"CO"},"type":"Feature","geometry":{"type":"Point","coordinates":[-105.259045,40.017282]}},{"properties":{"city":"Boulder","zip":"80301","event":"(2013) Ironman 70.3 Boulder","type":"Marriott","contact name":null,"country":"USA","geo_score":0.937,"hotel name":"Courtyard Boulder","street address":"4710 Pearl East Circle","phone":null,"full address":"4710 Pearl East Circle, Boulder, CO, 80301, USA","id":"aanir627es5x","geo_precision":"range","email":null,"state":"CO"},"type":"Feature","geometry":{"type":"Point","coordinates":[-105.240967,40.022138]}},{"properties":{"city":"Boulder","zip":"80301","event":"(2013) Ironman 70.3 Boulder","type":"Marriott","contact name":null,"country":"USA","geo_score":1.0,"hotel name":"Residence Inn Boulder","street address":"3030 Center Green Drive","phone":null,"full address":"3030 Center Green Drive, Boulder, CO, 80301, USA","id":"aanir5xvvkeo","geo_precision":"range","email":null,"state":"CO"},"type":"Feature","geometry":{"type":"Point","coordinates":[-105.246342,40.030725]}},{"properties":{"city":"Lawrence","zip":"66044","event":"(2013) Ironman 70.3 Kansas","type":"Marriott","contact name":null,"country":"USA","geo_score":0.866,"hotel name":"SpringHill Suites Lawrence","street address":"One Riverfront Plaza","phone":null,"full address":"One Riverfront Plaza, Lawrence, KS, 66044, USA","id":"aanir5yuapil","geo_precision":"street","email":null,"state":"KS"},"type":"Feature","geometry":{"type":"Point","coordinates":[-95.233641,38.987162]}},{"properties":{"city":"Boise","zip":"83713","event":"(2013) Ironman 70.3 Boise","type":"Marriott","contact name":null,"country":"USA","geo_score":0.941,"hotel name":"SpringHill Suites Boise","street address":"6325 North Cloverdale","phone":null,"full address":"6325 North Cloverdale, Boise, ID, 83713, USA","id":"aanir5wkft12","geo_precision":"range","email":null,"state":"ID"},"type":"Feature","geometry":{"type":"Point","coordinates":[-116.334481,43.660134]}},{"properties":{"city":"Boise","zip":"83704","event":"(2013) Ironman 70.3 Boise","type":"Marriott","contact name":null,"country":"USA","geo_score":0.947,"hotel name":"Residence Inn Boise West","street address":"7303 West Denton Street","phone":null,"full address":"7303 West Denton Street, Boise, ID, 83704, USA","id":"aanir63p0n8c","geo_precision":"range","email":null,"state":"ID"},"type":"Feature","geometry":{"type":"Point","coordinates":[-116.273995,43.610196]}},{"properties":{"city":"Boise","zip":"83705","event":"(2013) Ironman 70.3 Boise","type":"Marriott","contact name":null,"country":"USA","geo_score":1.0,"hotel name":"Fairfield Inn Boise","street address":"3300 S Shoshone Street","phone":null,"full address":"3300 S Shoshone Street, Boise, ID, 83705, USA","id":"aanir5ojwce5","geo_precision":"range","email":null,"state":"ID"},"type":"Feature","geometry":{"type":"Point","coordinates":[-116.218632,43.573502]}},{"properties":{"city":"Boise","zip":"83706","event":"(2013) Ironman 70.3 Boise","type":"Marriott","contact name":null,"country":"USA","geo_score":1.0,"hotel name":"SpringHill Suites Boise ParkCenter","street address":"424 East ParkCenter Blvd","phone":null,"full address":"424 East ParkCenter Blvd, Boise, ID, 83706, USA","id":"aanir5qsht6v","geo_precision":"range","email":null,"state":"ID"},"type":"Feature","geometry":{"type":"Point","coordinates":[-116.177776,43.594725]}},{"properties":{"city":"Boise","zip":"83706","event":"(2013) Ironman 70.3 Boise","type":"Marriott","contact name":null,"country":"USA","geo_score":0.878,"hotel name":"TownePlace Suites Boise Downtown","street address":"1455 South Capitol Boulevard","phone":null,"full address":"1455 South Capitol Boulevard, Boise, ID, 83706, USA","id":"aanir5u0nufe","geo_precision":"range","email":null,"state":"ID"},"type":"Feature","geometry":{"type":"Point","coordinates":[-116.211701,43.605477]}},{"properties":{"city":"Boise","zip":"83706","event":"(2013) Ironman 70.3 Boise","type":"Marriott","contact name":null,"country":"USA","geo_score":1.0,"hotel name":"Residence Inn Boise Downtown","street address":"1401 S Lusk Pl","phone":null,"full address":"1401 S Lusk Pl, Boise, ID, 83706, USA","id":"aanir646c33t","geo_precision":"range","email":null,"state":"ID"},"type":"Feature","geometry":{"type":"Point","coordinates":[-116.21463,43.604237]}},{"properties":{"city":"Boise","zip":"83702","event":"(2013) Ironman 70.3 Boise","type":"Marriott","contact name":null,"country":"USA","geo_score":0.602,"hotel name":"Courtyard Boise Downtown","street address":"222 S. Broadway Avenue","phone":null,"full address":"222 S. Broadway Avenue, Boise, ID, 83702, USA","id":"aanir62zsyqt","geo_precision":"street","email":null,"state":"ID"},"type":"Feature","geometry":{"type":"Point","coordinates":[-116.19247,43.610991]}},{"properties":{"city":"Raleigh","zip":"27616","event":"(2013) Ironman 70.3 Raleigh","type":null,"contact name":null,"country":"USA","geo_score":1.0,"hotel name":"Courtyard Raleigh North/Triangle Town Center","street address":"3401 Sumner Blvd","phone":null,"full address":"3401 Sumner Blvd, Raleigh, NC, 27616, USA","id":"aanir60yrwbn","geo_precision":"range","email":null,"state":"NC"},"type":"Feature","geometry":{"type":"Point","coordinates":[-78.577852,35.863645]}},{"properties":{"city":"Raleigh","zip":"27612","event":"(2013) Ironman 70.3 Raleigh","type":null,"contact name":null,"country":"USA","geo_score":1.0,"hotel name":"Raleigh Marriott Crabtree Valley","street address":"4500 Marriott Drive","phone":null,"full address":"4500 Marriott Drive, Raleigh, NC, 27612, USA","id":"aanir621xi4v","geo_precision":"range","email":null,"state":"NC"},"type":"Feature","geometry":{"type":"Point","coordinates":[-78.680118,35.845435]}},{"properties":{"city":"Raleigh","zip":"27612","event":"(2013) Ironman 70.3 Raleigh","type":null,"contact name":null,"country":"USA","geo_score":1.0,"hotel name":"Courtyard Raleigh Crabtree Valley","street address":"3908 Arrow Drive","phone":null,"full address":"3908 Arrow Drive, Raleigh, NC, 27612, USA","id":"aanir62qw9ry","geo_precision":"range","email":null,"state":"NC"},"type":"Feature","geometry":{"type":"Point","coordinates":[-78.673638,35.836127]}},{"properties":{"city":"Raleigh","zip":"27612","event":"(2013) Ironman 70.3 Raleigh","type":null,"contact name":null,"country":"USA","geo_score":1.0,"hotel name":"Residence Inn Raleigh Crabtree Valley","street address":"2201 Summit Park Lane","phone":null,"full address":"2201 Summit Park Lane, Raleigh, NC, 27612, USA","id":"aanir61flqod","geo_precision":"range","email":null,"state":"NC"},"type":"Feature","geometry":{"type":"Point","coordinates":[-78.67566,35.835637]}},{"properties":{"city":"Raleigh","zip":"27612","event":"(2013) Ironman 70.3 Raleigh","type":null,"contact name":null,"country":"USA","geo_score":1.0,"hotel name":"Residence Inn Raleigh Crabtree Valley","street address":"2200 Summit Park Lane","phone":null,"full address":"2200 Summit Park Lane, Raleigh, NC, 27612, USA","id":"aanir5r0m0kc","geo_precision":"range","email":null,"state":"NC"},"type":"Feature","geometry":{"type":"Point","coordinates":[-78.67566,35.835637]}},{"properties":{"city":"Raleigh","zip":"27609","event":"(2013) Ironman 70.3 Raleigh","type":null,"contact name":null,"country":"USA","geo_score":0.642,"hotel name":"Renaissance Raleigh North Hills Hotel","street address":"4100 Main at North Hills Street","phone":null,"full address":"4100 Main at North Hills Street, Raleigh, NC, 27609, USA","id":"aanir5t724jb","geo_precision":"street","email":null,"state":"NC"},"type":"Feature","geometry":{"type":"Point","coordinates":[-78.657862,35.854274]}},{"properties":{"city":"Raleigh","zip":"27609","event":"(2013) Ironman 70.3 Raleigh","type":null,"contact name":null,"country":"USA","geo_score":0.642,"hotel name":"Renaissance Raleigh North Hills Hotel","street address":"4100 Main at North Hills Street","phone":null,"full address":"4100 Main at North Hills Street, Raleigh, NC, 27609, USA","id":"aanir5vns7cl","geo_precision":"street","email":null,"state":"NC"},"type":"Feature","geometry":{"type":"Point","coordinates":[-78.657862,35.854274]}},{"properties":{"city":"Raleigh","zip":"27609","event":"(2013) Ironman 70.3 Raleigh","type":null,"contact name":null,"country":"USA","geo_score":1.0,"hotel name":"Residence Inn Raleigh Midtown","street address":"1000 Navaho Drive","phone":null,"full address":"1000 Navaho Drive, Raleigh, NC, 27609, USA","id":"aanir5v9vlgp","geo_precision":"range","email":null,"state":"NC"},"type":"Feature","geometry":{"type":"Point","coordinates":[-78.620362,35.827287]}},{"properties":{"city":"Raleigh","zip":"27609","event":"(2013) Ironman 70.3 Raleigh","type":null,"contact name":null,"country":"USA","geo_score":1.0,"hotel name":"Courtyard Raleigh Midtown","street address":"1041 Wake Towne Drive","phone":null,"full address":"1041 Wake Towne Drive, Raleigh, NC, 27609, USA","id":"aanir63jhubg","geo_precision":"range","email":null,"state":"NC"},"type":"Feature","geometry":{"type":"Point","coordinates":[-78.624059,35.823829]}},{"properties":{"city":"Raleigh","zip":"27601","event":"(2013) Ironman 70.3 Raleigh","type":null,"contact name":null,"country":"USA","geo_score":0.708,"hotel name":"Raleigh Marriott City Center","street address":"500 Fayetteville Street","phone":null,"full address":"500 Fayetteville Street, Raleigh, NC, 27601, USA","id":"aanir6021vx2","geo_precision":"street","email":null,"state":"NC"},"type":"Feature","geometry":{"type":"Point","coordinates":[-78.64209,35.767282]}},{"properties":{"city":"The Woodlands","zip":"77384","event":"(2013) Ironman Texas","type":"Marriott","contact name":null,"country":"USA","geo_score":0.539,"hotel name":"SpringHill Suites Houston The Woodlands","street address":"16520 Interstate 45 South","phone":null,"full address":"16520 Interstate 45 South, The Woodlands, TX, 77384, USA","id":"aanir5uiespx","geo_precision":"street","email":null,"state":"TX"},"type":"Feature","geometry":{"type":"Point","coordinates":[-95.453622,30.190559]}},{"properties":{"city":"The Woodlands","zip":"77384","event":"(2013) Ironman Texas","type":"Marriott","contact name":null,"country":"USA","geo_score":0.673,"hotel name":"Fairfield Inn &amp; Suites Houston The Woodlands","street address":"16850 I-45 South","phone":null,"full address":"16850 I-45 South, The Woodlands, TX, 77384, USA","id":"aanir5uw2ej8","geo_precision":"street","email":null,"state":"TX"},"type":"Feature","geometry":{"type":"Point","coordinates":[-95.453622,30.190559]}},{"properties":{"city":"Shenandoah","zip":"77384","event":"(2013) Ironman Texas","type":"Marriott","contact name":null,"country":"USA","geo_score":0.824,"hotel name":"TownePlace Suites Houston The Woodlands","street address":"107 Vision Park Blvd","phone":null,"full address":"107 Vision Park Blvd, Shenandoah, TX, 77384, USA","id":"aanir60pk0yu","geo_precision":"street","email":null,"state":"TX"},"type":"Feature","geometry":{"type":"Point","coordinates":[-95.453784,30.191426]}},{"properties":{"city":"The Woodlands","zip":"77380","event":"(2013) Ironman Texas","type":"Marriott","contact name":null,"country":"USA","geo_score":0.979,"hotel name":"Courtyard Houston The Woodlands","street address":"1020 Lake Front Circle","phone":null,"full address":"1020 Lake Front Circle, The Woodlands, TX, 77380, USA","id":"aanir5w76acr","geo_precision":"range","email":null,"state":"TX"},"type":"Feature","geometry":{"type":"Point","coordinates":[-95.455204,30.170579]}},{"properties":{"city":"The Woodlands","zip":"77380","event":"(2013) Ironman Texas","type":"Marriott","contact name":null,"country":"USA","geo_score":0.979,"hotel name":"Residence Inn Houston The Woodlands/Lake Front Circle","street address":"1040 Lake Front Circle","phone":null,"full address":"1040 Lake Front Circle, The Woodlands, TX, 77380, USA","id":"aanir5oygees","geo_precision":"range","email":null,"state":"TX"},"type":"Feature","geometry":{"type":"Point","coordinates":[-95.454878,30.170577]}},{"properties":{"city":"The Woodlands","zip":"77380","event":"(2013) Ironman Texas","type":"Marriott","contact name":null,"country":"USA","geo_score":1.0,"hotel name":"The Woodlands Waterway Marriott Hotel &amp; Convention Center","street address":"1601 Lake Robbins Drive","phone":null,"full address":"1601 Lake Robbins Drive, The Woodlands, TX, 77380, USA","id":"aanir5u9ysz4","geo_precision":"range","email":null,"state":"TX"},"type":"Feature","geometry":{"type":"Point","coordinates":[-95.458744,30.161363]}},{"properties":{"city":"The Woodlands","zip":"77380","event":"(2013) Ironman Texas","type":"Marriott","contact name":null,"country":"USA","geo_score":0.581,"hotel name":"Residence Inn Houston The Woodlands/Market Street","street address":"9333 Six Pines Drive","phone":null,"full address":"9333 Six Pines Drive, The Woodlands, TX, 77380, USA","id":"aanir62v314u","geo_precision":"street","email":null,"state":"TX"},"type":"Feature","geometry":{"type":"Point","coordinates":[-95.642144,30.423996]}},{"properties":{"city":"St. George","zip":"84790","event":"(2013) Ironman 70.3 St. George","type":"Marriott","contact name":null,"country":"USA","geo_score":0.736,"hotel name":"TownePlace Suites St. George","street address":"251 South 1470 East","phone":null,"full address":"251 South 1470 East, St. George, UT, 84790, USA","id":"aanir61rhgm1","geo_precision":"street","email":null,"state":"UT"},"type":"Feature","geometry":{"type":"Point","coordinates":[-113.615448,37.044734]}},{"properties":{"city":"St. George","zip":"84790","event":"(2013) Ironman 70.3 St. George","type":"Marriott","contact name":null,"country":"USA","geo_score":0.736,"hotel name":"Courtyard St. George","street address":"185 South 1470 East","phone":null,"full address":"185 South 1470 East, St. George, UT, 84790, USA","id":"aanir5snt31k","geo_precision":"street","email":null,"state":"UT"},"type":"Feature","geometry":{"type":"Point","coordinates":[-113.615448,37.044734]}},{"properties":{"city":"St. George","zip":"84790","event":"(2013) Ironman 70.3 St. George","type":"Marriott","contact name":null,"country":"USA","geo_score":0.967,"hotel name":"Fairfield Inn St. George","street address":"1660 South Convention Center Dr.","phone":null,"full address":"1660 South Convention Center Dr., St. George, UT, 84790, USA","id":"aanir5qiln75","geo_precision":"range","email":null,"state":"UT"},"type":"Feature","geometry":{"type":"Point","coordinates":[-113.582845,37.079851]}},{"properties":{"city":"Galveston","zip":"77554","event":"(2013) Ironman 70.3 Texas","type":"Marriott","contact name":null,"country":"USA","geo_score":1.0,"hotel name":"TownePlace Suites Galveston Island Gulf Front","street address":"9550 Seawall Boulevard","phone":null,"full address":"9550 Seawall Boulevard, Galveston, TX, 77554, USA","id":"aanir5t3l9hs","geo_precision":"range","email":null,"state":"TX"},"type":"Feature","geometry":{"type":"Point","coordinates":[-94.858746,29.247955]}},{"properties":{"city":"Galveston","zip":"77554","event":"(2013) Ironman 70.3 Texas","type":"Marriott","contact name":null,"country":"USA","geo_score":1.0,"hotel name":"TownePlace Suites Galveston Island Gulf Front","street address":"9540 Seawall Boulevard","phone":null,"full address":"9540 Seawall Boulevard, Galveston, TX, 77554, USA","id":"aanir5v3h5oe","geo_precision":"range","email":null,"state":"TX"},"type":"Feature","geometry":{"type":"Point","coordinates":[-94.858747,29.247955]}},{"properties":{"city":"Galveston","zip":"77551","event":"(2013) Ironman 70.3 Texas","type":"Marriott","contact name":null,"country":"USA","geo_score":1.0,"hotel name":"SpringHill Suites Galveston Island","street address":"6303 Broadway St.","phone":null,"full address":"6303 Broadway St., Galveston, TX, 77551, USA","id":"aanir5rhwlf0","geo_precision":"range","email":null,"state":"TX"},"type":"Feature","geometry":{"type":"Point","coordinates":[-94.84135,29.288193]}},{"properties":{"city":"Carlsbad","zip":"92008","event":"(2013) Ironman 70.3 California","type":"Marriott","contact name":null,"country":"USA","geo_score":1.0,"hotel name":"Residence Inn San Diego Carlsbad","street address":"2000 Faraday Ave.","phone":null,"full address":"2000 Faraday Ave., Carlsbad, CA, 92008, USA","id":"aanir5uk4eqo","geo_precision":"range","email":null,"state":"CA"},"type":"Feature","geometry":{"type":"Point","coordinates":[-117.285196,33.13496]}},{"properties":{"city":"Oceanside","zip":"92056","event":"(2013) Ironman 70.3 California","type":"Marriott","contact name":null,"country":"USA","geo_score":0.763,"hotel name":"Courtyard San Diego Oceanside","street address":"3501 Seagate Way Oceanside","phone":null,"full address":"3501 Seagate Way Oceanside, Oceanside, CA, 92056, USA","id":"aanir5ru8our","geo_precision":"range","email":null,"state":"CA"},"type":"Feature","geometry":{"type":"Point","coordinates":[-117.325883,33.201543]}},{"properties":{"city":"Oceanside","zip":"92056","event":"(2013) Ironman 70.3 California","type":"Marriott","contact name":null,"country":"USA","geo_score":0.604,"hotel name":"Residence Inn San Diego Oceanside","street address":"3603 Ocean Ranch Blvd.","phone":null,"full address":"3603 Ocean Ranch Blvd., Oceanside, CA, 92056, USA","id":"aanir5yy8isi","geo_precision":"street","email":null,"state":"CA"},"type":"Feature","geometry":{"type":"Point","coordinates":[-117.266521,33.233475]}}],"is_temporal":false,"author":{"url":"","metadata":"","contact_name":"","contact_address":"","source":"","contact_phone":""},"source":"","pagination":{"sort":null,"start":0,"total":93,"limit":1000000},"state":"complete","tags":"","published":"2014-08-16T17:50:56-04:00","id":304000}