{"type":"FeatureCollection","data_type":"Dataset","url_type":null,"permissions":[{"permissions":{"download":true,"view":true},"group_id":"everyone"}],"classification":null,"title":"\nholtho's places\n","count":41,"stream_id":30519,"contributor":{"url":"http://geocommons.com/users/11444","name":"platial"},"data_attributes":null,"calculation_params":null,"icon_link":null,"link":"http://geocommons.com/overlays/30519.json","extent":[-123.408,1.2784,140.919,56.0188],"geometry_types":["point"],"unique_name":null,"name":"\nholtho's places\n","feature_count":41,"description":"\nA Map by Holtho\n\n\n","next_feature":null,"is_raster":false,"short_classification":"Y","stats":{},"features":[{"properties":{"name":"Boehlen, Germany","description":"Posted by Holtho<img src=\"http://media.geocommons.com/platial/images/categories/ICON_plain_pink_verD.gif\"> Boehlen, Germany<a title=\"Built for Community Mapping\" href=\"http://www.platial.com\"><img src=\"http://media.geocommons.com/platial/images/logotype_small.jpg\"></a>","id":"a65gq45twplx"},"type":"Feature","geometry":{"type":"Point","coordinates":[12.387526,51.202304]}},{"properties":{"name":"Bristol, PA","description":"Posted by Holtho<img src=\"http://media.geocommons.com/platial/images/categories/ICON_plain_pink_verD.gif\"> Bristol, PA<a title=\"Built for Community Mapping\" href=\"http://www.platial.com\"><img src=\"http://media.geocommons.com/platial/images/logotype_small.jpg\"></a>","id":"a65gq4k18b5h"},"type":"Feature","geometry":{"type":"Point","coordinates":[-74.852222,40.100556]}},{"properties":{"name":"Chauny, France","description":"Posted by Holtho<img src=\"http://media.geocommons.com/platial/images/categories/ICON_nature_verD.gif\"> Chauny, France<a title=\"Built for Community Mapping\" href=\"http://www.platial.com\"><img src=\"http://media.geocommons.com/platial/images/logotype_small.jpg\"></a>","id":"a65gq4fgfcyr"},"type":"Feature","geometry":{"type":"Point","coordinates":[3.219893,49.612934]}},{"properties":{"name":"Chonan, Korea","description":"Posted by Holtho<img src=\"http://media.geocommons.com/platial/images/categories/ICON_plain_pink_verD.gif\"> Chonan, Korea<a title=\"Built for Community Mapping\" href=\"http://www.platial.com\"><img src=\"http://media.geocommons.com/platial/images/logotype_small.jpg\"></a>","id":"a65gq4eqv4t7"},"type":"Feature","geometry":{"type":"Point","coordinates":[127.113894,36.815129]}},{"properties":{"name":"Delfzil, Netherlands","description":"Posted by Holtho<img src=\"http://media.geocommons.com/platial/images/categories/ICON_nature_verD.gif\"> Delfzil, Netherlands<a title=\"Built for Community Mapping\" href=\"http://www.platial.com\"><img src=\"http://media.geocommons.com/platial/images/logotype_small.jpg\"></a>","id":"a65gq47mqu84"},"type":"Feature","geometry":{"type":"Point","coordinates":[6.926719,53.333468]}},{"properties":{"name":"Elma, WA","description":"Posted by Holtho<img src=\"http://media.geocommons.com/platial/images/categories/ICON_nature_verD.gif\"> Elma, WA<a title=\"Built for Community Mapping\" href=\"http://www.platial.com\"><img src=\"http://media.geocommons.com/platial/images/logotype_small.jpg\"></a>","id":"a65gq4g1j7z0"},"type":"Feature","geometry":{"type":"Point","coordinates":[-123.4075,47.003611]}},{"properties":{"name":"Fort Saskatchewan, Alberta","description":"Posted by Holtho<img src=\"http://media.geocommons.com/platial/images/categories/ICON_health_verD.gif\"> Fort Saskatchewan, Alberta<a title=\"Built for Community Mapping\" href=\"http://www.platial.com\"><img src=\"http://media.geocommons.com/platial/images/logotype_small.jpg\"></a>","id":"a65gq4g81xlw"},"type":"Feature","geometry":{"type":"Point","coordinates":[-113.213233,53.710033]}},{"properties":{"name":"Grangemouth, Scotland","description":"Posted by Holtho<img src=\"http://media.geocommons.com/platial/images/categories/ICON_nature_verD.gif\"> Grangemouth, Scotland<a title=\"Built for Community Mapping\" href=\"http://www.platial.com\"><img src=\"http://media.geocommons.com/platial/images/logotype_small.jpg\"></a>","id":"a65gq47435dt"},"type":"Feature","geometry":{"type":"Point","coordinates":[-3.718531,56.018785]}},{"properties":{"name":"Greensburg, LA","description":"Posted by Holtho<img src=\"http://media.geocommons.com/platial/images/categories/ICON_plain_pink_verD.gif\"> Greensburg, LA<a title=\"Built for Community Mapping\" href=\"http://www.platial.com\"><img src=\"http://media.geocommons.com/platial/images/logotype_small.jpg\"></a>","id":"a65gq4bggb2l"},"type":"Feature","geometry":{"type":"Point","coordinates":[-90.66715,30.82941]}},{"properties":{"name":"Hanging Rock, OH","description":"Posted by Holtho<img src=\"http://media.geocommons.com/platial/images/categories/ICON_health_verD.gif\"> Hanging Rock, OH<a title=\"Built for Community Mapping\" href=\"http://www.platial.com\"><img src=\"http://media.geocommons.com/platial/images/logotype_small.jpg\"></a>","id":"a65gq4f7af9r"},"type":"Feature","geometry":{"type":"Point","coordinates":[-82.727192,38.56022]}},{"properties":{"name":"Hayward","description":"Posted by Holtho<img src=\"http://media.geocommons.com/platial/images/categories/ICON_health_verD.gif\"> Hayward, CA<a title=\"Built for Community Mapping\" href=\"http://www.platial.com\"><img src=\"http://media.geocommons.com/platial/images/logotype_small.jpg\"></a>","id":"a65gq4ej6755"},"type":"Feature","geometry":{"type":"Point","coordinates":[-122.079722,37.668889]}},{"properties":{"name":"Ibbenbueren, Germany","description":"Posted by Holtho<img src=\"http://media.geocommons.com/platial/images/categories/ICON_plain_pink_verD.gif\"> Ibbenbueren, Germany<a title=\"Built for Community Mapping\" href=\"http://www.platial.com\"><img src=\"http://media.geocommons.com/platial/images/logotype_small.jpg\"></a>","id":"a65gq4co0l21"},"type":"Feature","geometry":{"type":"Point","coordinates":[7.718562,52.276254]}},{"properties":{"name":"Institute, WV","description":"Posted by Holtho<img src=\"http://media.geocommons.com/platial/images/categories/ICON_plain_pink_verD.gif\"> Institute, WV<a title=\"Built for Community Mapping\" href=\"http://www.platial.com\"><img src=\"http://media.geocommons.com/platial/images/logotype_small.jpg\"></a>","id":"a65gq460avi2"},"type":"Feature","geometry":{"type":"Point","coordinates":[-81.769478,38.385859]}},{"properties":{"name":"Jurong Island, Singapore","description":"Posted by Holtho<img src=\"http://media.geocommons.com/platial/images/categories/ICON_nature_verD.gif\"> Jurong Island, Singapore<a title=\"Built for Community Mapping\" href=\"http://www.platial.com\"><img src=\"http://media.geocommons.com/platial/images/logotype_small.jpg\"></a>","id":"a65gq4b2dca9"},"type":"Feature","geometry":{"type":"Point","coordinates":[103.719915,1.278395]}},{"properties":{"name":"Kallo, Belgium","description":"Posted by Holtho<img src=\"http://media.geocommons.com/platial/images/categories/ICON_plain_pink_verD.gif\"> Kallo, Belgium<a title=\"Built for Community Mapping\" href=\"http://www.platial.com\"><img src=\"http://media.geocommons.com/platial/images/logotype_small.jpg\"></a>","id":"a65gq4i0nu48"},"type":"Feature","geometry":{"type":"Point","coordinates":[4.278771,51.252542]}},{"properties":{"name":"Kankakee, IL","description":"Posted by Holtho<img src=\"http://media.geocommons.com/platial/images/categories/ICON_shopping_verD.gif\"> Kankakee, IL<a title=\"Built for Community Mapping\" href=\"http://www.platial.com\"><img src=\"http://media.geocommons.com/platial/images/logotype_small.jpg\"></a>","id":"a65gq44mjdju"},"type":"Feature","geometry":{"type":"Point","coordinates":[-87.8604,41.11994]}},{"properties":{"name":"Kanuma, Japan","description":"Posted by Holtho<img src=\"http://media.geocommons.com/platial/images/categories/ICON_plain_pink_verD.gif\"> Kanuma, Japan<a title=\"Built for Community Mapping\" href=\"http://www.platial.com\"><img src=\"http://media.geocommons.com/platial/images/logotype_small.jpg\"></a>","id":"a65gq4jtt2u0"},"type":"Feature","geometry":{"type":"Point","coordinates":[139.745013,36.567111]}},{"properties":{"name":"Knoxville, TN","description":"Posted by Holtho<img src=\"http://media.geocommons.com/platial/images/categories/ICON_nature_verD.gif\"> Knoxville, TN<a title=\"Built for Community Mapping\" href=\"http://www.platial.com\"><img src=\"http://media.geocommons.com/platial/images/logotype_small.jpg\"></a>","id":"a65gq4hvqwy6"},"type":"Feature","geometry":{"type":"Point","coordinates":[-83.920833,35.960556]}},{"properties":{"name":"Lauterbourg, France","description":"Posted by Holtho<img src=\"http://media.geocommons.com/platial/images/categories/ICON_nature_verD.gif\"> Lauterbourg, France<a title=\"Built for Community Mapping\" href=\"http://www.platial.com\"><img src=\"http://media.geocommons.com/platial/images/logotype_small.jpg\"></a>","id":"a65gq48p2g62"},"type":"Feature","geometry":{"type":"Point","coordinates":[8.17723,48.97462]}},{"properties":{"name":"Louisville, KY","description":"Posted by Holtho<img src=\"http://media.geocommons.com/platial/images/categories/ICON_plain_pink_verD.gif\"> Louisville, KY<a title=\"Built for Community Mapping\" href=\"http://www.platial.com\"><img src=\"http://media.geocommons.com/platial/images/logotype_small.jpg\"></a>","id":"a65gq4avuiso"},"type":"Feature","geometry":{"type":"Point","coordinates":[-85.759444,38.254167]}},{"properties":{"name":"Marlboro, MA","description":"Posted by Holtho<img src=\"http://media.geocommons.com/platial/images/categories/ICON_nature_verD.gif\"> Marlboro, MA<a title=\"Built for Community Mapping\" href=\"http://www.platial.com\"><img src=\"http://media.geocommons.com/platial/images/logotype_small.jpg\"></a>","id":"a65gq4adu753"},"type":"Feature","geometry":{"type":"Point","coordinates":[-71.508949,42.343151]}},{"properties":{"name":"Middlesborough, Billingham","description":"Posted by Holtho<img src=\"http://media.geocommons.com/platial/images/categories/ICON_plain_pink_verD.gif\"> Middlesborough, Billingham<a title=\"Built for Community Mapping\" href=\"http://www.platial.com\"><img src=\"http://media.geocommons.com/platial/images/logotype_small.jpg\"></a>","id":"a65gq4gqjjs4"},"type":"Feature","geometry":{"type":"Point","coordinates":[-1.291795,54.594443]}},{"properties":{"name":"Midland, MI","description":"Posted by Holtho<img src=\"http://media.geocommons.com/platial/images/categories/ICON_plain_pink_verD.gif\"> Midland, MI<a title=\"Built for Community Mapping\" href=\"http://www.platial.com\"><img src=\"http://media.geocommons.com/platial/images/logotype_small.jpg\"></a>","id":"a65gq4hf1yop"},"type":"Feature","geometry":{"type":"Point","coordinates":[-84.247222,43.615556]}},{"properties":{"name":"Minneapolis, MN","description":"Posted by Holtho<img src=\"http://media.geocommons.com/platial/images/categories/ICON_shopping_verD.gif\"> Minneapolis, MN<a title=\"Built for Community Mapping\" href=\"http://www.platial.com\"><img src=\"http://media.geocommons.com/platial/images/logotype_small.jpg\"></a>","id":"a65gq4gl6cdn"},"type":"Feature","geometry":{"type":"Point","coordinates":[-93.263611,44.98]}},{"properties":{"name":"Parona, Italy","description":"Posted by Holtho<img src=\"http://media.geocommons.com/platial/images/categories/ICON_nature_verD.gif\"> Parona, Italy<a title=\"Built for Community Mapping\" href=\"http://www.platial.com\"><img src=\"http://media.geocommons.com/platial/images/logotype_small.jpg\"></a>","id":"a65gq4dybuq4"},"type":"Feature","geometry":{"type":"Point","coordinates":[8.751717,45.28277]}},{"properties":{"name":"Plaquemine, LA","description":"Posted by Holtho<img src=\"http://media.geocommons.com/platial/images/categories/ICON_plain_pink_verD.gif\"> Plaquemine, LA<a title=\"Built for Community Mapping\" href=\"http://www.platial.com\"><img src=\"http://media.geocommons.com/platial/images/logotype_small.jpg\"></a>","id":"a65gq4dhwao1"},"type":"Feature","geometry":{"type":"Point","coordinates":[-91.23504,30.28902]}},{"properties":{"name":"Qingpu, China","description":"Posted by Holtho<img src=\"http://media.geocommons.com/platial/images/categories/ICON_nature_verD.gif\"> Qingpu, China<a title=\"Built for Community Mapping\" href=\"http://www.platial.com\"><img src=\"http://media.geocommons.com/platial/images/logotype_small.jpg\"></a>","id":"a65gq4anfg6j"},"type":"Feature","geometry":{"type":"Point","coordinates":[121.124397,31.149768]}},{"properties":{"name":"Rheinmunster, Germany","description":"Posted by Holtho<img src=\"http://media.geocommons.com/platial/images/categories/ICON_plain_pink_verD.gif\"> Rheinmunster, Germany<a title=\"Built for Community Mapping\" href=\"http://www.platial.com\"><img src=\"http://media.geocommons.com/platial/images/logotype_small.jpg\"></a>","id":"a65gq47pmi4b"},"type":"Feature","geometry":{"type":"Point","coordinates":[8.046176,48.746558]}},{"properties":{"name":"Rhineland Palatinate, Germany","description":"Posted by Holtho<img src=\"http://media.geocommons.com/platial/images/categories/ICON_plain_pink_verD.gif\"> Rhineland Palatinate, Germany<a title=\"Built for Community Mapping\" href=\"http://www.platial.com\"><img src=\"http://media.geocommons.com/platial/images/logotype_small.jpg\"></a>","id":"a65gq4a7hnjr"},"type":"Feature","geometry":{"type":"Point","coordinates":[7.308953,50.118346]}},{"properties":{"name":"Ringwood, IL","description":"Posted by Holtho<img src=\"http://media.geocommons.com/platial/images/categories/ICON_nature_verD.gif\"> Ringwood, IL<a title=\"Built for Community Mapping\" href=\"http://www.platial.com\"><img src=\"http://media.geocommons.com/platial/images/logotype_small.jpg\"></a>","id":"a65gq4agnh2k"},"type":"Feature","geometry":{"type":"Point","coordinates":[-88.311531,42.395295]}},{"properties":{"name":"Schkopau, Germany","description":"Posted by Holtho<img src=\"http://media.geocommons.com/platial/images/categories/ICON_shopping_verD.gif\"> Schkopau, Germany<a title=\"Built for Community Mapping\" href=\"http://www.platial.com\"><img src=\"http://media.geocommons.com/platial/images/logotype_small.jpg\"></a>","id":"a65gq45h26f6"},"type":"Feature","geometry":{"type":"Point","coordinates":[11.985279,51.389842]}},{"properties":{"name":"Soma, Japan","description":"Posted by Holtho<img src=\"http://media.geocommons.com/platial/images/categories/ICON_nature_verD.gif\"> Soma, Japan<a title=\"Built for Community Mapping\" href=\"http://www.platial.com\"><img src=\"http://media.geocommons.com/platial/images/logotype_small.jpg\"></a>","id":"a65gq450t4p2"},"type":"Feature","geometry":{"type":"Point","coordinates":[140.919448,37.796438]}},{"properties":{"name":"St. Charles, LA","description":"Posted by Holtho<img src=\"http://media.geocommons.com/platial/images/categories/ICON_plain_pink_verD.gif\"> St. Charles, LA<a title=\"Built for Community Mapping\" href=\"http://www.platial.com\"><img src=\"http://media.geocommons.com/platial/images/logotype_small.jpg\"></a>","id":"a65gq4hylak6"},"type":"Feature","geometry":{"type":"Point","coordinates":[-90.337189,29.927366]}},{"properties":{"name":"St. Louis, MO","description":"Posted by Holtho<img src=\"http://media.geocommons.com/platial/images/categories/ICON_plain_pink_verD.gif\"> St. Louis, MO<a title=\"Built for Community Mapping\" href=\"http://www.platial.com\"><img src=\"http://media.geocommons.com/platial/images/logotype_small.jpg\"></a>","id":"a65gq4ik4174"},"type":"Feature","geometry":{"type":"Point","coordinates":[-90.197778,38.627222]}},{"properties":{"name":"Stade, Germany","description":"Posted by Holtho<img src=\"http://media.geocommons.com/platial/images/categories/ICON_plain_pink_verD.gif\"> Stade, Germany<a title=\"Built for Community Mapping\" href=\"http://www.platial.com\"><img src=\"http://media.geocommons.com/platial/images/logotype_small.jpg\"></a>","id":"a65gq4b2mqi9"},"type":"Feature","geometry":{"type":"Point","coordinates":[9.473677,53.599013]}},{"properties":{"name":"Sterlington, LA","description":"Posted by Holtho<img src=\"http://media.geocommons.com/platial/images/categories/ICON_plain_pink_verD.gif\"> Sterlington, LA<a title=\"Built for Community Mapping\" href=\"http://www.platial.com\"><img src=\"http://media.geocommons.com/platial/images/logotype_small.jpg\"></a>","id":"a65gq443on65"},"type":"Feature","geometry":{"type":"Point","coordinates":[-92.069704,32.690819]}},{"properties":{"name":"Varennes, Quebec","description":"Posted by Holtho<img src=\"http://media.geocommons.com/platial/images/categories/ICON_health_verD.gif\"> Varennes, Quebec<a title=\"Built for Community Mapping\" href=\"http://www.platial.com\"><img src=\"http://media.geocommons.com/platial/images/logotype_small.jpg\"></a>","id":"a65gq4cyuvko"},"type":"Feature","geometry":{"type":"Point","coordinates":[-73.432032,45.686915]}},{"properties":{"name":"Weeks Island, LA","description":"Posted by Holtho<img src=\"http://media.geocommons.com/platial/images/categories/ICON_health_verD.gif\"> Weeks Island, LA<a title=\"Built for Community Mapping\" href=\"http://www.platial.com\"><img src=\"http://media.geocommons.com/platial/images/logotype_small.jpg\"></a>","id":"a65gq4fgunpt"},"type":"Feature","geometry":{"type":"Point","coordinates":[-91.784375,29.889493]}},{"properties":{"name":"West Alex","description":"Posted by Holtho<img src=\"http://media.geocommons.com/platial/images/categories/ICON_health_verD.gif\"> West Alexandria, OH<a title=\"Built for Community Mapping\" href=\"http://www.platial.com\"><img src=\"http://media.geocommons.com/platial/images/logotype_small.jpg\"></a>","id":"a65gq4iei0jg"},"type":"Feature","geometry":{"type":"Point","coordinates":[-84.532182,39.744433]}},{"properties":{"name":"West Hill, Ontario","description":"Posted by Holtho<img src=\"http://media.geocommons.com/platial/images/categories/ICON_shopping_verD.gif\"> West Hill, Ontario<a title=\"Built for Community Mapping\" href=\"http://www.platial.com\"><img src=\"http://media.geocommons.com/platial/images/logotype_small.jpg\"></a>","id":"a65gq4gzfxpx"},"type":"Feature","geometry":{"type":"Point","coordinates":[-80.564075,43.440802]}},{"properties":{"name":"Zwijndrecht, Belgium","description":"Posted by Holtho<img src=\"http://media.geocommons.com/platial/images/categories/ICON_plain_pink_verD.gif\"> Zwijndrecht, Belgium<a title=\"Built for Community Mapping\" href=\"http://www.platial.com\"><img src=\"http://media.geocommons.com/platial/images/logotype_small.jpg\"></a>","id":"a65gq4euckm9"},"type":"Feature","geometry":{"type":"Point","coordinates":[4.326376,51.219191]}}],"is_temporal":false,"author":{"url":"http://www.platial.com/map/729941","metadata":null,"contact_name":"holtho","contact_address":null,"source":"platial:holtho","contact_phone":null},"source":"http://www.platial.com/map/729941","pagination":{"sort":null,"start":0,"total":41,"limit":1000000},"state":"complete","tags":"platial,platial:id=729941,platial:user=holtho","published":"2010-03-03T17:00:00Z","id":30519}