{"type":"FeatureCollection","data_type":"Dataset","url_type":null,"permissions":[{"permissions":{"download":true,"view":true},"group_id":"everyone"}],"classification":null,"title":"\nRunning\n","count":39,"stream_id":30629,"contributor":{"url":"http://geocommons.com/users/11444","name":"platial"},"data_attributes":null,"calculation_params":null,"icon_link":null,"link":"http://geocommons.com/overlays/30629.json","extent":[-156.447,-40.8638,173.043,65.6563],"geometry_types":["point"],"unique_name":null,"name":"\nRunning\n","feature_count":39,"description":"\nA Map by Aheilner\n\nPlaces I've Run since 2005\n","next_feature":null,"is_raster":false,"short_classification":"Y","stats":{},"features":[{"properties":{"name":"Awaroa / Abel Tasman","description":"Posted by Aheilner<img src=\"http://media.geocommons.com/platial/images/categories/ICON_plain_pink_verD.gif\"> <a title=\"Built for Community Mapping\" href=\"http://www.platial.com\"><img src=\"http://media.geocommons.com/platial/images/logotype_small.jpg\"></a>","id":"a6od576c758q"},"type":"Feature","geometry":{"type":"Point","coordinates":[173.043175936,-40.8637648612]}},{"properties":{"name":"Baltimore - Druid Hill","description":"Posted by AheilnerBaltimore, MD<a title=\"Built for Community Mapping\" href=\"http://www.platial.com\"><img src=\"http://media.geocommons.com/platial/images/logotype_small.jpg\"></a>","id":"a6od577w9xfa"},"type":"Feature","geometry":{"type":"Point","coordinates":[-76.63496,39.319292]}},{"properties":{"name":"Berlin, Germany - Tiergarten","description":"Posted by AheilnerBerlin, Germany<a title=\"Built for Community Mapping\" href=\"http://www.platial.com\"><img src=\"http://media.geocommons.com/platial/images/logotype_small.jpg\"></a>","id":"a6od56ycdcfo"},"type":"Feature","geometry":{"type":"Point","coordinates":[13.376198,52.516273]}},{"properties":{"name":"Black Rock City - Burning Man","description":"Posted by AheilnerBlack Rock City, NV<a title=\"Built for Community Mapping\" href=\"http://www.platial.com\"><img src=\"http://media.geocommons.com/platial/images/logotype_small.jpg\"></a>","id":"a6od56vc4qmp"},"type":"Feature","geometry":{"type":"Point","coordinates":[-119.246206,40.760716]}},{"properties":{"name":"Brooklyn - Prospect Park","description":"Posted by Aheilner<img src=\"http://media.geocommons.com/platial/images/categories/ICON_nature_verD.gif\"> Brooklyn, New York<a title=\"Built for Community Mapping\" href=\"http://www.platial.com\"><img src=\"http://media.geocommons.com/platial/images/logotype_small.jpg\"></a>","id":"a6od573l97fm"},"type":"Feature","geometry":{"type":"Point","coordinates":[-73.969746,40.671069]}},{"properties":{"name":"Cairo - Hash Run","description":"Posted by Aheilner<img src=\"http://media.geocommons.com/platial/images/categories/ICON_plain_pink_verD.gif\"> <a title=\"Built for Community Mapping\" href=\"http://www.platial.com\"><img src=\"http://media.geocommons.com/platial/images/logotype_small.jpg\"></a>","id":"a6od56trt667"},"type":"Feature","geometry":{"type":"Point","coordinates":[31.5890622139,30.0147619962]}},{"properties":{"name":"Chicago","description":"Posted by AheilnerChicago, IL<a title=\"Built for Community Mapping\" href=\"http://www.platial.com\"><img src=\"http://media.geocommons.com/platial/images/logotype_small.jpg\"></a>","id":"a6od572c6dcr"},"type":"Feature","geometry":{"type":"Point","coordinates":[-87.618885,41.876655]}},{"properties":{"name":"Chofu City","description":"Posted by Aheilner<img src=\"http://media.geocommons.com/platial/images/categories/ICON_plain_pink_verD.gif\"> <a title=\"Built for Community Mapping\" href=\"http://www.platial.com\"><img src=\"http://media.geocommons.com/platial/images/logotype_small.jpg\"></a>","id":"a6od576ddqh2"},"type":"Feature","geometry":{"type":"Point","coordinates":[139.53915596,35.6412197912]}},{"properties":{"name":"Colorado Springs","description":"Posted by Aheilner1417 North Cascade Ave, Colorado Springs, CO<a title=\"Built for Community Mapping\" href=\"http://www.platial.com\"><img src=\"http://media.geocommons.com/platial/images/logotype_small.jpg\"></a>","id":"a6od572padbx"},"type":"Feature","geometry":{"type":"Point","coordinates":[-104.823855,38.853907]}},{"properties":{"name":"Denali National Park","description":"Posted by Aheilner<img src=\"http://media.geocommons.com/platial/images/categories/ICON_plain_pink_verD.gif\"> <img src=\"http://media.geocommons.com/platial/images/categories/ICON_nature_verD.gif\"> <a title=\"Built for Community Mapping\" href=\"http://www.platial.com\"><img src=\"http://media.geocommons.com/platial/images/logotype_small.jpg\"></a>","id":"a6od56tvydvc"},"type":"Feature","geometry":{"type":"Point","coordinates":[-148.894958496,63.7348204465]}},{"properties":{"name":"Essaouira, Morocco","description":"Posted by AheilnerEssaouira, Morocco<a title=\"Built for Community Mapping\" href=\"http://www.platial.com\"><img src=\"http://media.geocommons.com/platial/images/logotype_small.jpg\"></a>","id":"a6od56x2rjpc"},"type":"Feature","geometry":{"type":"Point","coordinates":[-9.769163,31.51263]}},{"properties":{"name":"Grand Canyon - South Rim","description":"Posted by AheilnerGrand Canyon, AZ<a title=\"Built for Community Mapping\" href=\"http://www.platial.com\"><img src=\"http://media.geocommons.com/platial/images/logotype_small.jpg\"></a>","id":"a6od573svu3h"},"type":"Feature","geometry":{"type":"Point","coordinates":[-112.136765,36.057842]}},{"properties":{"name":"Grinnell, IA","description":"Posted by Aheilner<img src=\"http://media.geocommons.com/platial/images/categories/ICON_plain_pink_verD.gif\"> <a title=\"Built for Community Mapping\" href=\"http://www.platial.com\"><img src=\"http://media.geocommons.com/platial/images/logotype_small.jpg\"></a>","id":"a6od56zq8env"},"type":"Feature","geometry":{"type":"Point","coordinates":[-92.7270555496,41.7462135367]}},{"properties":{"name":"Gun Lake, Michigan","description":"Posted by AheilnerHastings, MI<a title=\"Built for Community Mapping\" href=\"http://www.platial.com\"><img src=\"http://media.geocommons.com/platial/images/logotype_small.jpg\"></a>","id":"a6od56uy6dey"},"type":"Feature","geometry":{"type":"Point","coordinates":[-85.504189,42.604905]}},{"properties":{"name":"Home","description":"Posted by Aheilner<img src=\"http://media.geocommons.com/platial/images/categories/ICON_house_verD.gif\"> 548 Lincoln Place, Brooklyn, NY 11238Home<a title=\"Built for Community Mapping\" href=\"http://www.platial.com\"><img src=\"http://media.geocommons.com/platial/images/logotype_small.jpg\"></a>","id":"a6od56ypgcdn"},"type":"Feature","geometry":{"type":"Point","coordinates":[-73.958229,40.671657]}},{"properties":{"name":"Homer Spit","description":"Posted by Aheilner<img src=\"http://media.geocommons.com/platial/images/categories/ICON_plain_pink_verD.gif\"> <a title=\"Built for Community Mapping\" href=\"http://www.platial.com\"><img src=\"http://media.geocommons.com/platial/images/logotype_small.jpg\"></a>","id":"a6od571jjt4t"},"type":"Feature","geometry":{"type":"Point","coordinates":[-151.454236507,59.6180296293]}},{"properties":{"name":"Iceland - Lake Mytvn","description":"Posted by AheilnerIceland<a title=\"Built for Community Mapping\" href=\"http://www.platial.com\"><img src=\"http://media.geocommons.com/platial/images/logotype_small.jpg\"></a>","id":"a6od5724rflp"},"type":"Feature","geometry":{"type":"Point","coordinates":[-16.953278,65.656293]}},{"properties":{"name":"Leipzig","description":"Posted by Aheilner<img src=\"http://media.geocommons.com/platial/images/categories/ICON_lodging_verD.gif\"> <a title=\"Built for Community Mapping\" href=\"http://www.platial.com\"><img src=\"http://media.geocommons.com/platial/images/logotype_small.jpg\"></a>","id":"a6od56z5e5a1"},"type":"Feature","geometry":{"type":"Point","coordinates":[12.4030065536,51.3462284853]}},{"properties":{"name":"London - Thames Walk","description":"Posted by AheilnerLondon, England<a title=\"Built for Community Mapping\" href=\"http://www.platial.com\"><img src=\"http://media.geocommons.com/platial/images/logotype_small.jpg\"></a>","id":"a6od575o1ht7"},"type":"Feature","geometry":{"type":"Point","coordinates":[-0.099134,51.508475]}},{"properties":{"name":"London, Thames Walk","description":"Posted by AheilnerLondon, England<a title=\"Built for Community Mapping\" href=\"http://www.platial.com\"><img src=\"http://media.geocommons.com/platial/images/logotype_small.jpg\"></a>","id":"a6od56yyhe42"},"type":"Feature","geometry":{"type":"Point","coordinates":[-0.101795,51.508582]}},{"properties":{"name":"Los Angeles, CA - Downtown","description":"Posted by Aheilner<img src=\"http://media.geocommons.com/platial/images/categories/ICON_lodging_verD.gif\"> <a title=\"Built for Community Mapping\" href=\"http://www.platial.com\"><img src=\"http://media.geocommons.com/platial/images/logotype_small.jpg\"></a>","id":"a6od576n2sip"},"type":"Feature","geometry":{"type":"Point","coordinates":[-118.255076408,34.0547216653]}},{"properties":{"name":"Marrakech, Morocco","description":"Posted by AheilnerMarrakech, Morocco<a title=\"Built for Community Mapping\" href=\"http://www.platial.com\"><img src=\"http://media.geocommons.com/platial/images/logotype_small.jpg\"></a>","id":"a6od56t7qctd"},"type":"Feature","geometry":{"type":"Point","coordinates":[-7.993841,31.62671]}},{"properties":{"name":"Maui, HI","description":"Posted by Aheilner<img src=\"http://media.geocommons.com/platial/images/categories/ICON_plain_pink_verD.gif\"> <a title=\"Built for Community Mapping\" href=\"http://www.platial.com\"><img src=\"http://media.geocommons.com/platial/images/logotype_small.jpg\"></a>","id":"a6od56umccqw"},"type":"Feature","geometry":{"type":"Point","coordinates":[-156.446546316,20.7176493709]}},{"properties":{"name":"Mexico - Petit LaFitte","description":"Posted by Aheilner<img src=\"http://media.geocommons.com/platial/images/categories/ICON_lodging_verD.gif\"> <a title=\"Built for Community Mapping\" href=\"http://www.platial.com\"><img src=\"http://media.geocommons.com/platial/images/logotype_small.jpg\"></a>","id":"a6od576sbcpp"},"type":"Feature","geometry":{"type":"Point","coordinates":[-87.0316743851,20.6645997983]}},{"properties":{"name":"Miami Beach","description":"Posted by Aheilner<img src=\"http://media.geocommons.com/platial/images/categories/ICON_recreation_verD.gif\"> <img src=\"http://media.geocommons.com/platial/images/categories/ICON_nature_verD.gif\"> Miami, Florida<a title=\"Built for Community Mapping\" href=\"http://www.platial.com\"><img src=\"http://media.geocommons.com/platial/images/logotype_small.jpg\"></a>","id":"a6od5719kkh8"},"type":"Feature","geometry":{"type":"Point","coordinates":[-80.128098,25.785594]}},{"properties":{"name":"Munich - English Garden","description":"Posted by Aheilner<img src=\"http://media.geocommons.com/platial/images/categories/ICON_plain_pink_verD.gif\"> <a title=\"Built for Community Mapping\" href=\"http://www.platial.com\"><img src=\"http://media.geocommons.com/platial/images/logotype_small.jpg\"></a>","id":"a6od56rl9ph2"},"type":"Feature","geometry":{"type":"Point","coordinates":[11.5849113464,48.145357889]}},{"properties":{"name":"NCR Trail Marathon","description":"Posted by AheilnerBaltimore, MD<a title=\"Built for Community Mapping\" href=\"http://www.platial.com\"><img src=\"http://media.geocommons.com/platial/images/logotype_small.jpg\"></a>","id":"a6od56wb8q3l"},"type":"Feature","geometry":{"type":"Point","coordinates":[-76.662169,39.542308]}},{"properties":{"name":"Page, AZ","description":"Posted by AheilnerPage, AZ<a title=\"Built for Community Mapping\" href=\"http://www.platial.com\"><img src=\"http://media.geocommons.com/platial/images/logotype_small.jpg\"></a>","id":"a6od574zip5m"},"type":"Feature","geometry":{"type":"Point","coordinates":[-111.453123,36.936687]}},{"properties":{"name":"Paris - Left Bank","description":"Posted by AheilnerParis, France<a title=\"Built for Community Mapping\" href=\"http://www.platial.com\"><img src=\"http://media.geocommons.com/platial/images/logotype_small.jpg\"></a>","id":"a6od56xktxl4"},"type":"Feature","geometry":{"type":"Point","coordinates":[2.348671,48.850992]}},{"properties":{"name":"Paris, Left Bank","description":"Posted by AheilnerParis, France - Left Bank<a title=\"Built for Community Mapping\" href=\"http://www.platial.com\"><img src=\"http://media.geocommons.com/platial/images/logotype_small.jpg\"></a>","id":"a6od5717zzqq"},"type":"Feature","geometry":{"type":"Point","coordinates":[2.346439,48.849806]}},{"properties":{"name":"Philadelphia - Kelly Drive","description":"Posted by AheilnerPhiladelphia<a title=\"Built for Community Mapping\" href=\"http://www.platial.com\"><img src=\"http://media.geocommons.com/platial/images/logotype_small.jpg\"></a>","id":"a6od56zu8afk"},"type":"Feature","geometry":{"type":"Point","coordinates":[-75.189228,39.969951]}},{"properties":{"name":"Prenzlauer Berg","description":"Posted by Aheilner<img src=\"http://media.geocommons.com/platial/images/categories/ICON_plain_pink_verD.gif\"> <a title=\"Built for Community Mapping\" href=\"http://www.platial.com\"><img src=\"http://media.geocommons.com/platial/images/logotype_small.jpg\"></a>","id":"a6od577js4b1"},"type":"Feature","geometry":{"type":"Point","coordinates":[13.4173965454,52.5470003294]}},{"properties":{"name":"Princeton Tow Path","description":"Posted by Aheilnerprinceton, NJ<a title=\"Built for Community Mapping\" href=\"http://www.platial.com\"><img src=\"http://media.geocommons.com/platial/images/logotype_small.jpg\"></a>","id":"a6od56s71w0v"},"type":"Feature","geometry":{"type":"Point","coordinates":[-74.62914,40.343633]}},{"properties":{"name":"San Francisco, CA - Downtown to GG Bridge","description":"Posted by Aheilner<img src=\"http://media.geocommons.com/platial/images/categories/ICON_lodging_verD.gif\"> <a title=\"Built for Community Mapping\" href=\"http://www.platial.com\"><img src=\"http://media.geocommons.com/platial/images/logotype_small.jpg\"></a>","id":"a6od574xuy6l"},"type":"Feature","geometry":{"type":"Point","coordinates":[-122.408401966,37.7887851221]}},{"properties":{"name":"Santa Monica. CA","description":"Posted by Aheilner<img src=\"http://media.geocommons.com/platial/images/categories/ICON_nature_verD.gif\"> <a title=\"Built for Community Mapping\" href=\"http://www.platial.com\"><img src=\"http://media.geocommons.com/platial/images/logotype_small.jpg\"></a>","id":"a6od5703sg5c"},"type":"Feature","geometry":{"type":"Point","coordinates":[-118.496131897,34.0108704038]}},{"properties":{"name":"Smith Rock State Park, OR","description":"Posted by Aheilner<img src=\"http://media.geocommons.com/platial/images/categories/ICON_nature_verD.gif\"> Bend Oregon<a title=\"Built for Community Mapping\" href=\"http://www.platial.com\"><img src=\"http://media.geocommons.com/platial/images/logotype_small.jpg\"></a>","id":"a6od56ts8dv5"},"type":"Feature","geometry":{"type":"Point","coordinates":[-121.133881,44.35896]}},{"properties":{"name":"Treptower Park / Planterwald","description":"Posted by Aheilner<img src=\"http://media.geocommons.com/platial/images/categories/ICON_nature_verD.gif\"> <a title=\"Built for Community Mapping\" href=\"http://www.platial.com\"><img src=\"http://media.geocommons.com/platial/images/logotype_small.jpg\"></a>","id":"a6od56y9gch8"},"type":"Feature","geometry":{"type":"Point","coordinates":[13.4639167786,52.4903065842]}},{"properties":{"name":"Waldport, OR","description":"Posted by AheilnerNewport, OR<a title=\"Built for Community Mapping\" href=\"http://www.platial.com\"><img src=\"http://media.geocommons.com/platial/images/logotype_small.jpg\"></a>","id":"a6od574puj9c"},"type":"Feature","geometry":{"type":"Point","coordinates":[-124.080963,44.441869]}},{"properties":{"name":"Zion National Park","description":"Posted by Aheilner<img src=\"http://media.geocommons.com/platial/images/categories/ICON_nature_verD.gif\"> Springdale, UT<a title=\"Built for Community Mapping\" href=\"http://www.platial.com\"><img src=\"http://media.geocommons.com/platial/images/logotype_small.jpg\"></a>","id":"a6od57516pqq"},"type":"Feature","geometry":{"type":"Point","coordinates":[-112.938595,37.273097]}}],"is_temporal":false,"author":{"url":"http://www.platial.com/map/3956","metadata":null,"contact_name":"aheilner","contact_address":null,"source":"platial:aheilner","contact_phone":null},"source":"http://www.platial.com/map/3956","pagination":{"sort":null,"start":0,"total":39,"limit":1000000},"state":"complete","tags":"platial,platial:id=3956,platial:user=aheilner","published":"2010-03-03T17:00:00Z","id":30629}