{"type":"FeatureCollection","data_type":"Dataset","url_type":null,"permissions":[{"permissions":{"download":true,"view":true},"group_id":"everyone"}],"classification":null,"title":"pdistcs m","count":4647,"stream_id":306548,"contributor":{"url":"http://geocommons.com/users/57846","name":"pvedam"},"data_attributes":null,"calculation_params":null,"icon_link":null,"link":"http://geocommons.com/overlays/306548.json","extent":[-168.022,13.4443,144.786,66.8653],"geometry_types":["point"],"unique_name":null,"name":"pdistcs m","feature_count":4647,"description":"","next_feature":null,"is_raster":false,"short_classification":"Y","stats":{"10":{"max":9681,"mean":42.6946417043254,"variance":57036.3288197548,"stdev":238.822797948091,"median":7,"min":1}},"features":[{"properties":{"geo_score":0.714,"abbeville":"ABILENE","id":"aaussne4ox69","10":1,"geo_precision":"city","la":"KS"},"type":"Feature","geometry":{"type":"Point","coordinates":[-97.195283,38.9111]}},{"properties":{"geo_score":0.714,"abbeville":"ABITA SPRINGS","id":"aaussng0i0vj","10":1,"geo_precision":"city","la":"LA"},"type":"Feature","geometry":{"type":"Point","coordinates":[-89.955328,30.477483]}},{"properties":{"geo_score":0.714,"abbeville":"ACTON","id":"aaussn3s9ig6","10":3,"geo_precision":"city","la":"CA"},"type":"Feature","geometry":{"type":"Point","coordinates":[-118.298662,33.786594]}},{"properties":{"geo_score":0.714,"abbeville":"ACWORTH","id":"aaussn425tv0","10":92,"geo_precision":"city","la":"GA"},"type":"Feature","geometry":{"type":"Point","coordinates":[-84.673784,34.023398]}},{"properties":{"geo_score":0.714,"abbeville":"ADAIRSVILLE","id":"aaussndt6e0p","10":4,"geo_precision":"city","la":"GA"},"type":"Feature","geometry":{"type":"Point","coordinates":[-84.909216,34.296339]}},{"properties":{"geo_score":0.714,"abbeville":"ADAIRVILLE","id":"aaussnikykzo","10":4,"geo_precision":"city","la":"KY"},"type":"Feature","geometry":{"type":"Point","coordinates":[-86.860422,36.772851]}},{"properties":{"geo_score":0.714,"abbeville":"ADAMSVILLE","id":"aaussna7fj80","10":6,"geo_precision":"city","la":"AL"},"type":"Feature","geometry":{"type":"Point","coordinates":[-86.987228,33.578097]}},{"properties":{"geo_score":0.714,"abbeville":"ADDISON","id":"aaussn8gdv1u","10":1,"geo_precision":"city","la":"AL"},"type":"Feature","geometry":{"type":"Point","coordinates":[-87.358538,34.229897]}},{"properties":{"geo_score":0.714,"abbeville":"ADDISON","id":"aaussnex7mj4","10":48,"geo_precision":"city","la":"IL"},"type":"Feature","geometry":{"type":"Point","coordinates":[-88.022516,41.887579]}},{"properties":{"geo_score":0.714,"abbeville":"ADEL","id":"aaussni73lbv","10":41,"geo_precision":"city","la":"GA"},"type":"Feature","geometry":{"type":"Point","coordinates":[-83.407143,31.151742]}},{"properties":{"geo_score":0.714,"abbeville":"ADELANTO","id":"aaussn7pk25i","10":8,"geo_precision":"city","la":"CA"},"type":"Feature","geometry":{"type":"Point","coordinates":[-115.967051,34.839964]}},{"properties":{"geo_score":0.714,"abbeville":"ADGER","id":"aaussnipacgu","10":1,"geo_precision":"city","la":"AL"},"type":"Feature","geometry":{"type":"Point","coordinates":[-87.207592,33.437653]}},{"properties":{"geo_score":0.714,"abbeville":"ADOLPHUS","id":"aaussncn8mc8","10":12,"geo_precision":"city","la":"KY"},"type":"Feature","geometry":{"type":"Point","coordinates":[-86.17603,36.67931]}},{"properties":{"geo_score":0.714,"abbeville":"ADRIAN","id":"aaussncgff93","10":1,"geo_precision":"city","la":"GA"},"type":"Feature","geometry":{"type":"Point","coordinates":[-82.540305,32.56887]}},{"properties":{"geo_score":0.714,"abbeville":"AFTON","id":"aaussnaiw1vn","10":2,"geo_precision":"city","la":"IA"},"type":"Feature","geometry":{"type":"Point","coordinates":[-94.19714,41.033593]}},{"properties":{"geo_score":0.714,"abbeville":"AGAT","id":"aaussna3gwru","10":3,"geo_precision":"city","la":"GU"},"type":"Feature","geometry":{"type":"Point","coordinates":[144.786297,13.444257]}},{"properties":{"geo_score":0.714,"abbeville":"AGOURA HILLS","id":"aaussnhhde8x","10":11,"geo_precision":"city","la":"CA"},"type":"Feature","geometry":{"type":"Point","coordinates":[-118.298662,33.786594]}},{"properties":{"geo_score":0.714,"abbeville":"AGUILAR","id":"aaussnfyw1bt","10":2,"geo_precision":"city","la":"CO"},"type":"Feature","geometry":{"type":"Point","coordinates":[-104.653809,37.381577]}},{"properties":{"geo_score":0.714,"abbeville":"AIEA","id":"aaussnahe26z","10":13,"geo_precision":"city","la":"HI"},"type":"Feature","geometry":{"type":"Point","coordinates":[-157.927829,21.39065]}},{"properties":{"geo_score":0.714,"abbeville":"AILEY","id":"aaussndc3119","10":2,"geo_precision":"city","la":"GA"},"type":"Feature","geometry":{"type":"Point","coordinates":[-84.728819,33.099291]}},{"properties":{"geo_score":0.714,"abbeville":"AINSWORTH","id":"aaussngmixgb","10":1,"geo_precision":"city","la":"IA"},"type":"Feature","geometry":{"type":"Point","coordinates":[-91.581212,41.351113]}},{"properties":{"geo_score":0.714,"abbeville":"AKRON","id":"aaussnc7xt0d","10":6,"geo_precision":"city","la":"IN"},"type":"Feature","geometry":{"type":"Point","coordinates":[-86.069172,41.047932]}},{"properties":{"geo_score":0.714,"abbeville":"ALABASTER","id":"aaussngeoql9","10":34,"geo_precision":"city","la":"AL"},"type":"Feature","geometry":{"type":"Point","coordinates":[-86.794377,33.193415]}},{"properties":{"geo_score":0.714,"abbeville":"ALACHUA","id":"aaussn4em4q0","10":23,"geo_precision":"city","la":"FL"},"type":"Feature","geometry":{"type":"Point","coordinates":[-82.472049,29.813456]}},{"properties":{"geo_score":0.714,"abbeville":"ALAMEDA","id":"aaussnhl8hl3","10":150,"geo_precision":"city","la":"CA"},"type":"Feature","geometry":{"type":"Point","coordinates":[-122.264779,37.770563]}},{"properties":{"geo_score":0.714,"abbeville":"ALAMO","id":"aaussnatzb24","10":61,"geo_precision":"city","la":"CA"},"type":"Feature","geometry":{"type":"Point","coordinates":[-122.067431,37.936723]}},{"properties":{"geo_score":0.714,"abbeville":"ALAMOSA","id":"aaussne41qcm","10":16,"geo_precision":"city","la":"CO"},"type":"Feature","geometry":{"type":"Point","coordinates":[-105.790967,37.479933]}},{"properties":{"geo_score":0.714,"abbeville":"ALAPAHA","id":"aaussnap81sz","10":9,"geo_precision":"city","la":"GA"},"type":"Feature","geometry":{"type":"Point","coordinates":[-83.221348,31.383968]}},{"properties":{"geo_score":0.714,"abbeville":"ALBANY","id":"aaussn3t4gq9","10":31,"geo_precision":"city","la":"CA"},"type":"Feature","geometry":{"type":"Point","coordinates":[-123.393401,39.168027]}},{"properties":{"geo_score":0.714,"abbeville":"ALBANY","id":"aaussn2rax6w","10":63,"geo_precision":"city","la":"GA"},"type":"Feature","geometry":{"type":"Point","coordinates":[-84.176751,31.560674]}},{"properties":{"geo_score":0.714,"abbeville":"ALBANY","id":"aaussn3qnkru","10":1,"geo_precision":"city","la":"IL"},"type":"Feature","geometry":{"type":"Point","coordinates":[-88.064182,38.328816]}},{"properties":{"geo_score":0.714,"abbeville":"ALBANY","id":"aaussn9lhyit","10":11,"geo_precision":"city","la":"IN"},"type":"Feature","geometry":{"type":"Point","coordinates":[-85.413862,41.376028]}},{"properties":{"geo_score":0.714,"abbeville":"ALBANY","id":"aaussnev1u72","10":1,"geo_precision":"city","la":"KY"},"type":"Feature","geometry":{"type":"Point","coordinates":[-85.181967,36.745738]}},{"properties":{"geo_score":0.714,"abbeville":"ALBANY","id":"aaussne4i8ea","10":2,"geo_precision":"city","la":"LA"},"type":"Feature","geometry":{"type":"Point","coordinates":[-91.724248,29.936497]}},{"properties":{"geo_score":0.714,"abbeville":"ALBERS","id":"aaussn2j3pcg","10":1,"geo_precision":"city","la":"IL"},"type":"Feature","geometry":{"type":"Point","coordinates":[-89.627154,38.514316]}},{"properties":{"geo_score":0.714,"abbeville":"ALBERTVILLE","id":"aaussn3979xv","10":85,"geo_precision":"city","la":"AL"},"type":"Feature","geometry":{"type":"Point","coordinates":[-86.12578,31.277947]}},{"properties":{"geo_score":0.714,"abbeville":"ALBION","id":"aaussni32t1y","10":1,"geo_precision":"city","la":"IL"},"type":"Feature","geometry":{"type":"Point","coordinates":[-88.064182,38.328816]}},{"properties":{"geo_score":0.714,"abbeville":"ALBION","id":"aaussne7m8gu","10":52,"geo_precision":"city","la":"IN"},"type":"Feature","geometry":{"type":"Point","coordinates":[-85.413862,41.376028]}},{"properties":{"geo_score":0.714,"abbeville":"ALEDO","id":"aaussnhuhhuj","10":6,"geo_precision":"city","la":"IL"},"type":"Feature","geometry":{"type":"Point","coordinates":[-89.634265,40.81087]}},{"properties":{"geo_score":0.0,"abbeville":"ALEXANDER","id":"aaussne0pbsc","10":4,"geo_precision":"unmatched","la":"AR"},"type":"Feature","geometry":null},{"properties":{"geo_score":0.0,"abbeville":"ALEXANDER CITY","id":"aaussn5of88k","10":10,"geo_precision":"unmatched","la":"AL"},"type":"Feature","geometry":null},{"properties":{"geo_score":0.0,"abbeville":"ALEXANDRIA","id":"aaussn9659hf","10":33,"geo_precision":"unmatched","la":"AL"},"type":"Feature","geometry":null},{"properties":{"geo_score":0.0,"abbeville":"ALEXANDRIA","id":"aaussn6t0la2","10":19,"geo_precision":"unmatched","la":"IN"},"type":"Feature","geometry":null},{"properties":{"geo_score":0.0,"abbeville":"ALEXANDRIA","id":"aaussneaedte","10":11,"geo_precision":"unmatched","la":"KY"},"type":"Feature","geometry":null},{"properties":{"geo_score":0.0,"abbeville":"ALEXANDRIA","id":"aaussn9kp5qr","10":18,"geo_precision":"unmatched","la":"LA"},"type":"Feature","geometry":null},{"properties":{"geo_score":0.714,"abbeville":"ALFORD","id":"aaussnavxj9e","10":1,"geo_precision":"city","la":"FL"},"type":"Feature","geometry":{"type":"Point","coordinates":[-85.375585,30.641158]}},{"properties":{"geo_score":0.714,"abbeville":"ALGONQUIN","id":"aaussn8jw183","10":140,"geo_precision":"city","la":"IL"},"type":"Feature","geometry":{"type":"Point","coordinates":[-88.461937,42.280715]}},{"properties":{"geo_score":0.714,"abbeville":"ALHAMBRA","id":"aaussndqdoha","10":28,"geo_precision":"city","la":"CA"},"type":"Feature","geometry":{"type":"Point","coordinates":[-118.298662,33.786594]}},{"properties":{"geo_score":0.714,"abbeville":"ALHAMBRA","id":"aaussn51t5az","10":1,"geo_precision":"city","la":"IL"},"type":"Feature","geometry":{"type":"Point","coordinates":[-89.739366,38.882109]}},{"properties":{"geo_score":0.714,"abbeville":"ALISO VIEJO","id":"aaussnalnty7","10":177,"geo_precision":"city","la":"CA"},"type":"Feature","geometry":{"type":"Point","coordinates":[-117.751341,33.603459]}},{"properties":{"geo_score":0.714,"abbeville":"ALLENHURST","id":"aaussnajtx72","10":3,"geo_precision":"city","la":"GA"},"type":"Feature","geometry":{"type":"Point","coordinates":[-81.60385,31.779116]}},{"properties":{"geo_score":0.714,"abbeville":"ALLERTON","id":"aaussngdccmw","10":5,"geo_precision":"city","la":"IL"},"type":"Feature","geometry":{"type":"Point","coordinates":[-90.120109,38.589773]}},{"properties":{"geo_score":0.714,"abbeville":"ALMA","id":"aaussn88xlxe","10":42,"geo_precision":"city","la":"AR"},"type":"Feature","geometry":{"type":"Point","coordinates":[-94.193334,35.479157]}},{"properties":{"geo_score":0.714,"abbeville":"ALMA","id":"aaussn7bihtw","10":7,"geo_precision":"city","la":"GA"},"type":"Feature","geometry":{"type":"Point","coordinates":[-82.461197,31.576952]}},{"properties":{"geo_score":0.714,"abbeville":"ALMA","id":"aaussn6ejajp","10":3,"geo_precision":"city","la":"KS"},"type":"Feature","geometry":{"type":"Point","coordinates":[-96.204558,38.953556]}},{"properties":{"geo_score":0.714,"abbeville":"ALPENA","id":"aaussn8e9sin","10":1,"geo_precision":"city","la":"AR"},"type":"Feature","geometry":{"type":"Point","coordinates":[-93.252276,36.310814]}},{"properties":{"geo_score":0.714,"abbeville":"ALPHARETTA","id":"aaussnb65uar","10":618,"geo_precision":"city","la":"GA"},"type":"Feature","geometry":{"type":"Point","coordinates":[-83.92379,31.462401]}},{"properties":{"geo_score":0.714,"abbeville":"ALPINE","id":"aaussn8ekbup","10":1,"geo_precision":"city","la":"AL"},"type":"Feature","geometry":{"type":"Point","coordinates":[-86.233878,33.403969]}},{"properties":{"geo_score":0.714,"abbeville":"ALPINE","id":"aaussnb31u8h","10":19,"geo_precision":"city","la":"CA"},"type":"Feature","geometry":{"type":"Point","coordinates":[-116.976341,32.74081]}},{"properties":{"geo_score":0.714,"abbeville":"ALSIP","id":"aaussnbdhpr8","10":37,"geo_precision":"city","la":"IL"},"type":"Feature","geometry":{"type":"Point","coordinates":[-87.738662,41.668922]}},{"properties":{"geo_score":0.714,"abbeville":"ALTA","id":"aaussn560i4u","10":2,"geo_precision":"city","la":"IA"},"type":"Feature","geometry":{"type":"Point","coordinates":[-95.151121,42.735364]}},{"properties":{"geo_score":0.714,"abbeville":"ALTA VISTA","id":"aaussn7rjeyh","10":3,"geo_precision":"city","la":"IA"},"type":"Feature","geometry":{"type":"Point","coordinates":[-92.424719,43.13992]}},{"properties":{"geo_score":0.714,"abbeville":"ALTADENA","id":"aaussn738ahp","10":26,"geo_precision":"city","la":"CA"},"type":"Feature","geometry":{"type":"Point","coordinates":[-118.298662,33.786594]}},{"properties":{"geo_score":0.714,"abbeville":"ALTAMONTE SPRINGS","id":"aaussng0fvm3","10":94,"geo_precision":"city","la":"FL"},"type":"Feature","geometry":{"type":"Point","coordinates":[-84.327675,30.08076]}},{"properties":{"geo_score":0.714,"abbeville":"ALTAVILLE","id":"aaussnbggq35","10":6,"geo_precision":"city","la":"CA"},"type":"Feature","geometry":{"type":"Point","coordinates":[-120.535316,38.092294]}},{"properties":{"geo_score":0.714,"abbeville":"ALTO","id":"aaussn70hknm","10":8,"geo_precision":"city","la":"GA"},"type":"Feature","geometry":{"type":"Point","coordinates":[-83.594758,34.50429]}},{"properties":{"geo_score":0.714,"abbeville":"ALTON","id":"aaussnd7e3en","10":43,"geo_precision":"city","la":"IL"},"type":"Feature","geometry":{"type":"Point","coordinates":[-89.968862,38.929065]}},{"properties":{"geo_score":0.714,"abbeville":"ALTOONA","id":"aaussnhs1kgd","10":6,"geo_precision":"city","la":"AL"},"type":"Feature","geometry":{"type":"Point","coordinates":[-86.209599,34.07097]}},{"properties":{"geo_score":0.714,"abbeville":"ALTOONA","id":"aaussndhlshq","10":1,"geo_precision":"city","la":"FL"},"type":"Feature","geometry":{"type":"Point","coordinates":[-83.137912,30.053002]}},{"properties":{"geo_score":0.714,"abbeville":"ALTOONA","id":"aaussnflc4ek","10":5,"geo_precision":"city","la":"IA"},"type":"Feature","geometry":{"type":"Point","coordinates":[-93.4685,41.65097]}},{"properties":{"geo_score":0.714,"abbeville":"ALVA","id":"aaussn8airje","10":9,"geo_precision":"city","la":"FL"},"type":"Feature","geometry":{"type":"Point","coordinates":[-81.6815,26.595182]}},{"properties":{"geo_score":0.714,"abbeville":"ALVATON","id":"aaussnfkgzia","10":4,"geo_precision":"city","la":"KY"},"type":"Feature","geometry":{"type":"Point","coordinates":[-86.348542,36.866699]}},{"properties":{"geo_score":0.714,"abbeville":"ALVIN","id":"aaussncj04p3","10":1,"geo_precision":"city","la":"IL"},"type":"Feature","geometry":{"type":"Point","coordinates":[-87.632675,40.285456]}},{"properties":{"geo_score":0.714,"abbeville":"ALVISO","id":"aaussndnmy84","10":2,"geo_precision":"city","la":"CA"},"type":"Feature","geometry":{"type":"Point","coordinates":[-121.705327,37.189396]}},{"properties":{"geo_score":0.714,"abbeville":"AMADO","id":"aaussn4of7ic","10":2,"geo_precision":"city","la":"AZ"},"type":"Feature","geometry":{"type":"Point","coordinates":[-111.064536,31.707866]}},{"properties":{"geo_score":0.714,"abbeville":"AMBIA","id":"aaussn2e3ar9","10":9,"geo_precision":"city","la":"IN"},"type":"Feature","geometry":{"type":"Point","coordinates":[-87.499343,40.527877]}},{"properties":{"geo_score":0.714,"abbeville":"AMBOY","id":"aaussnfehffn","10":1,"geo_precision":"city","la":"IN"},"type":"Feature","geometry":{"type":"Point","coordinates":[-87.499343,40.527877]}},{"properties":{"geo_score":0.714,"abbeville":"AMBROSE","id":"aaussnaxn6ut","10":5,"geo_precision":"city","la":"GA"},"type":"Feature","geometry":{"type":"Point","coordinates":[-82.987305,31.549597]}},{"properties":{"geo_score":0.714,"abbeville":"AMERICAN CANYON","id":"aaussn6obcdv","10":11,"geo_precision":"city","la":"CA"},"type":"Feature","geometry":{"type":"Point","coordinates":[-122.258529,38.17727]}},{"properties":{"geo_score":0.714,"abbeville":"AMERICAN FALLS","id":"aaussngam3zo","10":1,"geo_precision":"city","la":"ID"},"type":"Feature","geometry":{"type":"Point","coordinates":[-112.945777,42.635233]}},{"properties":{"geo_score":0.714,"abbeville":"AMERICUS","id":"aaussn69ehj1","10":67,"geo_precision":"city","la":"GA"},"type":"Feature","geometry":{"type":"Point","coordinates":[-84.215282,32.040432]}},{"properties":{"geo_score":0.714,"abbeville":"AMERICUS","id":"aaussna5w6k1","10":2,"geo_precision":"city","la":"KS"},"type":"Feature","geometry":{"type":"Point","coordinates":[-96.261884,38.556174]}},{"properties":{"geo_score":0.714,"abbeville":"AMES","id":"aaussnfs7k2y","10":21,"geo_precision":"city","la":"IA"},"type":"Feature","geometry":{"type":"Point","coordinates":[-93.600254,42.037879]}},{"properties":{"geo_score":0.714,"abbeville":"AMITE","id":"aaussn97lvv8","10":4,"geo_precision":"city","la":"LA"},"type":"Feature","geometry":{"type":"Point","coordinates":[-90.41058,30.74483]}},{"properties":{"geo_score":0.714,"abbeville":"AMSTON","id":"aaussn40tgwc","10":6,"geo_precision":"city","la":"CT"},"type":"Feature","geometry":{"type":"Point","coordinates":[-72.3728,41.626377]}},{"properties":{"geo_score":0.714,"abbeville":"ANAHEIM","id":"aaussnfr2qzs","10":204,"geo_precision":"city","la":"CA"},"type":"Feature","geometry":{"type":"Point","coordinates":[-117.769442,33.640302]}},{"properties":{"geo_score":0.714,"abbeville":"ANAMOSA","id":"aaussngd1sdd","10":3,"geo_precision":"city","la":"IA"},"type":"Feature","geometry":{"type":"Point","coordinates":[-91.240145,42.10352]}},{"properties":{"geo_score":0.714,"abbeville":"ANCHOR POINT","id":"aaussn988o8a","10":1,"geo_precision":"city","la":"AK"},"type":"Feature","geometry":{"type":"Point","coordinates":[-151.70781,59.837116]}},{"properties":{"geo_score":0.714,"abbeville":"ANCHORAGE","id":"aaussn425cjt","10":532,"geo_precision":"city","la":"AK"},"type":"Feature","geometry":{"type":"Point","coordinates":[-149.486981,61.287624]}},{"properties":{"geo_score":0.714,"abbeville":"ANDALUSIA","id":"aaussnb93y0y","10":5,"geo_precision":"city","la":"AL"},"type":"Feature","geometry":{"type":"Point","coordinates":[-86.386398,31.304166]}},{"properties":{"geo_score":0.714,"abbeville":"ANDALUSIA","id":"aaussn9xpjem","10":5,"geo_precision":"city","la":"IL"},"type":"Feature","geometry":{"type":"Point","coordinates":[-90.742806,41.440131]}},{"properties":{"geo_score":0.714,"abbeville":"ANDERSON","id":"aaussn2ffvxy","10":5,"geo_precision":"city","la":"AL"},"type":"Feature","geometry":{"type":"Point","coordinates":[-87.273375,34.942388]}},{"properties":{"geo_score":0.714,"abbeville":"ANDERSON","id":"aaussn57kdjq","10":11,"geo_precision":"city","la":"CA"},"type":"Feature","geometry":{"type":"Point","coordinates":[-122.278404,40.469324]}},{"properties":{"geo_score":0.714,"abbeville":"ANDERSON","id":"aaussne25gkm","10":132,"geo_precision":"city","la":"IN"},"type":"Feature","geometry":{"type":"Point","coordinates":[-85.288854,39.497549]}},{"properties":{"geo_score":0.714,"abbeville":"ANDERSONVILLE","id":"aaussn30l99g","10":2,"geo_precision":"city","la":"GA"},"type":"Feature","geometry":{"type":"Point","coordinates":[-83.854621,31.371571]}},{"properties":{"geo_score":0.714,"abbeville":"ANDOVER","id":"aaussn9xjv4d","10":1,"geo_precision":"city","la":"CT"},"type":"Feature","geometry":{"type":"Point","coordinates":[-72.374634,41.731847]}},{"properties":{"geo_score":0.714,"abbeville":"ANDOVER","id":"aaussnbwnlkn","10":17,"geo_precision":"city","la":"KS"},"type":"Feature","geometry":{"type":"Point","coordinates":[-97.098431,37.701532]}},{"properties":{"geo_score":0.714,"abbeville":"ANDREWS","id":"aaussncb1mzq","10":5,"geo_precision":"city","la":"IN"},"type":"Feature","geometry":{"type":"Point","coordinates":[-85.288854,39.497549]}},{"properties":{"geo_score":0.714,"abbeville":"ANGELS CAMP","id":"aaussng5g8cr","10":16,"geo_precision":"city","la":"CA"},"type":"Feature","geometry":{"type":"Point","coordinates":[-120.618608,38.052816]}},{"properties":{"geo_score":0.714,"abbeville":"ANGIE","id":"aaussnets38h","10":2,"geo_precision":"city","la":"LA"},"type":"Feature","geometry":{"type":"Point","coordinates":[-89.882844,30.915579]}},{"properties":{"geo_score":0.714,"abbeville":"ANGOLA","id":"aaussnc5qpdb","10":33,"geo_precision":"city","la":"IN"},"type":"Feature","geometry":{"type":"Point","coordinates":[-85.000474,41.672567]}},{"properties":{"geo_score":0.714,"abbeville":"ANITA","id":"aaussn2kg65q","10":2,"geo_precision":"city","la":"IA"},"type":"Feature","geometry":{"type":"Point","coordinates":[-94.813882,41.390677]}},{"properties":{"geo_score":0.714,"abbeville":"ANKENY","id":"aaussndbbq8i","10":49,"geo_precision":"city","la":"IA"},"type":"Feature","geometry":{"type":"Point","coordinates":[-93.572173,41.672687]}},{"properties":{"geo_score":0.714,"abbeville":"ANNA","id":"aaussnf7cjlp","10":2,"geo_precision":"city","la":"IL"},"type":"Feature","geometry":{"type":"Point","coordinates":[-89.800112,41.786697]}},{"properties":{"geo_score":0.714,"abbeville":"ANNA MARIA","id":"aaussng4i4w6","10":2,"geo_precision":"city","la":"FL"},"type":"Feature","geometry":{"type":"Point","coordinates":[-82.731722,27.529113]}},{"properties":{"geo_score":0.714,"abbeville":"ANNISTON","id":"aaussnesvzbw","10":210,"geo_precision":"city","la":"AL"},"type":"Feature","geometry":{"type":"Point","coordinates":[-85.792328,33.759768]}},{"properties":{"geo_score":0.714,"abbeville":"ANSONIA","id":"aaussn6qhfzu","10":9,"geo_precision":"city","la":"CT"},"type":"Feature","geometry":{"type":"Point","coordinates":[-73.070301,41.342514]}},{"properties":{"geo_score":0.714,"abbeville":"ANTELOPE","id":"aaussnfoslzq","10":25,"geo_precision":"city","la":"CA"},"type":"Feature","geometry":{"type":"Point","coordinates":[-117.969235,34.579991]}},{"properties":{"geo_score":0.714,"abbeville":"ANTHONY","id":"aaussndzxaj2","10":2,"geo_precision":"city","la":"FL"},"type":"Feature","geometry":{"type":"Point","coordinates":[-82.082367,29.337795]}},{"properties":{"geo_score":0.714,"abbeville":"ANTHONY","id":"aaussn4epc5d","10":4,"geo_precision":"city","la":"KS"},"type":"Feature","geometry":{"type":"Point","coordinates":[-98.048121,37.111488]}},{"properties":{"geo_score":0.714,"abbeville":"ANTIOCH","id":"aaussn4qbh8q","10":101,"geo_precision":"city","la":"CA"},"type":"Feature","geometry":{"type":"Point","coordinates":[-121.906748,37.931997]}},{"properties":{"geo_score":0.714,"abbeville":"ANTIOCH","id":"aaussn8grz7e","10":49,"geo_precision":"city","la":"IL"},"type":"Feature","geometry":{"type":"Point","coordinates":[-88.075733,42.451419]}},{"properties":{"geo_score":0.714,"abbeville":"ANTOINE","id":"aaussngvsdtb","10":1,"geo_precision":"city","la":"AR"},"type":"Feature","geometry":{"type":"Point","coordinates":[-93.653733,34.146678]}},{"properties":{"geo_score":0.714,"abbeville":"APACHE JUNCTION","id":"aaussn4uy597","10":29,"geo_precision":"city","la":"AZ"},"type":"Feature","geometry":{"type":"Point","coordinates":[-111.478975,33.393398]}},{"properties":{"geo_score":0.714,"abbeville":"APLINGTON","id":"aaussn33bnzw","10":2,"geo_precision":"city","la":"IA"},"type":"Feature","geometry":{"type":"Point","coordinates":[-92.895287,42.657249]}},{"properties":{"geo_score":0.0,"abbeville":"APO","id":"aaussnccb8b2","10":40,"geo_precision":"unmatched","la":"AE"},"type":"Feature","geometry":null},{"properties":{"geo_score":0.0,"abbeville":"APO","id":"aaussnifao1o","10":1,"geo_precision":"unmatched","la":"AP"},"type":"Feature","geometry":null},{"properties":{"geo_score":0.714,"abbeville":"APOLLO BEACH","id":"aaussnb41ran","10":44,"geo_precision":"city","la":"FL"},"type":"Feature","geometry":{"type":"Point","coordinates":[-82.331983,27.84579]}},{"properties":{"geo_score":0.714,"abbeville":"APOPKA","id":"aaussn2gn2v9","10":78,"geo_precision":"city","la":"FL"},"type":"Feature","geometry":{"type":"Point","coordinates":[-81.488843,28.635425]}},{"properties":{"geo_score":0.714,"abbeville":"APPLE RIVER","id":"aaussn5kzskd","10":15,"geo_precision":"city","la":"IL"},"type":"Feature","geometry":{"type":"Point","coordinates":[-90.118471,42.454161]}},{"properties":{"geo_score":0.714,"abbeville":"APPLE VALLEY","id":"aaussn4hpnbf","10":35,"geo_precision":"city","la":"CA"},"type":"Feature","geometry":{"type":"Point","coordinates":[-115.967051,34.839964]}},{"properties":{"geo_score":0.714,"abbeville":"APPLEGATE","id":"aaussn4ni3ra","10":4,"geo_precision":"city","la":"CA"},"type":"Feature","geometry":{"type":"Point","coordinates":[-120.994598,38.998186]}},{"properties":{"geo_score":0.714,"abbeville":"APPLING","id":"aaussneoovo3","10":1,"geo_precision":"city","la":"GA"},"type":"Feature","geometry":{"type":"Point","coordinates":[-82.312058,33.573999]}},{"properties":{"geo_score":0.714,"abbeville":"APTOS","id":"aaussn2tdec1","10":20,"geo_precision":"city","la":"CA"},"type":"Feature","geometry":{"type":"Point","coordinates":[-121.949418,37.05297]}},{"properties":{"geo_score":0.714,"abbeville":"ARAB","id":"aaussn96cj4d","10":30,"geo_precision":"city","la":"AL"},"type":"Feature","geometry":{"type":"Point","coordinates":[-86.365403,34.393855]}},{"properties":{"geo_score":0.714,"abbeville":"ARABI","id":"aaussn66vf8o","10":1,"geo_precision":"city","la":"GA"},"type":"Feature","geometry":{"type":"Point","coordinates":[-83.7277,31.849613]}},{"properties":{"geo_score":0.714,"abbeville":"ARABI","id":"aaussne6xj00","10":1,"geo_precision":"city","la":"LA"},"type":"Feature","geometry":{"type":"Point","coordinates":[-89.987547,29.956803]}},{"properties":{"geo_score":0.714,"abbeville":"ARAGON","id":"aaussniisafp","10":6,"geo_precision":"city","la":"GA"},"type":"Feature","geometry":{"type":"Point","coordinates":[-85.079865,34.053167]}},{"properties":{"geo_score":0.0,"abbeville":"ARBUCKLE","id":"aaussn8jx6vs","10":1,"geo_precision":"unmatched","la":"CA"},"type":"Feature","geometry":null},{"properties":{"geo_score":0.714,"abbeville":"ARCADIA","id":"aaussnhkj1it","10":57,"geo_precision":"city","la":"CA"},"type":"Feature","geometry":{"type":"Point","coordinates":[-121.383092,38.610452]}},{"properties":{"geo_score":0.714,"abbeville":"ARCADIA","id":"aaussnacbfns","10":30,"geo_precision":"city","la":"FL"},"type":"Feature","geometry":{"type":"Point","coordinates":[-81.858416,27.215883]}},{"properties":{"geo_score":0.714,"abbeville":"ARCADIA","id":"aaussn8e7xk9","10":9,"geo_precision":"city","la":"IN"},"type":"Feature","geometry":{"type":"Point","coordinates":[-86.045789,40.167756]}},{"properties":{"geo_score":0.714,"abbeville":"ARCADIA","id":"aaussn48bqbo","10":2,"geo_precision":"city","la":"LA"},"type":"Feature","geometry":{"type":"Point","coordinates":[-92.970592,32.376273]}},{"properties":{"geo_score":0.714,"abbeville":"ARCATA","id":"aaussn81haox","10":3,"geo_precision":"city","la":"CA"},"type":"Feature","geometry":{"type":"Point","coordinates":[-121.383092,38.610452]}},{"properties":{"geo_score":0.714,"abbeville":"ARCHER","id":"aaussn6d09kb","10":3,"geo_precision":"city","la":"FL"},"type":"Feature","geometry":{"type":"Point","coordinates":[-82.506445,29.569316]}},{"properties":{"geo_score":0.714,"abbeville":"ARCOLA","id":"aaussn99tp2c","10":23,"geo_precision":"city","la":"IL"},"type":"Feature","geometry":{"type":"Point","coordinates":[-88.305182,39.725828]}},{"properties":{"geo_score":0.714,"abbeville":"ARDMORE","id":"aaussn41kykf","10":3,"geo_precision":"city","la":"AL"},"type":"Feature","geometry":{"type":"Point","coordinates":[-86.844257,34.961697]}},{"properties":{"geo_score":0.714,"abbeville":"ARENZVILLE","id":"aaussnard1ep","10":1,"geo_precision":"city","la":"IL"},"type":"Feature","geometry":{"type":"Point","coordinates":[-90.370736,39.913938]}},{"properties":{"geo_score":0.714,"abbeville":"ARGENTA","id":"aaussnb3t3zz","10":7,"geo_precision":"city","la":"IL"},"type":"Feature","geometry":{"type":"Point","coordinates":[-88.848695,39.965322]}},{"properties":{"geo_score":0.714,"abbeville":"ARGOS","id":"aaussn7l64qg","10":7,"geo_precision":"city","la":"IN"},"type":"Feature","geometry":{"type":"Point","coordinates":[-86.248052,41.242669]}},{"properties":{"geo_score":0.714,"abbeville":"ARITON","id":"aaussn9ijf40","10":3,"geo_precision":"city","la":"AL"},"type":"Feature","geometry":{"type":"Point","coordinates":[-85.633907,31.455485]}},{"properties":{"geo_score":0.714,"abbeville":"ARIZONA CITY","id":"aaussndudcop","10":4,"geo_precision":"city","la":"AZ"},"type":"Feature","geometry":{"type":"Point","coordinates":[-109.958958,31.916752]}},{"properties":{"geo_score":0.714,"abbeville":"ARKADELPHIA","id":"aaussngyoaur","10":3,"geo_precision":"city","la":"AR"},"type":"Feature","geometry":{"type":"Point","coordinates":[-93.111452,34.031343]}},{"properties":{"geo_score":0.714,"abbeville":"ARKANSAS CITY","id":"aaussna01z65","10":4,"geo_precision":"city","la":"KS"},"type":"Feature","geometry":{"type":"Point","coordinates":[-96.904215,37.149582]}},{"properties":{"geo_score":0.714,"abbeville":"ARLEY","id":"aaussn8gctro","10":1,"geo_precision":"city","la":"AL"},"type":"Feature","geometry":{"type":"Point","coordinates":[-87.188237,34.095345]}},{"properties":{"geo_score":0.714,"abbeville":"ARLINGTON","id":"aaussnh5rlrx","10":3,"geo_precision":"city","la":"AZ"},"type":"Feature","geometry":{"type":"Point","coordinates":[-112.18717,33.276539]}},{"properties":{"geo_score":0.714,"abbeville":"ARLINGTON","id":"aaussnc7gfbb","10":9,"geo_precision":"city","la":"GA"},"type":"Feature","geometry":{"type":"Point","coordinates":[-84.699156,31.47718]}},{"properties":{"geo_score":0.714,"abbeville":"ARLINGTON","id":"aaussn7fq1mm","10":6,"geo_precision":"city","la":"IN"},"type":"Feature","geometry":{"type":"Point","coordinates":[-85.590869,39.663342]}},{"properties":{"geo_score":0.714,"abbeville":"ARLINGTON","id":"aaussn8197lf","10":1,"geo_precision":"city","la":"KS"},"type":"Feature","geometry":{"type":"Point","coordinates":[-98.196898,37.829877]}},{"properties":{"geo_score":0.714,"abbeville":"ARLINGTON HEIGHTS","id":"aaussnemkoeo","10":615,"geo_precision":"city","la":"IL"},"type":"Feature","geometry":{"type":"Point","coordinates":[-89.240006,41.43043]}},{"properties":{"geo_score":0.714,"abbeville":"ARMINGTON","id":"aaussnax1r5z","10":1,"geo_precision":"city","la":"IL"},"type":"Feature","geometry":{"type":"Point","coordinates":[-89.323143,40.36129]}},{"properties":{"geo_score":0.714,"abbeville":"ARMONA","id":"aaussnim0xcz","10":5,"geo_precision":"city","la":"CA"},"type":"Feature","geometry":{"type":"Point","coordinates":[-119.704594,36.316529]}},{"properties":{"geo_score":0.714,"abbeville":"ARMSTRONG","id":"aaussn6rf24s","10":7,"geo_precision":"city","la":"IL"},"type":"Feature","geometry":{"type":"Point","coordinates":[-87.874221,40.258038]}},{"properties":{"geo_score":0.714,"abbeville":"ARMUCHEE","id":"aaussn6z2n93","10":3,"geo_precision":"city","la":"GA"},"type":"Feature","geometry":{"type":"Point","coordinates":[-85.149208,34.479253]}},{"properties":{"geo_score":0.714,"abbeville":"ARNAUDVILLE","id":"aaussncg6ece","10":3,"geo_precision":"city","la":"LA"},"type":"Feature","geometry":{"type":"Point","coordinates":[-91.967292,30.474902]}},{"properties":{"geo_score":0.714,"abbeville":"ARNOLD","id":"aaussn5yxupl","10":2,"geo_precision":"city","la":"CA"},"type":"Feature","geometry":{"type":"Point","coordinates":[-117.278929,33.893629]}},{"properties":{"geo_score":0.714,"abbeville":"ARNOLDS PARK","id":"aaussncew1i1","10":1,"geo_precision":"city","la":"IA"},"type":"Feature","geometry":{"type":"Point","coordinates":[-95.24015,43.377945]}},{"properties":{"geo_score":0.714,"abbeville":"ARNOLDSVILLE","id":"aaussngg6rie","10":4,"geo_precision":"city","la":"GA"},"type":"Feature","geometry":{"type":"Point","coordinates":[-83.222254,33.888662]}},{"properties":{"geo_score":0.714,"abbeville":"ARROWSMITH","id":"aaussn8v7jzz","10":1,"geo_precision":"city","la":"IL"},"type":"Feature","geometry":{"type":"Point","coordinates":[-88.632584,40.447857]}},{"properties":{"geo_score":0.714,"abbeville":"ARROYO GRANDE","id":"aaussn8he5to","10":18,"geo_precision":"city","la":"CA"},"type":"Feature","geometry":{"type":"Point","coordinates":[-122.46953,41.63468]}},{"properties":{"geo_score":0.714,"abbeville":"ARTESIA","id":"aaussncrwa77","10":7,"geo_precision":"city","la":"CA"},"type":"Feature","geometry":{"type":"Point","coordinates":[-118.073148,33.865395]}},{"properties":{"geo_score":0.714,"abbeville":"ARTHUR","id":"aaussnf6gjwp","10":5,"geo_precision":"city","la":"IL"},"type":"Feature","geometry":{"type":"Point","coordinates":[-88.249344,39.728925]}},{"properties":{"geo_score":0.714,"abbeville":"ARVADA","id":"aaussncp4nex","10":198,"geo_precision":"city","la":"CO"},"type":"Feature","geometry":{"type":"Point","coordinates":[-105.223945,39.522014]}},{"properties":{"geo_score":0.714,"abbeville":"ASH FORK","id":"aaussn80u3q3","10":3,"geo_precision":"city","la":"AZ"},"type":"Feature","geometry":{"type":"Point","coordinates":[-112.263974,34.970209]}},{"properties":{"geo_score":0.714,"abbeville":"ASHBURN","id":"aaussn7r0eos","10":3,"geo_precision":"city","la":"GA"},"type":"Feature","geometry":{"type":"Point","coordinates":[-83.644063,31.723074]}},{"properties":{"geo_score":0.714,"abbeville":"ASHDOWN","id":"aaussnbhyb8w","10":34,"geo_precision":"city","la":"AR"},"type":"Feature","geometry":{"type":"Point","coordinates":[-91.339282,33.312895]}},{"properties":{"geo_score":0.714,"abbeville":"ASHFORD","id":"aaussn6hc3gk","10":2,"geo_precision":"city","la":"AL"},"type":"Feature","geometry":{"type":"Point","coordinates":[-85.262314,31.189627]}},{"properties":{"geo_score":0.714,"abbeville":"ASHLAND","id":"aaussn9aorpr","10":13,"geo_precision":"city","la":"KY"},"type":"Feature","geometry":{"type":"Point","coordinates":[-82.693914,38.43296]}},{"properties":{"geo_score":0.714,"abbeville":"ASHLEY","id":"aaussng5qt4q","10":9,"geo_precision":"city","la":"IN"},"type":"Feature","geometry":{"type":"Point","coordinates":[-85.071275,41.501455]}},{"properties":{"geo_score":0.714,"abbeville":"ASHVILLE","id":"aaussnfqfil8","10":13,"geo_precision":"city","la":"AL"},"type":"Feature","geometry":{"type":"Point","coordinates":[-86.216884,33.785173]}},{"properties":{"geo_score":0.714,"abbeville":"ASSARIA","id":"aaussnegv391","10":1,"geo_precision":"city","la":"KS"},"type":"Feature","geometry":{"type":"Point","coordinates":[-97.59426,38.688891]}},{"properties":{"geo_score":0.714,"abbeville":"ASSUMPTION","id":"aaussn2x4o2b","10":2,"geo_precision":"city","la":"IL"},"type":"Feature","geometry":{"type":"Point","coordinates":[-89.249643,39.527214]}},{"properties":{"geo_score":0.714,"abbeville":"ATASCADERO","id":"aaussneqe5tl","10":33,"geo_precision":"city","la":"CA"},"type":"Feature","geometry":{"type":"Point","coordinates":[-120.712459,35.464793]}},{"properties":{"geo_score":0.714,"abbeville":"ATCHISON","id":"aaussncndiam","10":5,"geo_precision":"city","la":"KS"},"type":"Feature","geometry":{"type":"Point","coordinates":[-95.225098,39.535948]}},{"properties":{"geo_score":0.714,"abbeville":"ATHENS","id":"aaussnfrrod4","10":56,"geo_precision":"city","la":"AL"},"type":"Feature","geometry":{"type":"Point","coordinates":[-87.103488,34.764976]}},{"properties":{"geo_score":0.714,"abbeville":"ATHENS","id":"aaussn97qtm3","10":70,"geo_precision":"city","la":"GA"},"type":"Feature","geometry":{"type":"Point","coordinates":[-83.353697,33.992902]}},{"properties":{"geo_score":0.714,"abbeville":"ATHENS","id":"aaussn5u8grp","10":18,"geo_precision":"city","la":"IL"},"type":"Feature","geometry":{"type":"Point","coordinates":[-89.683294,39.950205]}},{"properties":{"geo_score":0.714,"abbeville":"ATHENS","id":"aaussnfe74p8","10":1,"geo_precision":"city","la":"LA"},"type":"Feature","geometry":{"type":"Point","coordinates":[-93.033603,32.68552]}},{"properties":{"geo_score":0.714,"abbeville":"ATHERTON","id":"aaussnc7xo5y","10":8,"geo_precision":"city","la":"CA"},"type":"Feature","geometry":{"type":"Point","coordinates":[-122.199439,37.450627]}},{"properties":{"geo_score":0.714,"abbeville":"ATHOL","id":"aaussn4vmj3m","10":24,"geo_precision":"city","la":"ID"},"type":"Feature","geometry":{"type":"Point","coordinates":[-116.686007,47.922361]}},{"properties":{"geo_score":0.714,"abbeville":"ATKINS","id":"aaussn8h6l4g","10":2,"geo_precision":"city","la":"IA"},"type":"Feature","geometry":{"type":"Point","coordinates":[-92.058526,42.057516]}},{"properties":{"geo_score":0.714,"abbeville":"ATLANTA","id":"aaussn7wy5n9","10":892,"geo_precision":"city","la":"GA"},"type":"Feature","geometry":{"type":"Point","coordinates":[-84.47405,33.844371]}},{"properties":{"geo_score":0.714,"abbeville":"ATLANTA","id":"aaussnhjm1ba","10":2,"geo_precision":"city","la":"IL"},"type":"Feature","geometry":{"type":"Point","coordinates":[-89.257602,40.233769]}},{"properties":{"geo_score":0.714,"abbeville":"ATLANTA","id":"aaussngnitnr","10":9,"geo_precision":"city","la":"IN"},"type":"Feature","geometry":{"type":"Point","coordinates":[-86.018909,40.174289]}},{"properties":{"geo_score":0.714,"abbeville":"ATLANTIC","id":"aaussn2g9izj","10":2,"geo_precision":"city","la":"IA"},"type":"Feature","geometry":{"type":"Point","coordinates":[-94.960765,41.381871]}},{"properties":{"geo_score":0.714,"abbeville":"ATLANTIC BEACH","id":"aaussnfb8dxa","10":15,"geo_precision":"city","la":"FL"},"type":"Feature","geometry":{"type":"Point","coordinates":[-80.100876,26.590903]}},{"properties":{"geo_score":0.714,"abbeville":"ATTALLA","id":"aaussnhkn6bn","10":7,"geo_precision":"city","la":"AL"},"type":"Feature","geometry":{"type":"Point","coordinates":[-86.061397,34.051848]}},{"properties":{"geo_score":0.714,"abbeville":"ATTICA","id":"aaussnc11kzo","10":285,"geo_precision":"city","la":"IN"},"type":"Feature","geometry":{"type":"Point","coordinates":[-87.213921,40.240204]}},{"properties":{"geo_score":0.714,"abbeville":"ATWATER","id":"aaussneabtpq","10":46,"geo_precision":"city","la":"CA"},"type":"Feature","geometry":{"type":"Point","coordinates":[-120.647347,37.317255]}},{"properties":{"geo_score":0.714,"abbeville":"ATWOOD","id":"aaussnbl6u2o","10":17,"geo_precision":"city","la":"IL"},"type":"Feature","geometry":{"type":"Point","coordinates":[-88.273085,39.766094]}},{"properties":{"geo_score":0.714,"abbeville":"AUBERRY","id":"aaussni624d4","10":2,"geo_precision":"city","la":"CA"},"type":"Feature","geometry":{"type":"Point","coordinates":[-119.253991,37.075671]}},{"properties":{"geo_score":0.714,"abbeville":"AUBURN","id":"aaussn6oxb6u","10":57,"geo_precision":"city","la":"AL"},"type":"Feature","geometry":{"type":"Point","coordinates":[-85.468222,32.547542]}},{"properties":{"geo_score":0.714,"abbeville":"AUBURN","id":"aaussn7japgd","10":20,"geo_precision":"city","la":"CA"},"type":"Feature","geometry":{"type":"Point","coordinates":[-121.07047,39.014933]}},{"properties":{"geo_score":0.714,"abbeville":"AUBURN","id":"aaussnc8z2uy","10":36,"geo_precision":"city","la":"GA"},"type":"Feature","geometry":{"type":"Point","coordinates":[-83.826094,34.019109]}},{"properties":{"geo_score":0.714,"abbeville":"AUBURN","id":"aaussna23oom","10":1,"geo_precision":"city","la":"IA"},"type":"Feature","geometry":{"type":"Point","coordinates":[-95.080439,42.340836]}},{"properties":{"geo_score":0.714,"abbeville":"AUBURN","id":"aaussn5a1kdi","10":2,"geo_precision":"city","la":"IL"},"type":"Feature","geometry":{"type":"Point","coordinates":[-89.749692,39.588654]}},{"properties":{"geo_score":0.714,"abbeville":"AUBURN","id":"aaussn5wghim","10":87,"geo_precision":"city","la":"IN"},"type":"Feature","geometry":{"type":"Point","coordinates":[-85.027689,41.377758]}},{"properties":{"geo_score":0.714,"abbeville":"AUBURN","id":"aaussn8xpwg4","10":9,"geo_precision":"city","la":"KS"},"type":"Feature","geometry":{"type":"Point","coordinates":[-95.839181,38.916916]}},{"properties":{"geo_score":0.714,"abbeville":"AUBURN","id":"aaussngzs99t","10":16,"geo_precision":"city","la":"KY"},"type":"Feature","geometry":{"type":"Point","coordinates":[-86.797432,36.835067]}},{"properties":{"geo_score":0.714,"abbeville":"AUBURNDALE","id":"aaussnh9etlq","10":48,"geo_precision":"city","la":"FL"},"type":"Feature","geometry":{"type":"Point","coordinates":[-81.742864,28.086751]}},{"properties":{"geo_score":0.714,"abbeville":"AUGUSTA","id":"aaussn2aaw8j","10":1,"geo_precision":"city","la":"AR"},"type":"Feature","geometry":{"type":"Point","coordinates":[-91.372792,35.207566]}},{"properties":{"geo_score":0.714,"abbeville":"AUGUSTA","id":"aaussnefp5mm","10":111,"geo_precision":"city","la":"GA"},"type":"Feature","geometry":{"type":"Point","coordinates":[-81.969184,33.456687]}},{"properties":{"geo_score":0.714,"abbeville":"AUGUSTA","id":"aaussndaz5ax","10":21,"geo_precision":"city","la":"KS"},"type":"Feature","geometry":{"type":"Point","coordinates":[-96.970128,37.674347]}},{"properties":{"geo_score":0.714,"abbeville":"AULT","id":"aaussn54k5qj","10":3,"geo_precision":"city","la":"CO"},"type":"Feature","geometry":{"type":"Point","coordinates":[-104.607073,40.675794]}},{"properties":{"geo_score":0.714,"abbeville":"AURORA","id":"aaussngrvdmn","10":657,"geo_precision":"city","la":"CO"},"type":"Feature","geometry":{"type":"Point","coordinates":[-104.84748,39.715287]}},{"properties":{"geo_score":0.714,"abbeville":"AURORA","id":"aaussnafzmjj","10":739,"geo_precision":"city","la":"IL"},"type":"Feature","geometry":{"type":"Point","coordinates":[-88.136616,41.768399]}},{"properties":{"geo_score":0.714,"abbeville":"AURORA","id":"aaussnercw35","10":11,"geo_precision":"city","la":"IN"},"type":"Feature","geometry":{"type":"Point","coordinates":[-84.988904,39.091081]}},{"properties":{"geo_score":0.714,"abbeville":"AUSTELL","id":"aaussn7xttc0","10":17,"geo_precision":"city","la":"GA"},"type":"Feature","geometry":{"type":"Point","coordinates":[-84.634378,33.812606]}},{"properties":{"geo_score":0.714,"abbeville":"AUSTIN","id":"aaussn88z623","10":2,"geo_precision":"city","la":"AR"},"type":"Feature","geometry":{"type":"Point","coordinates":[-91.979545,34.980269]}},{"properties":{"geo_score":0.714,"abbeville":"AUSTIN","id":"aaussn662koz","10":4,"geo_precision":"city","la":"IN"},"type":"Feature","geometry":{"type":"Point","coordinates":[-85.750469,38.748455]}},{"properties":{"geo_score":0.714,"abbeville":"AUSTIN","id":"aaussnf5f6ec","10":6,"geo_precision":"city","la":"KY"},"type":"Feature","geometry":{"type":"Point","coordinates":[-85.992039,36.815869]}},{"properties":{"geo_score":0.714,"abbeville":"AVENAL","id":"aaussnfkpzfh","10":5,"geo_precision":"city","la":"CA"},"type":"Feature","geometry":{"type":"Point","coordinates":[-120.128716,36.003134]}},{"properties":{"geo_score":0.714,"abbeville":"AVILLA","id":"aaussnd6xvrz","10":62,"geo_precision":"city","la":"IN"},"type":"Feature","geometry":{"type":"Point","coordinates":[-85.391019,41.368123]}},{"properties":{"geo_score":0.714,"abbeville":"AVON","id":"aaussnfscwfx","10":37,"geo_precision":"city","la":"CT"},"type":"Feature","geometry":{"type":"Point","coordinates":[-72.728272,41.757944]}},{"properties":{"geo_score":0.714,"abbeville":"AVON","id":"aaussn5ej5r8","10":80,"geo_precision":"city","la":"IN"},"type":"Feature","geometry":{"type":"Point","coordinates":[-86.488881,39.721434]}},{"properties":{"geo_score":0.714,"abbeville":"AVON PARK","id":"aaussnbsxpor","10":24,"geo_precision":"city","la":"FL"},"type":"Feature","geometry":{"type":"Point","coordinates":[-81.464053,27.473059]}},{"properties":{"geo_score":0.714,"abbeville":"AVONDALE","id":"aaussn5j1k4q","10":234,"geo_precision":"city","la":"AZ"},"type":"Feature","geometry":{"type":"Point","coordinates":[-112.18717,33.276539]}},{"properties":{"geo_score":0.714,"abbeville":"AVONDALE","id":"aaussncztu08","10":1,"geo_precision":"city","la":"CO"},"type":"Feature","geometry":{"type":"Point","coordinates":[-104.529794,38.102502]}},{"properties":{"geo_score":0.714,"abbeville":"AVONDALE ESTATES","id":"aaussn79pu3g","10":3,"geo_precision":"city","la":"GA"},"type":"Feature","geometry":{"type":"Point","coordinates":[-84.23937,33.771704]}},{"properties":{"geo_score":0.0,"abbeville":"AXIS","id":"aaussnic6ulk","10":3,"geo_precision":"unmatched","la":"AL"},"type":"Feature","geometry":null},{"properties":{"geo_score":0.714,"abbeville":"AZUSA","id":"aaussn9wtsvv","10":22,"geo_precision":"city","la":"CA"},"type":"Feature","geometry":{"type":"Point","coordinates":[-118.298662,33.786594]}},{"properties":{"geo_score":0.714,"abbeville":"BABSON PARK","id":"aaussnfeopek","10":4,"geo_precision":"city","la":"FL"},"type":"Feature","geometry":{"type":"Point","coordinates":[-81.549715,27.906571]}},{"properties":{"geo_score":0.714,"abbeville":"BACONTON","id":"aaussn7slxpu","10":6,"geo_precision":"city","la":"GA"},"type":"Feature","geometry":{"type":"Point","coordinates":[-84.100301,31.358861]}},{"properties":{"geo_score":0.714,"abbeville":"BAGDAD","id":"aaussnb15qg7","10":1,"geo_precision":"city","la":"AZ"},"type":"Feature","geometry":{"type":"Point","coordinates":[-113.164742,34.583624]}},{"properties":{"geo_score":0.714,"abbeville":"BAILEY","id":"aaussn7h6owb","10":34,"geo_precision":"city","la":"CO"},"type":"Feature","geometry":{"type":"Point","coordinates":[-104.63577,38.127363]}},{"properties":{"geo_score":0.714,"abbeville":"BAILEYVILLE","id":"aaussn7hzy1d","10":15,"geo_precision":"city","la":"IL"},"type":"Feature","geometry":{"type":"Point","coordinates":[-88.355089,42.320577]}},{"properties":{"geo_score":0.714,"abbeville":"BAINBRIDGE","id":"aaussndzbqs5","10":21,"geo_precision":"city","la":"GA"},"type":"Feature","geometry":{"type":"Point","coordinates":[-84.617836,30.888734]}},{"properties":{"geo_score":0.714,"abbeville":"BAINBRIDGE","id":"aaussnc57jf9","10":5,"geo_precision":"city","la":"IN"},"type":"Feature","geometry":{"type":"Point","coordinates":[-86.812416,39.752428]}},{"properties":{"geo_score":0.714,"abbeville":"BAKER","id":"aaussncfaksn","10":14,"geo_precision":"city","la":"LA"},"type":"Feature","geometry":{"type":"Point","coordinates":[-91.080373,30.51589]}},{"properties":{"geo_score":0.714,"abbeville":"BAKERSFIELD","id":"aaussnarsqji","10":111,"geo_precision":"city","la":"CA"},"type":"Feature","geometry":{"type":"Point","coordinates":[-119.007662,35.483501]}},{"properties":{"geo_score":0.714,"abbeville":"BALD KNOB","id":"aaussn3gape7","10":2,"geo_precision":"city","la":"AR"},"type":"Feature","geometry":{"type":"Point","coordinates":[-91.814299,34.002878]}},{"properties":{"geo_score":0.714,"abbeville":"BALDWIN","id":"aaussnbkfpht","10":7,"geo_precision":"city","la":"GA"},"type":"Feature","geometry":{"type":"Point","coordinates":[-83.473886,34.393713]}},{"properties":{"geo_score":0.714,"abbeville":"BALDWIN CITY","id":"aaussneixod7","10":10,"geo_precision":"city","la":"KS"},"type":"Feature","geometry":{"type":"Point","coordinates":[-95.223906,38.821502]}},{"properties":{"geo_score":0.714,"abbeville":"BALDWIN PARK","id":"aaussn44bg5p","10":40,"geo_precision":"city","la":"CA"},"type":"Feature","geometry":{"type":"Point","coordinates":[-118.341389,34.005833]}},{"properties":{"geo_score":0.714,"abbeville":"BALL","id":"aaussna8k2lg","10":1,"geo_precision":"city","la":"LA"},"type":"Feature","geometry":{"type":"Point","coordinates":[-93.084599,30.519922]}},{"properties":{"geo_score":0.714,"abbeville":"BALL GROUND","id":"aaussnfq7lur","10":23,"geo_precision":"city","la":"GA"},"type":"Feature","geometry":{"type":"Point","coordinates":[-81.112887,31.932714]}},{"properties":{"geo_score":0.714,"abbeville":"BANKS","id":"aaussn3efopo","10":13,"geo_precision":"city","la":"AL"},"type":"Feature","geometry":{"type":"Point","coordinates":[-85.928538,31.839131]}},{"properties":{"geo_score":0.714,"abbeville":"BANKS","id":"aaussnbi9lg2","10":1,"geo_precision":"city","la":"AR"},"type":"Feature","geometry":{"type":"Point","coordinates":[-92.240352,33.566349]}},{"properties":{"geo_score":0.714,"abbeville":"BANNING","id":"aaussnd22thx","10":5,"geo_precision":"city","la":"CA"},"type":"Feature","geometry":{"type":"Point","coordinates":[-116.864197,33.919215]}},{"properties":{"geo_score":0.714,"abbeville":"BARBOURVILLE","id":"aaussnf28ewa","10":1,"geo_precision":"city","la":"KY"},"type":"Feature","geometry":{"type":"Point","coordinates":[-83.894888,36.810109]}},{"properties":{"geo_score":0.714,"abbeville":"BARDOLPH","id":"aaussna7myrb","10":1,"geo_precision":"city","la":"IL"},"type":"Feature","geometry":{"type":"Point","coordinates":[-90.508816,40.497896]}},{"properties":{"geo_score":0.714,"abbeville":"BARDSTOWN","id":"aaussngqtlvt","10":10,"geo_precision":"city","la":"KY"},"type":"Feature","geometry":{"type":"Point","coordinates":[-85.466944,37.822585]}},{"properties":{"geo_score":0.714,"abbeville":"BARDWELL","id":"aaussnc8otdh","10":5,"geo_precision":"city","la":"KY"},"type":"Feature","geometry":{"type":"Point","coordinates":[-84.359103,38.328686]}},{"properties":{"geo_score":0.714,"abbeville":"BARGERSVILLE","id":"aaussnafflak","10":19,"geo_precision":"city","la":"IN"},"type":"Feature","geometry":{"type":"Point","coordinates":[-86.102271,39.489652]}},{"properties":{"geo_score":0.714,"abbeville":"BARKHAMSTED","id":"aaussn7q56b6","10":1,"geo_precision":"city","la":"CT"},"type":"Feature","geometry":{"type":"Point","coordinates":[-72.91399,41.929263]}},{"properties":{"geo_score":0.714,"abbeville":"BARLING","id":"aaussn3xatbt","10":13,"geo_precision":"city","la":"AR"},"type":"Feature","geometry":{"type":"Point","coordinates":[-93.228236,36.379512]}},{"properties":{"geo_score":0.714,"abbeville":"BARNESVILLE","id":"aaussn68lz1r","10":3,"geo_precision":"city","la":"GA"},"type":"Feature","geometry":{"type":"Point","coordinates":[-84.145706,33.07577]}},{"properties":{"geo_score":0.714,"abbeville":"BARRIGADA","id":"aaussn5e39q6","10":5,"geo_precision":"city","la":"GU"},"type":"Feature","geometry":{"type":"Point","coordinates":[144.786297,13.444257]}},{"properties":{"geo_score":0.714,"abbeville":"BARRINGTON","id":"aaussngb3qh2","10":215,"geo_precision":"city","la":"IL"},"type":"Feature","geometry":{"type":"Point","coordinates":[-88.055908,42.152248]}},{"properties":{"geo_score":0.714,"abbeville":"BARSTOW","id":"aaussnhi8118","10":10,"geo_precision":"city","la":"CA"},"type":"Feature","geometry":{"type":"Point","coordinates":[-115.851819,34.693608]}},{"properties":{"geo_score":0.714,"abbeville":"BARTELSO","id":"aaussn43kpud","10":1,"geo_precision":"city","la":"IL"},"type":"Feature","geometry":{"type":"Point","coordinates":[-89.462267,38.542321]}},{"properties":{"geo_score":0.714,"abbeville":"BARTLETT","id":"aaussnh6dtxm","10":176,"geo_precision":"city","la":"IL"},"type":"Feature","geometry":{"type":"Point","coordinates":[-88.157756,42.033376]}},{"properties":{"geo_score":0.714,"abbeville":"BARTOW","id":"aaussnd2h86g","10":21,"geo_precision":"city","la":"FL"},"type":"Feature","geometry":{"type":"Point","coordinates":[-87.427479,30.965739]}},{"properties":{"geo_score":0.714,"abbeville":"BASCOM","id":"aaussn31n3d3","10":3,"geo_precision":"city","la":"FL"},"type":"Feature","geometry":{"type":"Point","coordinates":[-85.063884,30.940432]}},{"properties":{"geo_score":0.714,"abbeville":"BASEHOR","id":"aaussn5730dd","10":5,"geo_precision":"city","la":"KS"},"type":"Feature","geometry":{"type":"Point","coordinates":[-94.947234,39.133448]}},{"properties":{"geo_score":0.714,"abbeville":"BASILE","id":"aaussnh547p6","10":1,"geo_precision":"city","la":"LA"},"type":"Feature","geometry":{"type":"Point","coordinates":[-92.519207,30.67837]}},{"properties":{"geo_score":0.714,"abbeville":"BASTROP","id":"aaussnapa0hx","10":2,"geo_precision":"city","la":"LA"},"type":"Feature","geometry":{"type":"Point","coordinates":[-91.873723,32.795041]}},{"properties":{"geo_score":0.714,"abbeville":"BATAVIA","id":"aaussndo1yej","10":83,"geo_precision":"city","la":"IL"},"type":"Feature","geometry":{"type":"Point","coordinates":[-88.407334,41.828292]}},{"properties":{"geo_score":0.714,"abbeville":"BATCHTOWN","id":"aaussn8f6vzk","10":2,"geo_precision":"city","la":"IL"},"type":"Feature","geometry":{"type":"Point","coordinates":[-90.653455,39.004588]}},{"properties":{"geo_score":0.714,"abbeville":"BATESVILLE","id":"aaussn7d3nc6","10":5,"geo_precision":"city","la":"AR"},"type":"Feature","geometry":{"type":"Point","coordinates":[-90.383715,36.334229]}},{"properties":{"geo_score":0.714,"abbeville":"BATESVILLE","id":"aaussn36n68l","10":9,"geo_precision":"city","la":"IN"},"type":"Feature","geometry":{"type":"Point","coordinates":[-85.229151,39.19017]}},{"properties":{"geo_score":0.714,"abbeville":"BATON ROUGE","id":"aaussncb70rb","10":398,"geo_precision":"city","la":"LA"},"type":"Feature","geometry":{"type":"Point","coordinates":[-92.176237,30.159092]}},{"properties":{"geo_score":0.714,"abbeville":"BATTLE GROUND","id":"aaussnabfvzo","10":318,"geo_precision":"city","la":"IN"},"type":"Feature","geometry":{"type":"Point","coordinates":[-86.822842,40.533131]}},{"properties":{"geo_score":0.0,"abbeville":"BAUXITE","id":"aaussnhe4cy0","10":2,"geo_precision":"unmatched","la":"AR"},"type":"Feature","geometry":null},{"properties":{"geo_score":0.0,"abbeville":"BAXLEY","id":"aaussnh22avw","10":16,"geo_precision":"unmatched","la":"GA"},"type":"Feature","geometry":null},{"properties":{"geo_score":0.0,"abbeville":"BAXTER","id":"aaussngce2v5","10":1,"geo_precision":"unmatched","la":"IA"},"type":"Feature","geometry":null},{"properties":{"geo_score":0.714,"abbeville":"BAXTER SPRINGS","id":"aaussn34pnke","10":9,"geo_precision":"city","la":"KS"},"type":"Feature","geometry":{"type":"Point","coordinates":[-94.788441,38.789323]}},{"properties":{"geo_score":0.714,"abbeville":"BAY","id":"aaussnez60vd","10":1,"geo_precision":"city","la":"AR"},"type":"Feature","geometry":{"type":"Point","coordinates":[-92.564049,34.352039]}},{"properties":{"geo_score":0.714,"abbeville":"BAY MINETTE","id":"aaussncy2w5p","10":14,"geo_precision":"city","la":"AL"},"type":"Feature","geometry":{"type":"Point","coordinates":[-88.050595,34.645649]}},{"properties":{"geo_score":0.714,"abbeville":"BAYFIELD","id":"aaussnbauo8v","10":4,"geo_precision":"city","la":"CO"},"type":"Feature","geometry":{"type":"Point","coordinates":[-107.736318,37.292065]}},{"properties":{"geo_score":0.714,"abbeville":"BAYVIEW","id":"aaussncoiwvs","10":1,"geo_precision":"city","la":"ID"},"type":"Feature","geometry":{"type":"Point","coordinates":[-116.549408,47.982174]}},{"properties":{"geo_score":0.714,"abbeville":"BEAR","id":"aaussneshnd4","10":62,"geo_precision":"city","la":"DE"},"type":"Feature","geometry":{"type":"Point","coordinates":[-75.693903,39.594736]}},{"properties":{"geo_score":0.714,"abbeville":"BEARDEN","id":"aaussnbwsm9t","10":18,"geo_precision":"city","la":"AR"},"type":"Feature","geometry":{"type":"Point","coordinates":[-92.844808,33.715918]}},{"properties":{"geo_score":0.714,"abbeville":"BEARDSTOWN","id":"aaussnfdmdva","10":3,"geo_precision":"city","la":"IL"},"type":"Feature","geometry":{"type":"Point","coordinates":[-90.265277,39.962623]}},{"properties":{"geo_score":0.714,"abbeville":"BEAUMONT","id":"aaussneg98qg","10":27,"geo_precision":"city","la":"CA"},"type":"Feature","geometry":{"type":"Point","coordinates":[-116.954753,33.92703]}},{"properties":{"geo_score":0.714,"abbeville":"BEDFORD","id":"aaussnflhdh7","10":45,"geo_precision":"city","la":"IN"},"type":"Feature","geometry":{"type":"Point","coordinates":[-86.525843,38.890524]}},{"properties":{"geo_score":0.714,"abbeville":"BEDFORD","id":"aaussneax719","10":3,"geo_precision":"city","la":"KY"},"type":"Feature","geometry":{"type":"Point","coordinates":[-85.329441,38.603011]}},{"properties":{"geo_score":0.714,"abbeville":"BEE SPRING","id":"aaussnevak37","10":1,"geo_precision":"city","la":"KY"},"type":"Feature","geometry":{"type":"Point","coordinates":[-85.642739,38.240904]}},{"properties":{"geo_score":0.714,"abbeville":"BEEBE","id":"aaussn5xcomi","10":5,"geo_precision":"city","la":"AR"},"type":"Feature","geometry":{"type":"Point","coordinates":[-91.808393,35.173395]}},{"properties":{"geo_score":0.714,"abbeville":"BEECH GROVE","id":"aaussnhaomxq","10":12,"geo_precision":"city","la":"IN"},"type":"Feature","geometry":{"type":"Point","coordinates":[-86.093293,39.713893]}},{"properties":{"geo_score":0.714,"abbeville":"BEECHER","id":"aaussn9tfnrp","10":6,"geo_precision":"city","la":"IL"},"type":"Feature","geometry":{"type":"Point","coordinates":[-87.626723,41.356872]}},{"properties":{"geo_score":0.714,"abbeville":"BEECHER CITY","id":"aaussn8npv59","10":1,"geo_precision":"city","la":"IL"},"type":"Feature","geometry":{"type":"Point","coordinates":[-90.731564,40.583158]}},{"properties":{"geo_score":0.714,"abbeville":"BELCHER","id":"aaussn3eppyv","10":4,"geo_precision":"city","la":"LA"},"type":"Feature","geometry":{"type":"Point","coordinates":[-93.883624,32.774283]}},{"properties":{"geo_score":0.714,"abbeville":"BELKNAP","id":"aaussnab2r2p","10":4,"geo_precision":"city","la":"IL"},"type":"Feature","geometry":{"type":"Point","coordinates":[-88.909205,37.335571]}},{"properties":{"geo_score":0.714,"abbeville":"BELL","id":"aaussn4l0pys","10":5,"geo_precision":"city","la":"CA"},"type":"Feature","geometry":{"type":"Point","coordinates":[-120.018659,36.799615]}},{"properties":{"geo_score":0.714,"abbeville":"BELL","id":"aaussnilsbns","10":1,"geo_precision":"city","la":"FL"},"type":"Feature","geometry":{"type":"Point","coordinates":[-87.401645,30.534362]}},{"properties":{"geo_score":0.714,"abbeville":"BELLA VISTA","id":"aaussnfhpqqq","10":70,"geo_precision":"city","la":"AR"},"type":"Feature","geometry":{"type":"Point","coordinates":[-91.409018,34.873149]}},{"properties":{"geo_score":0.714,"abbeville":"BELLA VISTA","id":"aaussn4eyf4f","10":3,"geo_precision":"city","la":"CA"},"type":"Feature","geometry":{"type":"Point","coordinates":[-120.018659,36.799615]}},{"properties":{"geo_score":0.714,"abbeville":"BELLE CHASSE","id":"aaussnhwe82o","10":5,"geo_precision":"city","la":"LA"},"type":"Feature","geometry":{"type":"Point","coordinates":[-91.691899,32.138935]}},{"properties":{"geo_score":0.714,"abbeville":"BELLE GLADE","id":"aaussn2j8k6i","10":2,"geo_precision":"city","la":"FL"},"type":"Feature","geometry":{"type":"Point","coordinates":[-80.682836,26.657567]}},{"properties":{"geo_score":0.714,"abbeville":"BELLEAIR BEACH","id":"aaussnbr3vgo","10":4,"geo_precision":"city","la":"FL"},"type":"Feature","geometry":{"type":"Point","coordinates":[-81.254509,28.794993]}},{"properties":{"geo_score":0.714,"abbeville":"BELLEMONT","id":"aaussn6va02b","10":1,"geo_precision":"city","la":"AZ"},"type":"Feature","geometry":{"type":"Point","coordinates":[-112.052427,35.630842]}},{"properties":{"geo_score":0.714,"abbeville":"BELLEVIEW","id":"aaussn3ahagf","10":29,"geo_precision":"city","la":"FL"},"type":"Feature","geometry":{"type":"Point","coordinates":[-87.314974,30.461586]}},{"properties":{"geo_score":0.714,"abbeville":"BELLEVILLE","id":"aaussnfe4p38","10":23,"geo_precision":"city","la":"AR"},"type":"Feature","geometry":{"type":"Point","coordinates":[-94.17492,33.938727]}},{"properties":{"geo_score":0.714,"abbeville":"BELLEVILLE","id":"aaussn3zw9d2","10":107,"geo_precision":"city","la":"IL"},"type":"Feature","geometry":{"type":"Point","coordinates":[-88.355089,42.320577]}},{"properties":{"geo_score":0.714,"abbeville":"BELLEVUE","id":"aaussn3788jf","10":1,"geo_precision":"city","la":"ID"},"type":"Feature","geometry":{"type":"Point","coordinates":[-114.217718,43.39476]}},{"properties":{"geo_score":0.714,"abbeville":"BELLEVUE","id":"aaussn3gv3eo","10":2,"geo_precision":"city","la":"KY"},"type":"Feature","geometry":{"type":"Point","coordinates":[-84.825504,38.986171]}},{"properties":{"geo_score":0.714,"abbeville":"BELLFLOWER","id":"aaussn932inj","10":45,"geo_precision":"city","la":"CA"},"type":"Feature","geometry":{"type":"Point","coordinates":[-118.12965,33.888014]}},{"properties":{"geo_score":0.714,"abbeville":"BELLFLOWER","id":"aaussn7wt20j","10":6,"geo_precision":"city","la":"IL"},"type":"Feature","geometry":{"type":"Point","coordinates":[-88.549114,40.332543]}},{"properties":{"geo_score":0.714,"abbeville":"BELLWOOD","id":"aaussn2xciql","10":29,"geo_precision":"city","la":"IL"},"type":"Feature","geometry":{"type":"Point","coordinates":[-87.68732,41.811929]}},{"properties":{"geo_score":0.714,"abbeville":"BELMOND","id":"aaussnbp7iz4","10":11,"geo_precision":"city","la":"IA"},"type":"Feature","geometry":{"type":"Point","coordinates":[-93.712614,42.783801]}},{"properties":{"geo_score":0.714,"abbeville":"BELMONT","id":"aaussnb5xmfh","10":151,"geo_precision":"city","la":"CA"},"type":"Feature","geometry":{"type":"Point","coordinates":[-122.29339,37.516644]}},{"properties":{"geo_score":0.714,"abbeville":"BELVEDERE TIBURON","id":"aaussn2h4qma","10":18,"geo_precision":"city","la":"CA"},"type":"Feature","geometry":{"type":"Point","coordinates":[-118.162849,34.02779]}},{"properties":{"geo_score":0.714,"abbeville":"BELVIDERE","id":"aaussnaaflq6","10":116,"geo_precision":"city","la":"IL"},"type":"Feature","geometry":{"type":"Point","coordinates":[-88.823215,42.276381]}},{"properties":{"geo_score":0.714,"abbeville":"BEMENT","id":"aaussna55yta","10":41,"geo_precision":"city","la":"IL"},"type":"Feature","geometry":{"type":"Point","coordinates":[-88.599987,39.908567]}},{"properties":{"geo_score":0.714,"abbeville":"BEN LOMOND","id":"aaussn5ude81","10":1,"geo_precision":"city","la":"AR"},"type":"Feature","geometry":{"type":"Point","coordinates":[-94.120289,33.837053]}},{"properties":{"geo_score":0.714,"abbeville":"BEN LOMOND","id":"aaussn7l8rnu","10":16,"geo_precision":"city","la":"CA"},"type":"Feature","geometry":{"type":"Point","coordinates":[-118.699098,35.405369]}},{"properties":{"geo_score":0.714,"abbeville":"BENICIA","id":"aaussn9ab671","10":50,"geo_precision":"city","la":"CA"},"type":"Feature","geometry":{"type":"Point","coordinates":[-122.032061,38.1012]}},{"properties":{"geo_score":0.714,"abbeville":"BENLD","id":"aaussn2gjidh","10":1,"geo_precision":"city","la":"IL"},"type":"Feature","geometry":{"type":"Point","coordinates":[-89.940021,39.120709]}},{"properties":{"geo_score":0.714,"abbeville":"BENNETT","id":"aaussn7bpo1x","10":6,"geo_precision":"city","la":"CO"},"type":"Feature","geometry":{"type":"Point","coordinates":[-104.458336,39.869384]}},{"properties":{"geo_score":0.714,"abbeville":"BENNINGTON","id":"aaussnezt7bw","10":5,"geo_precision":"city","la":"KS"},"type":"Feature","geometry":{"type":"Point","coordinates":[-97.622108,39.019928]}},{"properties":{"geo_score":0.714,"abbeville":"BENSENVILLE","id":"aaussni6idwk","10":26,"geo_precision":"city","la":"IL"},"type":"Feature","geometry":{"type":"Point","coordinates":[-88.088716,41.839679]}},{"properties":{"geo_score":0.714,"abbeville":"BENSON","id":"aaussndno72u","10":14,"geo_precision":"city","la":"AZ"},"type":"Feature","geometry":{"type":"Point","coordinates":[-110.262611,32.035885]}},{"properties":{"geo_score":0.714,"abbeville":"BENTON","id":"aaussn560hjn","10":22,"geo_precision":"city","la":"AR"},"type":"Feature","geometry":{"type":"Point","coordinates":[-92.668034,34.614356]}},{"properties":{"geo_score":0.714,"abbeville":"BENTON","id":"aaussnfu1i05","10":1,"geo_precision":"city","la":"IL"},"type":"Feature","geometry":{"type":"Point","coordinates":[-88.907464,37.994423]}},{"properties":{"geo_score":0.714,"abbeville":"BENTON","id":"aaussn9mkw8n","10":8,"geo_precision":"city","la":"KS"},"type":"Feature","geometry":{"type":"Point","coordinates":[-97.097363,37.831767]}},{"properties":{"geo_score":0.714,"abbeville":"BENTON","id":"aaussna15eia","10":23,"geo_precision":"city","la":"KY"},"type":"Feature","geometry":{"type":"Point","coordinates":[-88.948562,37.148007]}},{"properties":{"geo_score":0.714,"abbeville":"BENTON","id":"aaussng8bsuf","10":14,"geo_precision":"city","la":"LA"},"type":"Feature","geometry":{"type":"Point","coordinates":[-93.63759,32.725032]}},{"properties":{"geo_score":0.714,"abbeville":"BENTONVILLE","id":"aaussnilxqcp","10":206,"geo_precision":"city","la":"AR"},"type":"Feature","geometry":{"type":"Point","coordinates":[-94.223419,36.347107]}},{"properties":{"geo_score":0.714,"abbeville":"BEREA","id":"aaussnepppnn","10":14,"geo_precision":"city","la":"KY"},"type":"Feature","geometry":{"type":"Point","coordinates":[-84.235247,37.592589]}},{"properties":{"geo_score":0.714,"abbeville":"BERKELEY","id":"aaussnfhzt78","10":112,"geo_precision":"city","la":"CA"},"type":"Feature","geometry":{"type":"Point","coordinates":[-122.29673,37.860576]}},{"properties":{"geo_score":0.714,"abbeville":"BERKELEY","id":"aaussn2pmds9","10":14,"geo_precision":"city","la":"IL"},"type":"Feature","geometry":{"type":"Point","coordinates":[-89.517876,39.874772]}},{"properties":{"geo_score":0.714,"abbeville":"BERLIN","id":"aaussn4jb2bp","10":7,"geo_precision":"city","la":"CT"},"type":"Feature","geometry":{"type":"Point","coordinates":[-72.745652,41.621488]}},{"properties":{"geo_score":0.714,"abbeville":"BERLIN","id":"aaussnc8p66w","10":1,"geo_precision":"city","la":"GA"},"type":"Feature","geometry":{"type":"Point","coordinates":[-83.649138,31.080682]}},{"properties":{"geo_score":0.714,"abbeville":"BERNE","id":"aaussncqy64j","10":3,"geo_precision":"city","la":"IN"},"type":"Feature","geometry":{"type":"Point","coordinates":[-86.624743,41.656155]}},{"properties":{"geo_score":0.714,"abbeville":"BERNICE","id":"aaussn4wv0fk","10":2,"geo_precision":"city","la":"LA"},"type":"Feature","geometry":{"type":"Point","coordinates":[-92.471522,32.837199]}},{"properties":{"geo_score":0.714,"abbeville":"BERRY","id":"aaussnd0crtg","10":2,"geo_precision":"city","la":"AL"},"type":"Feature","geometry":{"type":"Point","coordinates":[-87.676862,33.634468]}},{"properties":{"geo_score":0.714,"abbeville":"BERRYTON","id":"aaussn2anjgg","10":5,"geo_precision":"city","la":"KS"},"type":"Feature","geometry":{"type":"Point","coordinates":[-97.537188,38.021434]}},{"properties":{"geo_score":0.714,"abbeville":"BERRYVILLE","id":"aaussn5wbfyb","10":1,"geo_precision":"city","la":"AR"},"type":"Feature","geometry":{"type":"Point","coordinates":[-93.5616,36.316779]}},{"properties":{"geo_score":0.714,"abbeville":"BERTHOUD","id":"aaussnfugp46","10":25,"geo_precision":"city","la":"CO"},"type":"Feature","geometry":{"type":"Point","coordinates":[-105.321046,40.530475]}},{"properties":{"geo_score":0.0,"abbeville":"BERWICK","id":"aaussn8h32kr","10":2,"geo_precision":"unmatched","la":"LA"},"type":"Feature","geometry":null},{"properties":{"geo_score":0.714,"abbeville":"BERWYN","id":"aaussndzb62a","10":68,"geo_precision":"city","la":"IL"},"type":"Feature","geometry":{"type":"Point","coordinates":[-89.322625,42.091976]}},{"properties":{"geo_score":0.714,"abbeville":"BESSEMER","id":"aaussnfze400","10":66,"geo_precision":"city","la":"AL"},"type":"Feature","geometry":{"type":"Point","coordinates":[-87.700019,33.89455]}},{"properties":{"geo_score":0.714,"abbeville":"BETHALTO","id":"aaussn8f1lf6","10":22,"geo_precision":"city","la":"IL"},"type":"Feature","geometry":{"type":"Point","coordinates":[-90.054615,38.923994]}},{"properties":{"geo_score":0.714,"abbeville":"BETHANY","id":"aaussn7brwdc","10":5,"geo_precision":"city","la":"CT"},"type":"Feature","geometry":{"type":"Point","coordinates":[-72.996191,41.428088]}},{"properties":{"geo_score":0.714,"abbeville":"BETHANY","id":"aaussnej1jvd","10":2,"geo_precision":"city","la":"LA"},"type":"Feature","geometry":{"type":"Point","coordinates":[-94.004646,32.339309]}},{"properties":{"geo_score":0.714,"abbeville":"BETHANY BEACH","id":"aaussn5n53pk","10":12,"geo_precision":"city","la":"DE"},"type":"Feature","geometry":{"type":"Point","coordinates":[-75.186955,38.555533]}},{"properties":{"geo_score":0.714,"abbeville":"BETHEL","id":"aaussnd0qc1k","10":24,"geo_precision":"city","la":"CT"},"type":"Feature","geometry":{"type":"Point","coordinates":[-73.39908,41.381244]}},{"properties":{"geo_score":0.714,"abbeville":"BETHEL","id":"aaussn6a3kj3","10":3,"geo_precision":"city","la":"DE"},"type":"Feature","geometry":{"type":"Point","coordinates":[-75.624087,38.569091]}},{"properties":{"geo_score":0.714,"abbeville":"BETHEL ISLAND","id":"aaussn9kdhr4","10":1,"geo_precision":"city","la":"CA"},"type":"Feature","geometry":{"type":"Point","coordinates":[-121.642463,38.02662]}},{"properties":{"geo_score":0.714,"abbeville":"BETHLEHEM","id":"aaussncqqtoh","10":1,"geo_precision":"city","la":"CT"},"type":"Feature","geometry":{"type":"Point","coordinates":[-73.203076,41.640099]}},{"properties":{"geo_score":0.714,"abbeville":"BETHLEHEM","id":"aaussn8sshjx","10":19,"geo_precision":"city","la":"GA"},"type":"Feature","geometry":{"type":"Point","coordinates":[-83.721536,33.943652]}},{"properties":{"geo_score":0.714,"abbeville":"BETHLEHEM","id":"aaussnd38ebo","10":2,"geo_precision":"city","la":"KY"},"type":"Feature","geometry":{"type":"Point","coordinates":[-85.016907,38.452892]}},{"properties":{"geo_score":0.714,"abbeville":"BETHUNE","id":"aaussn7itg32","10":4,"geo_precision":"city","la":"CO"},"type":"Feature","geometry":{"type":"Point","coordinates":[-102.433217,39.293345]}},{"properties":{"geo_score":0.714,"abbeville":"BETTENDORF","id":"aaussnga7opc","10":100,"geo_precision":"city","la":"IA"},"type":"Feature","geometry":{"type":"Point","coordinates":[-90.529138,41.57048]}},{"properties":{"geo_score":0.714,"abbeville":"BEULAH","id":"aaussncx8nc7","10":4,"geo_precision":"city","la":"CO"},"type":"Feature","geometry":{"type":"Point","coordinates":[-104.63577,38.127363]}},{"properties":{"geo_score":0.714,"abbeville":"BEVERLY HILLS","id":"aaussnaey4wm","10":19,"geo_precision":"city","la":"CA"},"type":"Feature","geometry":{"type":"Point","coordinates":[-118.298662,33.786594]}},{"properties":{"geo_score":0.714,"abbeville":"BEVERLY HILLS","id":"aaussnhqorlk","10":25,"geo_precision":"city","la":"FL"},"type":"Feature","geometry":{"type":"Point","coordinates":[-82.458154,28.916925]}},{"properties":{"geo_score":0.714,"abbeville":"BEVERLY SHORES","id":"aaussn83ldfv","10":9,"geo_precision":"city","la":"IN"},"type":"Feature","geometry":{"type":"Point","coordinates":[-86.975178,41.683796]}},{"properties":{"geo_score":0.0,"abbeville":"BICKNELL","id":"aaussn5v6zjm","10":2,"geo_precision":"unmatched","la":"IN"},"type":"Feature","geometry":null},{"properties":{"geo_score":0.714,"abbeville":"BIG BEAR CITY","id":"aaussn9hylpg","10":6,"geo_precision":"city","la":"CA"},"type":"Feature","geometry":{"type":"Point","coordinates":[-116.110086,34.50514]}},{"properties":{"geo_score":0.714,"abbeville":"BIG BEAR LAKE","id":"aaussnddeukt","10":4,"geo_precision":"city","la":"CA"},"type":"Feature","geometry":{"type":"Point","coordinates":[-120.094087,39.386018]}},{"properties":{"geo_score":0.714,"abbeville":"BIG LAKE","id":"aaussnfpfj6e","10":3,"geo_precision":"city","la":"AK"},"type":"Feature","geometry":{"type":"Point","coordinates":[-149.728806,61.523043]}},{"properties":{"geo_score":0.714,"abbeville":"BIG ROCK","id":"aaussnavynz9","10":2,"geo_precision":"city","la":"IL"},"type":"Feature","geometry":{"type":"Point","coordinates":[-90.635958,39.400326]}},{"properties":{"geo_score":0.714,"abbeville":"BIGELOW","id":"aaussn5f8hci","10":1,"geo_precision":"city","la":"AR"},"type":"Feature","geometry":{"type":"Point","coordinates":[-92.626882,34.968975]}},{"properties":{"geo_score":0.714,"abbeville":"BILLINGSLEY","id":"aaussn5w6kuy","10":3,"geo_precision":"city","la":"AL"},"type":"Feature","geometry":{"type":"Point","coordinates":[-86.711472,32.576407]}},{"properties":{"geo_score":0.714,"abbeville":"BIOLA","id":"aaussnfaap15","10":1,"geo_precision":"city","la":"CA"},"type":"Feature","geometry":{"type":"Point","coordinates":[-120.018659,36.799615]}},{"properties":{"geo_score":0.714,"abbeville":"BIRDSEYE","id":"aaussngzh80v","10":6,"geo_precision":"city","la":"IN"},"type":"Feature","geometry":{"type":"Point","coordinates":[-86.820726,38.326772]}},{"properties":{"geo_score":0.714,"abbeville":"BIRMINGHAM","id":"aaussn9vpnew","10":518,"geo_precision":"city","la":"AL"},"type":"Feature","geometry":{"type":"Point","coordinates":[-86.801904,33.456412]}},{"properties":{"geo_score":0.714,"abbeville":"BISBEE","id":"aaussnaayew3","10":2,"geo_precision":"city","la":"AZ"},"type":"Feature","geometry":{"type":"Point","coordinates":[-109.819216,31.445577]}},{"properties":{"geo_score":0.714,"abbeville":"BISHOP","id":"aaussn6s21p3","10":16,"geo_precision":"city","la":"CA"},"type":"Feature","geometry":{"type":"Point","coordinates":[-118.334393,37.026022]}},{"properties":{"geo_score":0.714,"abbeville":"BISHOP","id":"aaussnhw52b6","10":4,"geo_precision":"city","la":"GA"},"type":"Feature","geometry":{"type":"Point","coordinates":[-83.48171,33.805718]}},{"properties":{"geo_score":0.714,"abbeville":"BISMARCK","id":"aaussn4gfagv","10":3,"geo_precision":"city","la":"AR"},"type":"Feature","geometry":{"type":"Point","coordinates":[-93.11742,34.276538]}},{"properties":{"geo_score":0.0,"abbeville":"BLACK CANYON CITY","id":"aaussna97az4","10":8,"geo_precision":"unmatched","la":"AZ"},"type":"Feature","geometry":null},{"properties":{"geo_score":0.0,"abbeville":"BLACKFOOT","id":"aaussn8ydqah","10":15,"geo_precision":"unmatched","la":"ID"},"type":"Feature","geometry":null},{"properties":{"geo_score":0.0,"abbeville":"BLACKSHEAR","id":"aaussnhc5ff4","10":4,"geo_precision":"unmatched","la":"GA"},"type":"Feature","geometry":null},{"properties":{"geo_score":0.714,"abbeville":"BLAIRSDEN-GRAEAGLE","id":"aaussn4fxem0","10":1,"geo_precision":"city","la":"CA"},"type":"Feature","geometry":{"type":"Point","coordinates":[-120.616608,39.78101]}},{"properties":{"geo_score":0.714,"abbeville":"BLAIRSVILLE","id":"aaussnhko7io","10":7,"geo_precision":"city","la":"GA"},"type":"Feature","geometry":{"type":"Point","coordinates":[-83.967636,34.867512]}},{"properties":{"geo_score":0.714,"abbeville":"BLAKELY","id":"aaussnd1okvh","10":19,"geo_precision":"city","la":"GA"},"type":"Feature","geometry":{"type":"Point","coordinates":[-84.901178,31.346088]}},{"properties":{"geo_score":0.714,"abbeville":"BLANCHARD","id":"aaussn599vf8","10":8,"geo_precision":"city","la":"ID"},"type":"Feature","geometry":{"type":"Point","coordinates":[-116.604444,48.274708]}},{"properties":{"geo_score":0.714,"abbeville":"BLANCHARD","id":"aaussn3wo5dz","10":4,"geo_precision":"city","la":"LA"},"type":"Feature","geometry":{"type":"Point","coordinates":[-93.896895,32.632741]}},{"properties":{"geo_score":0.714,"abbeville":"BLOOMFIELD","id":"aaussn6ffz96","10":15,"geo_precision":"city","la":"CT"},"type":"Feature","geometry":{"type":"Point","coordinates":[-72.738939,41.851961]}},{"properties":{"geo_score":0.714,"abbeville":"BLOOMFIELD","id":"aaussn8526ez","10":2,"geo_precision":"city","la":"IA"},"type":"Feature","geometry":{"type":"Point","coordinates":[-92.406245,40.746315]}},{"properties":{"geo_score":0.714,"abbeville":"BLOOMFIELD","id":"aaussnd7z9v2","10":12,"geo_precision":"city","la":"IN"},"type":"Feature","geometry":{"type":"Point","coordinates":[-84.973857,40.511712]}},{"properties":{"geo_score":0.714,"abbeville":"BLOOMINGDALE","id":"aaussn4ewcfi","10":9,"geo_precision":"city","la":"GA"},"type":"Feature","geometry":{"type":"Point","coordinates":[-81.291335,32.107103]}},{"properties":{"geo_score":0.714,"abbeville":"BLOOMINGDALE","id":"aaussnhz7da3","10":88,"geo_precision":"city","la":"IL"},"type":"Feature","geometry":{"type":"Point","coordinates":[-89.033689,40.480592]}},{"properties":{"geo_score":0.714,"abbeville":"BLOOMINGDALE","id":"aaussn5j4rih","10":2,"geo_precision":"city","la":"IN"},"type":"Feature","geometry":{"type":"Point","coordinates":[-87.221819,39.779078]}},{"properties":{"geo_score":0.714,"abbeville":"BLOOMINGTON","id":"aaussndlb17r","10":8,"geo_precision":"city","la":"CA"},"type":"Feature","geometry":{"type":"Point","coordinates":[-116.849826,34.248404]}},{"properties":{"geo_score":0.714,"abbeville":"BLOOMINGTON","id":"aaussnapu4bx","10":518,"geo_precision":"city","la":"IL"},"type":"Feature","geometry":{"type":"Point","coordinates":[-89.033689,40.480592]}},{"properties":{"geo_score":0.714,"abbeville":"BLOOMINGTON","id":"aaussni96pev","10":86,"geo_precision":"city","la":"IN"},"type":"Feature","geometry":{"type":"Point","coordinates":[-87.221819,39.779078]}},{"properties":{"geo_score":0.714,"abbeville":"BLOUNTSTOWN","id":"aaussn3nyi8n","10":3,"geo_precision":"city","la":"FL"},"type":"Feature","geometry":{"type":"Point","coordinates":[-85.046048,30.442582]}},{"properties":{"geo_score":0.714,"abbeville":"BLOUNTSVILLE","id":"aaussnar9ugy","10":13,"geo_precision":"city","la":"AL"},"type":"Feature","geometry":{"type":"Point","coordinates":[-86.794164,33.931212]}},{"properties":{"geo_score":0.714,"abbeville":"BLUE GRASS","id":"aaussn3o2fjs","10":7,"geo_precision":"city","la":"IA"},"type":"Feature","geometry":{"type":"Point","coordinates":[-90.660178,41.61105]}},{"properties":{"geo_score":0.714,"abbeville":"BLUE ISLAND","id":"aaussn3ixu59","10":15,"geo_precision":"city","la":"IL"},"type":"Feature","geometry":{"type":"Point","coordinates":[-87.68732,41.811929]}},{"properties":{"geo_score":0.714,"abbeville":"BLUE JAY","id":"aaussn8x8eeg","10":2,"geo_precision":"city","la":"CA"},"type":"Feature","geometry":{"type":"Point","coordinates":[-120.018659,36.799615]}},{"properties":{"geo_score":0.714,"abbeville":"BLUE MOUND","id":"aaussnhe82kb","10":2,"geo_precision":"city","la":"IL"},"type":"Feature","geometry":{"type":"Point","coordinates":[-89.880969,40.366447]}},{"properties":{"geo_score":0.714,"abbeville":"BLUE RIDGE","id":"aaussn5p9hrh","10":16,"geo_precision":"city","la":"GA"},"type":"Feature","geometry":{"type":"Point","coordinates":[-81.112887,31.932714]}},{"properties":{"geo_score":0.714,"abbeville":"BLUFFTON","id":"aaussn67ook0","10":28,"geo_precision":"city","la":"IN"},"type":"Feature","geometry":{"type":"Point","coordinates":[-85.2023,40.71327]}},{"properties":{"geo_score":0.714,"abbeville":"BOAZ","id":"aaussn7y0cpt","10":42,"geo_precision":"city","la":"AL"},"type":"Feature","geometry":{"type":"Point","coordinates":[-85.913034,34.932027]}},{"properties":{"geo_score":0.714,"abbeville":"BOCA RATON","id":"aaussn7991xi","10":267,"geo_precision":"city","la":"FL"},"type":"Feature","geometry":{"type":"Point","coordinates":[-81.331733,28.828325]}},{"properties":{"geo_score":0.714,"abbeville":"BOGALUSA","id":"aaussn6lhj4g","10":26,"geo_precision":"city","la":"LA"},"type":"Feature","geometry":{"type":"Point","coordinates":[-90.044253,30.791723]}},{"properties":{"geo_score":0.714,"abbeville":"BOGART","id":"aaussn64ogca","10":8,"geo_precision":"city","la":"GA"},"type":"Feature","geometry":{"type":"Point","coordinates":[-83.518452,33.901988]}},{"properties":{"geo_score":0.714,"abbeville":"BOISE","id":"aaussn9sf608","10":210,"geo_precision":"city","la":"ID"},"type":"Feature","geometry":{"type":"Point","coordinates":[-116.272921,43.603768]}},{"properties":{"geo_score":0.714,"abbeville":"BOKEELIA","id":"aaussnil313k","10":4,"geo_precision":"city","la":"FL"},"type":"Feature","geometry":{"type":"Point","coordinates":[-82.128052,26.624433]}},{"properties":{"geo_score":0.714,"abbeville":"BOLINGBROKE","id":"aaussnemmchu","10":3,"geo_precision":"city","la":"GA"},"type":"Feature","geometry":{"type":"Point","coordinates":[-83.800628,32.946971]}},{"properties":{"geo_score":0.714,"abbeville":"BOLINGBROOK","id":"aaussnfusu38","10":168,"geo_precision":"city","la":"IL"},"type":"Feature","geometry":{"type":"Point","coordinates":[-88.068396,41.698642]}},{"properties":{"geo_score":0.714,"abbeville":"BOLTON","id":"aaussn5azvdy","10":2,"geo_precision":"city","la":"CT"},"type":"Feature","geometry":{"type":"Point","coordinates":[-72.439278,41.768648]}},{"properties":{"geo_score":0.714,"abbeville":"BON AIR","id":"aaussn32taim","10":1,"geo_precision":"city","la":"AL"},"type":"Feature","geometry":{"type":"Point","coordinates":[-86.338572,33.256886]}},{"properties":{"geo_score":0.714,"abbeville":"BONAIRE","id":"aaussnaotcw1","10":17,"geo_precision":"city","la":"GA"},"type":"Feature","geometry":{"type":"Point","coordinates":[-83.662733,32.539506]}},{"properties":{"geo_score":0.714,"abbeville":"BONDVILLE","id":"aaussngpx22t","10":1,"geo_precision":"city","la":"IL"},"type":"Feature","geometry":{"type":"Point","coordinates":[-88.378167,40.10838]}},{"properties":{"geo_score":0.714,"abbeville":"BONFIELD","id":"aaussn8mr7t0","10":2,"geo_precision":"city","la":"IL"},"type":"Feature","geometry":{"type":"Point","coordinates":[-88.053534,41.1388]}},{"properties":{"geo_score":0.714,"abbeville":"BONITA","id":"aaussn31wlsg","10":14,"geo_precision":"city","la":"CA"},"type":"Feature","geometry":{"type":"Point","coordinates":[-117.020668,32.67387]}},{"properties":{"geo_score":0.714,"abbeville":"BONITA SPRINGS","id":"aaussn9c1f6z","10":38,"geo_precision":"city","la":"FL"},"type":"Feature","geometry":{"type":"Point","coordinates":[-84.327675,30.08076]}},{"properties":{"geo_score":0.714,"abbeville":"BONNER SPRINGS","id":"aaussncakxvb","10":25,"geo_precision":"city","la":"KS"},"type":"Feature","geometry":{"type":"Point","coordinates":[-94.763938,39.068153]}},{"properties":{"geo_score":0.714,"abbeville":"BONNERS FERRY","id":"aaussnfots8v","10":22,"geo_precision":"city","la":"ID"},"type":"Feature","geometry":{"type":"Point","coordinates":[-116.398202,48.814078]}},{"properties":{"geo_score":0.714,"abbeville":"BONNIEVILLE","id":"aaussn9gsr65","10":1,"geo_precision":"city","la":"KY"},"type":"Feature","geometry":{"type":"Point","coordinates":[-83.657351,37.496523]}},{"properties":{"geo_score":0.714,"abbeville":"BONSALL","id":"aaussn6b1q2r","10":4,"geo_precision":"city","la":"CA"},"type":"Feature","geometry":{"type":"Point","coordinates":[-116.846046,33.016928]}},{"properties":{"geo_score":0.714,"abbeville":"BOONE","id":"aaussn529wiq","10":2,"geo_precision":"city","la":"CO"},"type":"Feature","geometry":{"type":"Point","coordinates":[-104.209119,38.319575]}},{"properties":{"geo_score":0.714,"abbeville":"BOONE","id":"aaussn67vc5k","10":2,"geo_precision":"city","la":"IA"},"type":"Feature","geometry":{"type":"Point","coordinates":[-93.904897,42.0425]}},{"properties":{"geo_score":0.714,"abbeville":"BOONE GROVE","id":"aaussn2k02p9","10":1,"geo_precision":"city","la":"IN"},"type":"Feature","geometry":{"type":"Point","coordinates":[-87.130431,41.354186]}},{"properties":{"geo_score":0.714,"abbeville":"BOONEVILLE","id":"aaussnbstcpe","10":36,"geo_precision":"city","la":"AR"},"type":"Feature","geometry":{"type":"Point","coordinates":[-93.930763,35.19356]}},{"properties":{"geo_score":0.714,"abbeville":"BOONVILLE","id":"aaussn3q2l9m","10":10,"geo_precision":"city","la":"IN"},"type":"Feature","geometry":{"type":"Point","coordinates":[-87.287145,38.04247]}},{"properties":{"geo_score":0.714,"abbeville":"BORDEN","id":"aaussndyhsor","10":15,"geo_precision":"city","la":"IN"},"type":"Feature","geometry":{"type":"Point","coordinates":[-85.158564,38.730617]}},{"properties":{"geo_score":0.714,"abbeville":"BOSSIER CITY","id":"aaussnfzojhy","10":88,"geo_precision":"city","la":"LA"},"type":"Feature","geometry":{"type":"Point","coordinates":[-92.230971,32.989297]}},{"properties":{"geo_score":0.714,"abbeville":"BOSTON","id":"aaussn71yft4","10":5,"geo_precision":"city","la":"GA"},"type":"Feature","geometry":{"type":"Point","coordinates":[-83.910971,30.828644]}},{"properties":{"geo_score":0.714,"abbeville":"BOSTWICK","id":"aaussn2fi4fs","10":5,"geo_precision":"city","la":"FL"},"type":"Feature","geometry":{"type":"Point","coordinates":[-81.627324,29.799631]}},{"properties":{"geo_score":0.714,"abbeville":"BOSWELL","id":"aaussn7xmx85","10":42,"geo_precision":"city","la":"IN"},"type":"Feature","geometry":{"type":"Point","coordinates":[-87.311618,40.577648]}},{"properties":{"geo_score":0.714,"abbeville":"BOULDER","id":"aaussnckdclv","10":94,"geo_precision":"city","la":"CO"},"type":"Feature","geometry":{"type":"Point","coordinates":[-105.278083,40.094787]}},{"properties":{"geo_score":0.714,"abbeville":"BOULDER CREEK","id":"aaussn2wlm49","10":12,"geo_precision":"city","la":"CA"},"type":"Feature","geometry":{"type":"Point","coordinates":[-122.481647,38.517964]}},{"properties":{"geo_score":0.714,"abbeville":"BOURBON","id":"aaussna339p2","10":1,"geo_precision":"city","la":"IN"},"type":"Feature","geometry":{"type":"Point","coordinates":[-86.150818,41.323904]}},{"properties":{"geo_score":0.714,"abbeville":"BOURBONNAIS","id":"aaussn9l3308","10":13,"geo_precision":"city","la":"IL"},"type":"Feature","geometry":{"type":"Point","coordinates":[-87.847038,41.180968]}},{"properties":{"geo_score":0.714,"abbeville":"BOURG","id":"aaussnbvgtv6","10":1,"geo_precision":"city","la":"LA"},"type":"Feature","geometry":{"type":"Point","coordinates":[-90.607587,29.543768]}},{"properties":{"geo_score":0.714,"abbeville":"BOVILL","id":"aaussna5gbqp","10":1,"geo_precision":"city","la":"ID"},"type":"Feature","geometry":{"type":"Point","coordinates":[-116.407235,46.871563]}},{"properties":{"geo_score":0.714,"abbeville":"BOWDON","id":"aaussn7lfes7","10":2,"geo_precision":"city","la":"GA"},"type":"Feature","geometry":{"type":"Point","coordinates":[-85.123883,33.587706]}},{"properties":{"geo_score":0.714,"abbeville":"BOWERSVILLE","id":"aaussn60co21","10":1,"geo_precision":"city","la":"GA"},"type":"Feature","geometry":{"type":"Point","coordinates":[-83.03321,34.383987]}},{"properties":{"geo_score":0.714,"abbeville":"BOWLING GREEN","id":"aaussncpss7g","10":5,"geo_precision":"city","la":"FL"},"type":"Feature","geometry":{"type":"Point","coordinates":[-81.19645,29.406921]}},{"properties":{"geo_score":0.714,"abbeville":"BOWLING GREEN","id":"aaussn949wer","10":49,"geo_precision":"city","la":"KY"},"type":"Feature","geometry":{"type":"Point","coordinates":[-83.081077,38.28974]}},{"properties":{"geo_score":0.714,"abbeville":"BOWMAN","id":"aaussncfdker","10":2,"geo_precision":"city","la":"GA"},"type":"Feature","geometry":{"type":"Point","coordinates":[-82.957102,34.164131]}},{"properties":{"geo_score":0.714,"abbeville":"BOYCE","id":"aaussnb7xlra","10":10,"geo_precision":"city","la":"LA"},"type":"Feature","geometry":{"type":"Point","coordinates":[-92.655743,31.251382]}},{"properties":{"geo_score":0.714,"abbeville":"BOYNTON BEACH","id":"aaussnfhyhb9","10":134,"geo_precision":"city","la":"FL"},"type":"Feature","geometry":{"type":"Point","coordinates":[-80.430269,26.645895]}},{"properties":{"geo_score":0.714,"abbeville":"BRACEVILLE","id":"aaussn48eiix","10":2,"geo_precision":"city","la":"IL"},"type":"Feature","geometry":{"type":"Point","coordinates":[-88.278834,41.238676]}},{"properties":{"geo_score":0.714,"abbeville":"BRADENTON","id":"aaussndiv1an","10":389,"geo_precision":"city","la":"FL"},"type":"Feature","geometry":{"type":"Point","coordinates":[-82.470456,27.404731]}},{"properties":{"geo_score":0.714,"abbeville":"BRADENTON BEACH","id":"aaussnastfnw","10":3,"geo_precision":"city","la":"FL"},"type":"Feature","geometry":{"type":"Point","coordinates":[-82.470456,27.404731]}},{"properties":{"geo_score":0.714,"abbeville":"BRADFORD","id":"aaussn7em475","10":3,"geo_precision":"city","la":"AR"},"type":"Feature","geometry":{"type":"Point","coordinates":[-91.525309,35.380014]}},{"properties":{"geo_score":0.714,"abbeville":"BRADFORD","id":"aaussnhr6vo6","10":1,"geo_precision":"city","la":"IL"},"type":"Feature","geometry":{"type":"Point","coordinates":[-89.739548,39.823384]}},{"properties":{"geo_score":0.714,"abbeville":"BRADLEY","id":"aaussn8ay55u","10":4,"geo_precision":"city","la":"FL"},"type":"Feature","geometry":{"type":"Point","coordinates":[-81.949419,27.699258]}},{"properties":{"geo_score":0.714,"abbeville":"BRADLEY","id":"aaussn60l5gx","10":7,"geo_precision":"city","la":"IL"},"type":"Feature","geometry":{"type":"Point","coordinates":[-87.842583,41.207762]}},{"properties":{"geo_score":0.714,"abbeville":"BRAIDWOOD","id":"aaussn3cp2gt","10":5,"geo_precision":"city","la":"IL"},"type":"Feature","geometry":{"type":"Point","coordinates":[-88.017171,41.285878]}},{"properties":{"geo_score":0.714,"abbeville":"BRANCH","id":"aaussnd060jj","10":3,"geo_precision":"city","la":"LA"},"type":"Feature","geometry":{"type":"Point","coordinates":[-92.345888,30.344615]}},{"properties":{"geo_score":0.714,"abbeville":"BRANDENBURG","id":"aaussn55uonp","10":10,"geo_precision":"city","la":"KY"},"type":"Feature","geometry":{"type":"Point","coordinates":[-86.179546,37.97552]}},{"properties":{"geo_score":0.714,"abbeville":"BRANDON","id":"aaussnehn1uq","10":138,"geo_precision":"city","la":"FL"},"type":"Feature","geometry":{"type":"Point","coordinates":[-85.467155,30.982405]}},{"properties":{"geo_score":0.714,"abbeville":"BRANFORD","id":"aaussn7lx3n1","10":26,"geo_precision":"city","la":"CT"},"type":"Feature","geometry":{"type":"Point","coordinates":[-72.815113,41.277376]}},{"properties":{"geo_score":0.714,"abbeville":"BRANFORD","id":"aaussn3qh9xi","10":3,"geo_precision":"city","la":"FL"},"type":"Feature","geometry":{"type":"Point","coordinates":[-82.908004,30.101927]}},{"properties":{"geo_score":0.714,"abbeville":"BRANTLEY","id":"aaussnh3pt6b","10":20,"geo_precision":"city","la":"AL"},"type":"Feature","geometry":{"type":"Point","coordinates":[-86.87499,33.215949]}},{"properties":{"geo_score":0.714,"abbeville":"BRASELTON","id":"aaussn6vj4ly","10":52,"geo_precision":"city","la":"GA"},"type":"Feature","geometry":{"type":"Point","coordinates":[-83.685149,34.109873]}},{"properties":{"geo_score":0.714,"abbeville":"BRAWLEY","id":"aaussn5nhdun","10":7,"geo_precision":"city","la":"CA"},"type":"Feature","geometry":{"type":"Point","coordinates":[-115.280168,33.096382]}},{"properties":{"geo_score":0.714,"abbeville":"BRAZIL","id":"aaussn6cqs6f","10":20,"geo_precision":"city","la":"IN"},"type":"Feature","geometry":{"type":"Point","coordinates":[-87.126509,39.387611]}},{"properties":{"geo_score":0.714,"abbeville":"BREA","id":"aaussnacb09h","10":54,"geo_precision":"city","la":"CA"},"type":"Feature","geometry":{"type":"Point","coordinates":[-121.970838,41.644041]}},{"properties":{"geo_score":0.714,"abbeville":"BREAUX BRIDGE","id":"aaussn5g12zh","10":16,"geo_precision":"city","la":"LA"},"type":"Feature","geometry":{"type":"Point","coordinates":[-90.607587,29.543768]}},{"properties":{"geo_score":0.714,"abbeville":"BRECKENRIDGE","id":"aaussnhzxlcl","10":3,"geo_precision":"city","la":"CO"},"type":"Feature","geometry":{"type":"Point","coordinates":[-105.326661,39.502766]}},{"properties":{"geo_score":0.714,"abbeville":"BREESE","id":"aaussn7grq9j","10":8,"geo_precision":"city","la":"IL"},"type":"Feature","geometry":{"type":"Point","coordinates":[-88.594504,39.518924]}},{"properties":{"geo_score":0.714,"abbeville":"BREMEN","id":"aaussncx1pdh","10":1,"geo_precision":"city","la":"AL"},"type":"Feature","geometry":{"type":"Point","coordinates":[-87.003767,33.957886]}},{"properties":{"geo_score":0.714,"abbeville":"BREMEN","id":"aaussn8z6msh","10":4,"geo_precision":"city","la":"GA"},"type":"Feature","geometry":{"type":"Point","coordinates":[-85.172928,33.767997]}},{"properties":{"geo_score":0.714,"abbeville":"BREMEN","id":"aaussneigrw0","10":18,"geo_precision":"city","la":"IN"},"type":"Feature","geometry":{"type":"Point","coordinates":[-86.242235,41.40577]}},{"properties":{"geo_score":0.714,"abbeville":"BRENT","id":"aaussn7xzvc4","10":1,"geo_precision":"city","la":"AL"},"type":"Feature","geometry":{"type":"Point","coordinates":[-87.220392,32.989499]}},{"properties":{"geo_score":0.714,"abbeville":"BRENTWOOD","id":"aaussn83pil8","10":225,"geo_precision":"city","la":"CA"},"type":"Feature","geometry":{"type":"Point","coordinates":[-118.473969,34.051954]}},{"properties":{"geo_score":0.714,"abbeville":"BREWTON","id":"aaussn8fzada","10":7,"geo_precision":"city","la":"AL"},"type":"Feature","geometry":{"type":"Point","coordinates":[-88.252793,31.837376]}},{"properties":{"geo_score":0.714,"abbeville":"BRIDGEPORT","id":"aaussn9yx7kg","10":56,"geo_precision":"city","la":"CT"},"type":"Feature","geometry":{"type":"Point","coordinates":[-73.363661,41.308873]}},{"properties":{"geo_score":0.714,"abbeville":"BRIDGEVIEW","id":"aaussnbe042o","10":28,"geo_precision":"city","la":"IL"},"type":"Feature","geometry":{"type":"Point","coordinates":[-87.68732,41.811929]}},{"properties":{"geo_score":0.714,"abbeville":"BRIDGEVILLE","id":"aaussn982q6w","10":1,"geo_precision":"city","la":"CA"},"type":"Feature","geometry":{"type":"Point","coordinates":[-123.753321,40.484837]}},{"properties":{"geo_score":0.714,"abbeville":"BRIDGEVILLE","id":"aaussnds8pnk","10":19,"geo_precision":"city","la":"DE"},"type":"Feature","geometry":{"type":"Point","coordinates":[-75.330023,38.660295]}},{"properties":{"geo_score":0.714,"abbeville":"BRIERFIELD","id":"aaussndb3y77","10":2,"geo_precision":"city","la":"AL"},"type":"Feature","geometry":{"type":"Point","coordinates":[-86.9598,33.016616]}},{"properties":{"geo_score":0.714,"abbeville":"BRIGGSVILLE","id":"aaussn5up9bw","10":4,"geo_precision":"city","la":"AR"},"type":"Feature","geometry":{"type":"Point","coordinates":[-93.303203,35.030397]}},{"properties":{"geo_score":0.714,"abbeville":"BRIGHTON","id":"aaussn8bl7mw","10":163,"geo_precision":"city","la":"CO"},"type":"Feature","geometry":{"type":"Point","coordinates":[-104.786597,39.942984]}},{"properties":{"geo_score":0.714,"abbeville":"BRIGHTON","id":"aaussnhk5oaa","10":13,"geo_precision":"city","la":"IL"},"type":"Feature","geometry":{"type":"Point","coordinates":[-90.395398,39.365047]}},{"properties":{"geo_score":0.714,"abbeville":"BRIMFIELD","id":"aaussnbyl6sl","10":1,"geo_precision":"city","la":"IL"},"type":"Feature","geometry":{"type":"Point","coordinates":[-89.859603,40.814233]}},{"properties":{"geo_score":0.0,"abbeville":"BRINGHURST","id":"aaussndj606w","10":27,"geo_precision":"unmatched","la":"IN"},"type":"Feature","geometry":null},{"properties":{"geo_score":0.714,"abbeville":"BRINSON","id":"aaussn7zsolz","10":1,"geo_precision":"city","la":"GA"},"type":"Feature","geometry":{"type":"Point","coordinates":[-84.703795,30.907915]}},{"properties":{"geo_score":0.714,"abbeville":"BRISBANE","id":"aaussn3zqxyw","10":12,"geo_precision":"city","la":"CA"},"type":"Feature","geometry":{"type":"Point","coordinates":[-122.404332,37.689182]}},{"properties":{"geo_score":0.714,"abbeville":"BRISTOL","id":"aaussn964g8m","10":71,"geo_precision":"city","la":"CT"},"type":"Feature","geometry":{"type":"Point","coordinates":[-72.939577,41.681198]}},{"properties":{"geo_score":0.714,"abbeville":"BRISTOL","id":"aaussn8z4pd4","10":1,"geo_precision":"city","la":"FL"},"type":"Feature","geometry":{"type":"Point","coordinates":[-84.97804,30.419284]}},{"properties":{"geo_score":0.714,"abbeville":"BRISTOL","id":"aaussn2xbldv","10":2,"geo_precision":"city","la":"IL"},"type":"Feature","geometry":{"type":"Point","coordinates":[-88.427873,41.698414]}},{"properties":{"geo_score":0.714,"abbeville":"BRISTOL","id":"aaussnf12qu7","10":7,"geo_precision":"city","la":"IN"},"type":"Feature","geometry":{"type":"Point","coordinates":[-85.824845,41.712983]}},{"properties":{"geo_score":0.714,"abbeville":"BRITT","id":"aaussndwxmfw","10":6,"geo_precision":"city","la":"IA"},"type":"Feature","geometry":{"type":"Point","coordinates":[-94.177422,43.183395]}},{"properties":{"geo_score":0.714,"abbeville":"BRITTANY","id":"aaussn908oao","10":1,"geo_precision":"city","la":"LA"},"type":"Feature","geometry":{"type":"Point","coordinates":[-90.868876,30.201004]}},{"properties":{"geo_score":0.714,"abbeville":"BROAD BROOK","id":"aaussncgw2tn","10":3,"geo_precision":"city","la":"CT"},"type":"Feature","geometry":{"type":"Point","coordinates":[-72.708388,41.842097]}},{"properties":{"geo_score":0.714,"abbeville":"BROADLANDS","id":"aaussn5l78ry","10":1,"geo_precision":"city","la":"IL"},"type":"Feature","geometry":{"type":"Point","coordinates":[-87.992677,39.923208]}},{"properties":{"geo_score":0.714,"abbeville":"BROADVIEW","id":"aaussn2lfncy","10":5,"geo_precision":"city","la":"IL"},"type":"Feature","geometry":{"type":"Point","coordinates":[-87.853393,41.86392]}},{"properties":{"geo_score":0.714,"abbeville":"BRODHEAD","id":"aaussnd0wxdh","10":1,"geo_precision":"city","la":"KY"},"type":"Feature","geometry":{"type":"Point","coordinates":[-84.412242,37.373811]}},{"properties":{"geo_score":0.714,"abbeville":"BRONSON","id":"aaussnh90brd","10":5,"geo_precision":"city","la":"FL"},"type":"Feature","geometry":{"type":"Point","coordinates":[-82.549823,29.431045]}},{"properties":{"geo_score":0.714,"abbeville":"BROOK","id":"aaussnau05e0","10":16,"geo_precision":"city","la":"IN"},"type":"Feature","geometry":{"type":"Point","coordinates":[-86.415285,41.256431]}},{"properties":{"geo_score":0.714,"abbeville":"BROOKFIELD","id":"aaussn6avgs8","10":32,"geo_precision":"city","la":"CT"},"type":"Feature","geometry":{"type":"Point","coordinates":[-73.38762,41.466206]}},{"properties":{"geo_score":0.714,"abbeville":"BROOKFIELD","id":"aaussn6qad14","10":79,"geo_precision":"city","la":"IL"},"type":"Feature","geometry":{"type":"Point","coordinates":[-87.68732,41.811929]}},{"properties":{"geo_score":0.714,"abbeville":"BROOKLAND","id":"aaussnbt1ju2","10":1,"geo_precision":"city","la":"AR"},"type":"Feature","geometry":{"type":"Point","coordinates":[-90.489547,35.891366]}},{"properties":{"geo_score":0.714,"abbeville":"BROOKLET","id":"aaussna4f0ud","10":4,"geo_precision":"city","la":"GA"},"type":"Feature","geometry":{"type":"Point","coordinates":[-81.6571,32.352307]}},{"properties":{"geo_score":0.714,"abbeville":"BROOKLYN","id":"aaussndt7v1k","10":12,"geo_precision":"city","la":"CT"},"type":"Feature","geometry":{"type":"Point","coordinates":[-71.983412,41.847758]}},{"properties":{"geo_score":0.714,"abbeville":"BROOKPORT","id":"aaussn8r2oqv","10":1,"geo_precision":"city","la":"IL"},"type":"Feature","geometry":{"type":"Point","coordinates":[-88.605104,37.212897]}},{"properties":{"geo_score":0.714,"abbeville":"BROOKS","id":"aaussn6nl6uu","10":2,"geo_precision":"city","la":"CA"},"type":"Feature","geometry":{"type":"Point","coordinates":[-122.181084,38.799836]}},{"properties":{"geo_score":0.714,"abbeville":"BROOKS","id":"aaussnf6b91u","10":1,"geo_precision":"city","la":"KY"},"type":"Feature","geometry":{"type":"Point","coordinates":[-85.755592,38.051236]}},{"properties":{"geo_score":0.714,"abbeville":"BROOKSTON","id":"aaussnd2vs6f","10":350,"geo_precision":"city","la":"IN"},"type":"Feature","geometry":{"type":"Point","coordinates":[-85.079136,41.146716]}},{"properties":{"geo_score":0.714,"abbeville":"BROOKSVILLE","id":"aaussng3q43b","10":83,"geo_precision":"city","la":"FL"},"type":"Feature","geometry":{"type":"Point","coordinates":[-82.395858,28.586197]}},{"properties":{"geo_score":0.714,"abbeville":"BROOKSVILLE","id":"aaussn3li62x","10":1,"geo_precision":"city","la":"KY"},"type":"Feature","geometry":{"type":"Point","coordinates":[-84.093504,38.638654]}},{"properties":{"geo_score":0.714,"abbeville":"BROOKVILLE","id":"aaussn3tmqyw","10":17,"geo_precision":"city","la":"IN"},"type":"Feature","geometry":{"type":"Point","coordinates":[-85.906647,39.724488]}},{"properties":{"geo_score":0.714,"abbeville":"BROOKWOOD","id":"aaussniebwkv","10":1,"geo_precision":"city","la":"AL"},"type":"Feature","geometry":{"type":"Point","coordinates":[-86.930561,34.795644]}},{"properties":{"geo_score":0.714,"abbeville":"BROOMFIELD","id":"aaussng8uizq","10":219,"geo_precision":"city","la":"CO"},"type":"Feature","geometry":{"type":"Point","coordinates":[-105.08665,39.920541]}},{"properties":{"geo_score":0.714,"abbeville":"BROUSSARD","id":"aaussnai2bqp","10":2,"geo_precision":"city","la":"LA"},"type":"Feature","geometry":{"type":"Point","coordinates":[-91.963869,30.1606]}},{"properties":{"geo_score":0.714,"abbeville":"BROWNSBORO","id":"aaussndyymva","10":3,"geo_precision":"city","la":"AL"},"type":"Feature","geometry":{"type":"Point","coordinates":[-86.475425,34.719303]}},{"properties":{"geo_score":0.714,"abbeville":"BROWNSBURG","id":"aaussnewyj6w","10":121,"geo_precision":"city","la":"IN"},"type":"Feature","geometry":{"type":"Point","coordinates":[-86.470429,39.807038]}},{"properties":{"geo_score":0.714,"abbeville":"BROWNSTOWN","id":"aaussn4u0x9p","10":14,"geo_precision":"city","la":"IN"},