{"type":"FeatureCollection","data_type":"Dataset","url_type":null,"permissions":[{"permissions":{"download":true,"view":true},"group_id":"everyone"}],"classification":null,"title":"\ngizmo1the1cat's places\n","count":43,"stream_id":30737,"contributor":{"url":"http://geocommons.com/users/11444","name":"platial"},"data_attributes":null,"calculation_params":null,"icon_link":null,"link":"http://geocommons.com/overlays/30737.json","extent":[-115.278,-24.0109,140.729,60.9962],"geometry_types":["point"],"unique_name":null,"name":"\ngizmo1the1cat's places\n","feature_count":43,"description":"\nA Map by Gizmo1the1cat\n\n\n","next_feature":null,"is_raster":false,"short_classification":"Y","stats":{},"features":[{"properties":{"name":"Agent92","description":"Posted by Gizmo1the1cat<img src=\"http://media.geocommons.com/platial/img/2010/01/3/andre_the_gaint.jpg\">OWEN SOUND<a title=\"Built for Community Mapping\" href=\"http://www.platial.com\"><img src=\"http://media.geocommons.com/platial/images/logotype_small.jpg\"></a>","id":"a6hcpqphj6cj"},"type":"Feature","geometry":{"type":"Point","coordinates":[-80.849998,44.566666]}},{"properties":{"name":"Asa Phillips","description":"Posted by Gizmo1the1cat<img src=\"http://media.geocommons.com/platial/img/2009/08/0/av_2.png\">northampton pa<a title=\"Built for Community Mapping\" href=\"http://www.platial.com\"><img src=\"http://media.geocommons.com/platial/images/logotype_small.jpg\"></a>","id":"a6hcpqqn8zvr"},"type":"Feature","geometry":{"type":"Point","coordinates":[-75.491853,40.686439]}},{"properties":{"name":"Augustus Maximillion","description":"Posted by Gizmo1the1cat<img src=\"http://media.geocommons.com/platial/img/2009/07/4/brtm0705.jpg\">Mobile, Alabama<a title=\"Built for Community Mapping\" href=\"http://www.platial.com\"><img src=\"http://media.geocommons.com/platial/images/logotype_small.jpg\"></a>","id":"a6hcpqeq254x"},"type":"Feature","geometry":{"type":"Point","coordinates":[-88.043056,30.694167]}},{"properties":{"name":"Beacon","description":"Posted by Gizmo1the1catMinneapolis<a title=\"Built for Community Mapping\" href=\"http://www.platial.com\"><img src=\"http://media.geocommons.com/platial/images/logotype_small.jpg\"></a>","id":"a6hcpqjkv7s9"},"type":"Feature","geometry":{"type":"Point","coordinates":[-93.263611,44.98]}},{"properties":{"name":"Bonzo","description":"Posted by Gizmo1the1catSouth Elgin, ILAt U of Illinois at Urbana-Champaign during the school year.<a title=\"Built for Community Mapping\" href=\"http://www.platial.com\"><img src=\"http://media.geocommons.com/platial/images/logotype_small.jpg\"></a>","id":"a6hcpqi2juvm"},"type":"Feature","geometry":{"type":"Point","coordinates":[-88.292222,41.994167]}},{"properties":{"name":"Bonzo","description":"Posted by Gizmo1the1catSouth Elgin, IL<a title=\"Built for Community Mapping\" href=\"http://www.platial.com\"><img src=\"http://media.geocommons.com/platial/images/logotype_small.jpg\"></a>","id":"a6hcpqcz7pws"},"type":"Feature","geometry":{"type":"Point","coordinates":[-88.292222,41.994167]}},{"properties":{"name":"Brain Damage","description":"Posted by Gizmo1the1catFalkirk ScotlandWTF!!!<a title=\"Built for Community Mapping\" href=\"http://www.platial.com\"><img src=\"http://media.geocommons.com/platial/images/logotype_small.jpg\"></a>","id":"a6hcpqpyvj77"},"type":"Feature","geometry":{"type":"Point","coordinates":[-3.78436,56.000667]}},{"properties":{"name":"BrianBoru","description":"Posted by Gizmo1the1catPeterborough, Ontario<a title=\"Built for Community Mapping\" href=\"http://www.platial.com\"><img src=\"http://media.geocommons.com/platial/images/logotype_small.jpg\"></a>","id":"a6hcpqcl5f6l"},"type":"Feature","geometry":{"type":"Point","coordinates":[-78.3294,44.301019]}},{"properties":{"name":"Carpolish","description":"Posted by Gizmo1the1catGuaruja<a title=\"Built for Community Mapping\" href=\"http://www.platial.com\"><img src=\"http://media.geocommons.com/platial/images/logotype_small.jpg\"></a>","id":"a6hcpqemn0zt"},"type":"Feature","geometry":{"type":"Point","coordinates":[-46.283293,-24.01094]}},{"properties":{"name":"Chintan","description":"Posted by Gizmo1the1catPrincetonMiddle of Nowhere, NJ<a title=\"Built for Community Mapping\" href=\"http://www.platial.com\"><img src=\"http://media.geocommons.com/platial/images/logotype_small.jpg\"></a>","id":"a6hcpqbpr9zf"},"type":"Feature","geometry":{"type":"Point","coordinates":[-74.659444,40.348611]}},{"properties":{"name":"Darth Bane","description":"Posted by Gizmo1the1catOskaloosa Iowa<a title=\"Built for Community Mapping\" href=\"http://www.platial.com\"><img src=\"http://media.geocommons.com/platial/images/logotype_small.jpg\"></a>","id":"a6hcpqmusbb3"},"type":"Feature","geometry":{"type":"Point","coordinates":[-92.639139,41.296269]}},{"properties":{"name":"Eddie","description":"Posted by Gizmo1the1cat<img src=\"http://media.geocommons.com/platial/img/2009/08/0/0523090119.jpg\">Las Vegas, NV 89147, USAREDMOSNTER from the WTF WEEEEEEEEEEE<a title=\"Built for Community Mapping\" href=\"http://www.platial.com\"><img src=\"http://media.geocommons.com/platial/images/logotype_small.jpg\"></a>","id":"a6hcpqou8q4m"},"type":"Feature","geometry":{"type":"Point","coordinates":[-115.2778317,36.1148054]}},{"properties":{"name":"Elin","description":"Posted by Gizmo1the1cat<img src=\"http://media.geocommons.com/platial/img/2009/07/4/Alicia.JPG\">strängnäsdamdamdam :P<a title=\"Built for Community Mapping\" href=\"http://www.platial.com\"><img src=\"http://media.geocommons.com/platial/images/logotype_small.jpg\"></a>","id":"a6hcpqnkzv2d"},"type":"Feature","geometry":{"type":"Point","coordinates":[17.031239,59.377391]}},{"properties":{"name":"FISHGUTS","description":"Posted by Gizmo1the1catlindal in furness<a title=\"Built for Community Mapping\" href=\"http://www.platial.com\"><img src=\"http://media.geocommons.com/platial/images/logotype_small.jpg\"></a>","id":"a6hcpqqxjv2n"},"type":"Feature","geometry":{"type":"Point","coordinates":[-3.1498839,54.1719925]}},{"properties":{"name":"Guy Debord","description":"Posted by Gizmo1the1catInnisfil, Ontario<a title=\"Built for Community Mapping\" href=\"http://www.platial.com\"><img src=\"http://media.geocommons.com/platial/images/logotype_small.jpg\"></a>","id":"a6hcpqebkuoy"},"type":"Feature","geometry":{"type":"Point","coordinates":[-79.582915,44.304647]}},{"properties":{"name":"J585","description":"Posted by Gizmo1the1catrochester<a title=\"Built for Community Mapping\" href=\"http://www.platial.com\"><img src=\"http://media.geocommons.com/platial/images/logotype_small.jpg\"></a>","id":"a6hcpqe4f0fi"},"type":"Feature","geometry":{"type":"Point","coordinates":[-77.615833,43.154722]}},{"properties":{"name":"Johnemann","description":"Posted by Gizmo1the1catbergeberget<a title=\"Built for Community Mapping\" href=\"http://www.platial.com\"><img src=\"http://media.geocommons.com/platial/images/logotype_small.jpg\"></a>","id":"a6hcpqmond6l"},"type":"Feature","geometry":{"type":"Point","coordinates":[11.7926093,60.9962213]}},{"properties":{"name":"Juvie","description":"Posted by Gizmo1the1cat308 88 st. New York, NY, USA<a title=\"Built for Community Mapping\" href=\"http://www.platial.com\"><img src=\"http://media.geocommons.com/platial/images/logotype_small.jpg\"></a>","id":"a6hcpqbs0jvo"},"type":"Feature","geometry":{"type":"Point","coordinates":[-73.9771384,40.7902676]}},{"properties":{"name":"King Da Ville","description":"Posted by Gizmo1the1cat<img src=\"http://media.geocommons.com/platial/img/2009/10/0/thumbnailCADPDZ0Y.jpg\">Louisville, KY 40205Buy the ticket... Take the Ride!<a title=\"Built for Community Mapping\" href=\"http://www.platial.com\"><img src=\"http://media.geocommons.com/platial/images/logotype_small.jpg\"></a>","id":"a6hcpqebrem3"},"type":"Feature","geometry":{"type":"Point","coordinates":[-85.6743082,38.2265568]}},{"properties":{"name":"Kristoff","description":"Posted by Gizmo1the1catLone Tree CoI pwnz joo<a title=\"Built for Community Mapping\" href=\"http://www.platial.com\"><img src=\"http://media.geocommons.com/platial/images/logotype_small.jpg\"></a>","id":"a6hcpqe8ihwt"},"type":"Feature","geometry":{"type":"Point","coordinates":[-104.885394,39.551068]}},{"properties":{"name":"Leslie Brant","description":"Posted by Gizmo1the1catWinnipeg<a title=\"Built for Community Mapping\" href=\"http://www.platial.com\"><img src=\"http://media.geocommons.com/platial/images/logotype_small.jpg\"></a>","id":"a6hcpqqo83eq"},"type":"Feature","geometry":{"type":"Point","coordinates":[-97.148721,49.875822]}},{"properties":{"name":"Marsh","description":"Posted by Gizmo1the1catSt. Louis, MO<a title=\"Built for Community Mapping\" href=\"http://www.platial.com\"><img src=\"http://media.geocommons.com/platial/images/logotype_small.jpg\"></a>","id":"a6hcpqldofbf"},"type":"Feature","geometry":{"type":"Point","coordinates":[-90.197778,38.627222]}},{"properties":{"name":"Mason","description":"Posted by Gizmo1the1catColorado SpringsRock on<a title=\"Built for Community Mapping\" href=\"http://www.platial.com\"><img src=\"http://media.geocommons.com/platial/images/logotype_small.jpg\"></a>","id":"a6hcpqhboj4m"},"type":"Feature","geometry":{"type":"Point","coordinates":[-104.820833,38.833889]}},{"properties":{"name":"P_M","description":"Posted by Gizmo1the1cat<img src=\"http://media.geocommons.com/platial/img/2009/07/4/shake152.jpg\">jeffersonville indiana<a title=\"Built for Community Mapping\" href=\"http://www.platial.com\"><img src=\"http://media.geocommons.com/platial/images/logotype_small.jpg\"></a>","id":"a6hcpqb6l0ko"},"type":"Feature","geometry":{"type":"Point","coordinates":[-85.726808,38.306645]}},{"properties":{"name":"Qyrenh Kalsang","description":"Posted by Gizmo1the1catGlasgow<a title=\"Built for Community Mapping\" href=\"http://www.platial.com\"><img src=\"http://media.geocommons.com/platial/images/logotype_small.jpg\"></a>","id":"a6hcpqjr9aer"},"type":"Feature","geometry":{"type":"Point","coordinates":[-4.257224,55.865627]}},{"properties":{"name":"RP","description":"Posted by Gizmo1the1catlas vegas<a title=\"Built for Community Mapping\" href=\"http://www.platial.com\"><img src=\"http://media.geocommons.com/platial/images/logotype_small.jpg\"></a>","id":"a6hcpqm0xwt4"},"type":"Feature","geometry":{"type":"Point","coordinates":[-115.136389,36.175]}},{"properties":{"name":"Redtaz","description":"Posted by Gizmo1the1cat<img src=\"http://media.geocommons.com/platial/img/2009/08/0/enhanced_family_pic.jpg\">upwell norfolk ukHelllloooooooo<a title=\"Built for Community Mapping\" href=\"http://www.platial.com\"><img src=\"http://media.geocommons.com/platial/images/logotype_small.jpg\"></a>","id":"a6hcpqdagote"},"type":"Feature","geometry":{"type":"Point","coordinates":[0.2138272,52.596016]}},{"properties":{"name":"Reroll","description":"Posted by Gizmo1the1cat<img src=\"http://media.geocommons.com/platial/img/2009/08/2/cdn_applatform_com.jpg\">Corner Brook, NLthis be where I live now.<a title=\"Built for Community Mapping\" href=\"http://www.platial.com\"><img src=\"http://media.geocommons.com/platial/images/logotype_small.jpg\"></a>","id":"a6hcpqphcmd2"},"type":"Feature","geometry":{"type":"Point","coordinates":[-57.94946,48.95019]}},{"properties":{"name":"Strider","description":"Posted by Gizmo1the1cathouston<a title=\"Built for Community Mapping\" href=\"http://www.platial.com\"><img src=\"http://media.geocommons.com/platial/images/logotype_small.jpg\"></a>","id":"a6hcpqav94c3"},"type":"Feature","geometry":{"type":"Point","coordinates":[-95.363056,29.763056]}},{"properties":{"name":"TeeBall","description":"Posted by Gizmo1the1cat37167<a title=\"Built for Community Mapping\" href=\"http://www.platial.com\"><img src=\"http://media.geocommons.com/platial/images/logotype_small.jpg\"></a>","id":"a6hcpqo9x0xu"},"type":"Feature","geometry":{"type":"Point","coordinates":[-86.519865,35.973797]}},{"properties":{"name":"Teh Black Jesus","description":"Posted by Gizmo1the1catcatasaquaThe land of Hookers and Blow<a title=\"Built for Community Mapping\" href=\"http://www.platial.com\"><img src=\"http://media.geocommons.com/platial/images/logotype_small.jpg\"></a>","id":"a6hcpqdem9xf"},"type":"Feature","geometry":{"type":"Point","coordinates":[-75.466915,40.649687]}},{"properties":{"name":"That Dude 90210","description":"Posted by Gizmo1the1catW. Henrietta, NY, United States<a title=\"Built for Community Mapping\" href=\"http://www.platial.com\"><img src=\"http://media.geocommons.com/platial/images/logotype_small.jpg\"></a>","id":"a6hcpqjq5tvc"},"type":"Feature","geometry":{"type":"Point","coordinates":[-77.661964,43.040373]}},{"properties":{"name":"The J585","description":"Posted by Gizmo1the1cathakodate<a title=\"Built for Community Mapping\" href=\"http://www.platial.com\"><img src=\"http://media.geocommons.com/platial/images/logotype_small.jpg\"></a>","id":"a6hcpqbdf1kg"},"type":"Feature","geometry":{"type":"Point","coordinates":[140.72881,41.768793]}},{"properties":{"name":"Vuk","description":"Posted by Gizmo1the1cat<img src=\"http://media.geocommons.com/platial/img/2009/12/2/m_ec8a70d4a90a3e27d9a364d80597d8fa.jpg\">Wilson, NC 27896Hello WTF!<a title=\"Built for Community Mapping\" href=\"http://www.platial.com\"><img src=\"http://media.geocommons.com/platial/images/logotype_small.jpg\"></a>","id":"a6hcpqqju838"},"type":"Feature","geometry":{"type":"Point","coordinates":[-77.9624435,35.7974991]}},{"properties":{"name":"WolfShadow","description":"Posted by Gizmo1the1cat<img src=\"http://media.geocommons.com/platial/img/2009/07/4/wolf_shadow.jpg\">Sterling Heights, Michigan<a title=\"Built for Community Mapping\" href=\"http://www.platial.com\"><img src=\"http://media.geocommons.com/platial/images/logotype_small.jpg\"></a>","id":"a6hcpqlq3q8m"},"type":"Feature","geometry":{"type":"Point","coordinates":[-83.01338,42.59325]}},{"properties":{"name":"db00","description":"Posted by Gizmo1the1cat55987<a title=\"Built for Community Mapping\" href=\"http://www.platial.com\"><img src=\"http://media.geocommons.com/platial/images/logotype_small.jpg\"></a>","id":"a6hcpqqb9zx0"},"type":"Feature","geometry":{"type":"Point","coordinates":[-91.637215,43.9701221]}},{"properties":{"name":"db00","description":"Posted by Gizmo1the1cat55987<a title=\"Built for Community Mapping\" href=\"http://www.platial.com\"><img src=\"http://media.geocommons.com/platial/images/logotype_small.jpg\"></a>","id":"a6hcpqoh9yjo"},"type":"Feature","geometry":{"type":"Point","coordinates":[-91.637215,43.9701221]}},{"properties":{"name":"forhiller","description":"Posted by Gizmo1the1cat<img src=\"http://media.geocommons.com/platial/img/2009/08/0/296974788_a39924a8c6_copy.jpg\">Varaždin<a title=\"Built for Community Mapping\" href=\"http://www.platial.com\"><img src=\"http://media.geocommons.com/platial/images/logotype_small.jpg\"></a>","id":"a6hcpqo6ek53"},"type":"Feature","geometry":{"type":"Point","coordinates":[16.33823,46.31179]}},{"properties":{"name":"hueylewis53","description":"Posted by Gizmo1the1cat<img src=\"http://media.geocommons.com/platial/img/2009/07/4/twit2_2_.jpg\">Mississippi State University<a title=\"Built for Community Mapping\" href=\"http://www.platial.com\"><img src=\"http://media.geocommons.com/platial/images/logotype_small.jpg\"></a>","id":"a6hcpqh7ct6u"},"type":"Feature","geometry":{"type":"Point","coordinates":[-88.790049,33.453747]}},{"properties":{"name":"jason","description":"Posted by Gizmo1the1cat<img src=\"http://media.geocommons.com/platial/img/2009/08/0/alucard53.jpg\">Gainesville,Ga<a title=\"Built for Community Mapping\" href=\"http://www.platial.com\"><img src=\"http://media.geocommons.com/platial/images/logotype_small.jpg\"></a>","id":"a6hcpqbtufuh"},"type":"Feature","geometry":{"type":"Point","coordinates":[-83.824167,34.297778]}},{"properties":{"name":"jason","description":"Posted by Gizmo1the1cat<img src=\"http://media.geocommons.com/platial/img/2009/08/0/alucard54.jpg\">1392 Enota Ave NE Gainesville,ga 30501-)<a title=\"Built for Community Mapping\" href=\"http://www.platial.com\"><img src=\"http://media.geocommons.com/platial/images/logotype_small.jpg\"></a>","id":"a6hcpqjb1ov4"},"type":"Feature","geometry":{"type":"Point","coordinates":[-83.8226049,34.3264076]}},{"properties":{"name":"senatorhung","description":"Posted by Gizmo1the1cat<img src=\"http://media.geocommons.com/platial/img/2009/08/0/gary_headshot.jpg\">calgary<a title=\"Built for Community Mapping\" href=\"http://www.platial.com\"><img src=\"http://media.geocommons.com/platial/images/logotype_small.jpg\"></a>","id":"a6hcpqdkegp1"},"type":"Feature","geometry":{"type":"Point","coordinates":[-114.080796,51.039877]}},{"properties":{"name":"speedio","description":"Posted by Gizmo1the1catElverum<a title=\"Built for Community Mapping\" href=\"http://www.platial.com\"><img src=\"http://media.geocommons.com/platial/images/logotype_small.jpg\"></a>","id":"a6hcpqbv7xfd"},"type":"Feature","geometry":{"type":"Point","coordinates":[11.56936,60.885799]}}],"is_temporal":false,"author":{"url":"http://www.platial.com/map/721715","metadata":null,"contact_name":"gizmo1the1cat","contact_address":null,"source":"platial:gizmo1the1cat","contact_phone":null},"source":"http://www.platial.com/map/721715","pagination":{"sort":null,"start":0,"total":43,"limit":1000000},"state":"complete","tags":"platial,platial:id=721715,platial:user=gizmo1the1cat","published":"2010-03-03T17:00:00Z","id":30737}