{"type":"FeatureCollection","data_type":"Dataset","url_type":null,"permissions":[{"permissions":{"download":true,"view":true},"group_id":"everyone"}],"classification":null,"title":"\nmowace's places\n","count":49,"stream_id":30895,"contributor":{"url":"http://geocommons.com/users/11444","name":"platial"},"data_attributes":null,"calculation_params":null,"icon_link":null,"link":"http://geocommons.com/overlays/30895.json","extent":[-129.991,-34.7335,138.662,56.1542],"geometry_types":["point"],"unique_name":null,"name":"\nmowace's places\n","feature_count":49,"description":"\nA Map by Mowace\n\n\n","next_feature":null,"is_raster":false,"short_classification":"Y","stats":{},"features":[{"properties":{"name":"&gt;MOW","description":"Posted by MowaceGlasgowhowdydoody<a title=\"Built for Community Mapping\" href=\"http://www.platial.com\"><img src=\"http://media.geocommons.com/platial/images/logotype_small.jpg\"></a>","id":"a6bn8cmnawdt"},"type":"Feature","geometry":{"type":"Point","coordinates":[-4.257224,55.865627]}},{"properties":{"name":"&gt;MOW","description":"Posted by Mowace<img src=\"http://media.geocommons.com/platial/img/2009/12/1/baby_middle_finger.jpg\">44004-=_=-<a title=\"Built for Community Mapping\" href=\"http://www.platial.com\"><img src=\"http://media.geocommons.com/platial/images/logotype_small.jpg\"></a>","id":"a6bn8cls3kdz"},"type":"Feature","geometry":{"type":"Point","coordinates":[-80.787941,41.846622]}},{"properties":{"name":"&gt;MOW","description":"Posted by MowaceStewart B.C.<a title=\"Built for Community Mapping\" href=\"http://www.platial.com\"><img src=\"http://media.geocommons.com/platial/images/logotype_small.jpg\"></a>","id":"a6bn8cljid4c"},"type":"Feature","geometry":{"type":"Point","coordinates":[-129.991049,55.936006]}},{"properties":{"name":"&gt;MOW","description":"Posted by Mowace<img src=\"http://media.geocommons.com/platial/img/2010/02/0/tsavatarmenvic.jpg\">Billet road, chadwell heath, Greater London, UK<a title=\"Built for Community Mapping\" href=\"http://www.platial.com\"><img src=\"http://media.geocommons.com/platial/images/logotype_small.jpg\"></a>","id":"a6bn8ckn2oim"},"type":"Feature","geometry":{"type":"Point","coordinates":[0.129303,51.587298]}},{"properties":{"name":"&gt;MOW","description":"Posted by Mowacerm6 5ps<a title=\"Built for Community Mapping\" href=\"http://www.platial.com\"><img src=\"http://media.geocommons.com/platial/images/logotype_small.jpg\"></a>","id":"a6bn8cp8mj9d"},"type":"Feature","geometry":{"type":"Point","coordinates":[0.126585,51.5859397]}},{"properties":{"name":"&gt;MOW","description":"Posted by Mowace53809<a title=\"Built for Community Mapping\" href=\"http://www.platial.com\"><img src=\"http://media.geocommons.com/platial/images/logotype_small.jpg\"></a>","id":"a6bn8ct4n8zx"},"type":"Feature","geometry":{"type":"Point","coordinates":[-90.6204165,42.9983775]}},{"properties":{"name":"&gt;MOW","description":"Posted by Mowace26003<a title=\"Built for Community Mapping\" href=\"http://www.platial.com\"><img src=\"http://media.geocommons.com/platial/images/logotype_small.jpg\"></a>","id":"a6bn8cpnamgq"},"type":"Feature","geometry":{"type":"Point","coordinates":[-80.685126,40.072736]}},{"properties":{"name":"&gt;MOW","description":"Posted by MowaceHalstead, Ks<a title=\"Built for Community Mapping\" href=\"http://www.platial.com\"><img src=\"http://media.geocommons.com/platial/images/logotype_small.jpg\"></a>","id":"a6bn8codjy3a"},"type":"Feature","geometry":{"type":"Point","coordinates":[-97.5086518,38.0014004]}},{"properties":{"name":"&gt;MOW","description":"Posted by MowaceEdinburghawrite man!!!<a title=\"Built for Community Mapping\" href=\"http://www.platial.com\"><img src=\"http://media.geocommons.com/platial/images/logotype_small.jpg\"></a>","id":"a6bn8ck1jdcr"},"type":"Feature","geometry":{"type":"Point","coordinates":[-3.18753,55.950152]}},{"properties":{"name":"&gt;MOW","description":"Posted by MowaceEdinburgh<a title=\"Built for Community Mapping\" href=\"http://www.platial.com\"><img src=\"http://media.geocommons.com/platial/images/logotype_small.jpg\"></a>","id":"a6bn8comwmim"},"type":"Feature","geometry":{"type":"Point","coordinates":[-3.18753,55.950152]}},{"properties":{"name":"&gt;mow","description":"Posted by MowaceRomford<a title=\"Built for Community Mapping\" href=\"http://www.platial.com\"><img src=\"http://media.geocommons.com/platial/images/logotype_small.jpg\"></a>","id":"a6bn8cetjupo"},"type":"Feature","geometry":{"type":"Point","coordinates":[-73.29139,41.67528]}},{"properties":{"name":"AKADIRTYBIRD","description":"Posted by Mowace64138<a title=\"Built for Community Mapping\" href=\"http://www.platial.com\"><img src=\"http://media.geocommons.com/platial/images/logotype_small.jpg\"></a>","id":"a6bn8cshiprc"},"type":"Feature","geometry":{"type":"Point","coordinates":[-94.469677,38.975293]}},{"properties":{"name":"BIGB","description":"Posted by MowacePaisley Scotland<a title=\"Built for Community Mapping\" href=\"http://www.platial.com\"><img src=\"http://media.geocommons.com/platial/images/logotype_small.jpg\"></a>","id":"a6bn8codnljk"},"type":"Feature","geometry":{"type":"Point","coordinates":[-4.423604,55.845413]}},{"properties":{"name":"BeRadd","description":"Posted by Mowace290 E Queenwood Road<a title=\"Built for Community Mapping\" href=\"http://www.platial.com\"><img src=\"http://media.geocommons.com/platial/images/logotype_small.jpg\"></a>","id":"a6bn8cf3lkho"},"type":"Feature","geometry":{"type":"Point","coordinates":[-89.4637988,40.5907449]}},{"properties":{"name":"Bob","description":"Posted by Mowaceconnecticut<a title=\"Built for Community Mapping\" href=\"http://www.platial.com\"><img src=\"http://media.geocommons.com/platial/images/logotype_small.jpg\"></a>","id":"a6bn8cjk2kv3"},"type":"Feature","geometry":{"type":"Point","coordinates":[-72.685175,41.765867]}},{"properties":{"name":"Bozzvegas","description":"Posted by Mowacelas vegas<a title=\"Built for Community Mapping\" href=\"http://www.platial.com\"><img src=\"http://media.geocommons.com/platial/images/logotype_small.jpg\"></a>","id":"a6bn8cncm5jx"},"type":"Feature","geometry":{"type":"Point","coordinates":[-115.136389,36.175]}},{"properties":{"name":"Bradley","description":"Posted by MowaceNorth Sioux City<a title=\"Built for Community Mapping\" href=\"http://www.platial.com\"><img src=\"http://media.geocommons.com/platial/images/logotype_small.jpg\"></a>","id":"a6bn8cm5o1ey"},"type":"Feature","geometry":{"type":"Point","coordinates":[-96.502365,42.546443]}},{"properties":{"name":"Brock Nelson","description":"Posted by MowaceStewart B.C.<a title=\"Built for Community Mapping\" href=\"http://www.platial.com\"><img src=\"http://media.geocommons.com/platial/images/logotype_small.jpg\"></a>","id":"a6bn8ci97zs6"},"type":"Feature","geometry":{"type":"Point","coordinates":[-129.991049,55.936006]}},{"properties":{"name":"CeLL","description":"Posted by Mowace<img src=\"http://media.geocommons.com/platial/img/2009/12/1/baby_middle_finger_2_.jpg\">44004-=_=-<a title=\"Built for Community Mapping\" href=\"http://www.platial.com\"><img src=\"http://media.geocommons.com/platial/images/logotype_small.jpg\"></a>","id":"a6bn8ceq5rkt"},"type":"Feature","geometry":{"type":"Point","coordinates":[-80.787941,41.846622]}},{"properties":{"name":"Dweisel","description":"Posted by Mowace60099<a title=\"Built for Community Mapping\" href=\"http://www.platial.com\"><img src=\"http://media.geocommons.com/platial/images/logotype_small.jpg\"></a>","id":"a6bn8cud9tvd"},"type":"Feature","geometry":{"type":"Point","coordinates":[-87.874854,42.454209]}},{"properties":{"name":"Golden Icon","description":"Posted by Mowacealpharetta<a title=\"Built for Community Mapping\" href=\"http://www.platial.com\"><img src=\"http://media.geocommons.com/platial/images/logotype_small.jpg\"></a>","id":"a6bn8cifrnwx"},"type":"Feature","geometry":{"type":"Point","coordinates":[-84.29452,34.07537]}},{"properties":{"name":"Halowdpoint","description":"Posted by Mowace53809<a title=\"Built for Community Mapping\" href=\"http://www.platial.com\"><img src=\"http://media.geocommons.com/platial/images/logotype_small.jpg\"></a>","id":"a6bn8ck5hhvu"},"type":"Feature","geometry":{"type":"Point","coordinates":[-90.6204165,42.9983775]}},{"properties":{"name":"Hammer","description":"Posted by MowaceIndianapolis<a title=\"Built for Community Mapping\" href=\"http://www.platial.com\"><img src=\"http://media.geocommons.com/platial/images/logotype_small.jpg\"></a>","id":"a6bn8cpff9z1"},"type":"Feature","geometry":{"type":"Point","coordinates":[-86.158056,39.768333]}},{"properties":{"name":"HeliTaxi","description":"Posted by MowaceBad Cambergyour good old friend <a title=\"Built for Community Mapping\" href=\"http://www.platial.com\"><img src=\"http://media.geocommons.com/platial/images/logotype_small.jpg\"></a>","id":"a6bn8craosdg"},"type":"Feature","geometry":{"type":"Point","coordinates":[8.26607,50.298132]}},{"properties":{"name":"Joolips","description":"Posted by MowacecorkImeacht gan teacht ort <a title=\"Built for Community Mapping\" href=\"http://www.platial.com\"><img src=\"http://media.geocommons.com/platial/images/logotype_small.jpg\"></a>","id":"a6bn8cran6mj"},"type":"Feature","geometry":{"type":"Point","coordinates":[-8.47,51.900001]}},{"properties":{"name":"MOW Confed","description":"Posted by Mowace30102<a title=\"Built for Community Mapping\" href=\"http://www.platial.com\"><img src=\"http://media.geocommons.com/platial/images/logotype_small.jpg\"></a>","id":"a6bn8cnmltks"},"type":"Feature","geometry":{"type":"Point","coordinates":[-84.637923,34.108712]}},{"properties":{"name":"MOW Sniper","description":"Posted by Mowace26003<a title=\"Built for Community Mapping\" href=\"http://www.platial.com\"><img src=\"http://media.geocommons.com/platial/images/logotype_small.jpg\"></a>","id":"a6bn8cfelfq7"},"type":"Feature","geometry":{"type":"Point","coordinates":[-80.685126,40.072736]}},{"properties":{"name":"MOW_Alfi360","description":"Posted by MowaceAlicanteHolasss a todos\rholas :)                                  hello &amp; hola<a title=\"Built for Community Mapping\" href=\"http://www.platial.com\"><img src=\"http://media.geocommons.com/platial/images/logotype_small.jpg\"></a>","id":"a6bn8ci4kgg5"},"type":"Feature","geometry":{"type":"Point","coordinates":[-0.483333,38.349999]}},{"properties":{"name":"MOW_HaLoWdPoInT","description":"Posted by Mowace53809<a title=\"Built for Community Mapping\" href=\"http://www.platial.com\"><img src=\"http://media.geocommons.com/platial/images/logotype_small.jpg\"></a>","id":"a6bn8cnic398"},"type":"Feature","geometry":{"type":"Point","coordinates":[-90.6204165,42.9983775]}},{"properties":{"name":"MOW_Headroom","description":"Posted by MowaceArchamps<a title=\"Built for Community Mapping\" href=\"http://www.platial.com\"><img src=\"http://media.geocommons.com/platial/images/logotype_small.jpg\"></a>","id":"a6bn8cqn5kix"},"type":"Feature","geometry":{"type":"Point","coordinates":[6.1332749,46.1355081]}},{"properties":{"name":"MOW_REBELSOUL","description":"Posted by Mowaceacworth<a title=\"Built for Community Mapping\" href=\"http://www.platial.com\"><img src=\"http://media.geocommons.com/platial/images/logotype_small.jpg\"></a>","id":"a6bn8cn43ep6"},"type":"Feature","geometry":{"type":"Point","coordinates":[-84.665077,34.060116]}},{"properties":{"name":"MOW_Tank","description":"Posted by Mowace30121<a title=\"Built for Community Mapping\" href=\"http://www.platial.com\"><img src=\"http://media.geocommons.com/platial/images/logotype_small.jpg\"></a>","id":"a6bn8ci309h8"},"type":"Feature","geometry":{"type":"Point","coordinates":[-84.762891,34.186228]}},{"properties":{"name":"MOW_Zimba","description":"Posted by Mowace26040<a title=\"Built for Community Mapping\" href=\"http://www.platial.com\"><img src=\"http://media.geocommons.com/platial/images/logotype_small.jpg\"></a>","id":"a6bn8cfp5lh6"},"type":"Feature","geometry":{"type":"Point","coordinates":[-80.7297571,39.9911498]}},{"properties":{"name":"Matt","description":"Posted by Mowacefaetteville<a title=\"Built for Community Mapping\" href=\"http://www.platial.com\"><img src=\"http://media.geocommons.com/platial/images/logotype_small.jpg\"></a>","id":"a6bn8co2ygax"},"type":"Feature","geometry":{"type":"Point","coordinates":[-94.154419,36.074017]}},{"properties":{"name":"Mike Patterson","description":"Posted by MowaceGeorgetown Ontario Canada<a title=\"Built for Community Mapping\" href=\"http://www.platial.com\"><img src=\"http://media.geocommons.com/platial/images/logotype_small.jpg\"></a>","id":"a6bn8cowrutp"},"type":"Feature","geometry":{"type":"Point","coordinates":[-79.917025,43.660426]}},{"properties":{"name":"Morgan","description":"Posted by MowaceSpringfield, OR<a title=\"Built for Community Mapping\" href=\"http://www.platial.com\"><img src=\"http://media.geocommons.com/platial/images/logotype_small.jpg\"></a>","id":"a6bn8co1ro9g"},"type":"Feature","geometry":{"type":"Point","coordinates":[-123.020833,44.046389]}},{"properties":{"name":"Mow Capricorn","description":"Posted by Mowacerock hill sc<a title=\"Built for Community Mapping\" href=\"http://www.platial.com\"><img src=\"http://media.geocommons.com/platial/images/logotype_small.jpg\"></a>","id":"a6bn8ceymdfz"},"type":"Feature","geometry":{"type":"Point","coordinates":[-81.027418,34.936348]}},{"properties":{"name":"Mow_MadMutha","description":"Posted by MowaceElizabeth South Australia<a title=\"Built for Community Mapping\" href=\"http://www.platial.com\"><img src=\"http://media.geocommons.com/platial/images/logotype_small.jpg\"></a>","id":"a6bn8cjw6csn"},"type":"Feature","geometry":{"type":"Point","coordinates":[138.661797,-34.733516]}},{"properties":{"name":"S.W.A.T","description":"Posted by Mowacedenmark<a title=\"Built for Community Mapping\" href=\"http://www.platial.com\"><img src=\"http://media.geocommons.com/platial/images/logotype_small.jpg\"></a>","id":"a6bn8ckz5tpr"},"type":"Feature","geometry":{"type":"Point","coordinates":[11.61861,56.154163]}},{"properties":{"name":"Sniper(Brian)","description":"Posted by Mowace26003<a title=\"Built for Community Mapping\" href=\"http://www.platial.com\"><img src=\"http://media.geocommons.com/platial/images/logotype_small.jpg\"></a>","id":"a6bn8cr69gc9"},"type":"Feature","geometry":{"type":"Point","coordinates":[-80.685126,40.072736]}},{"properties":{"name":"Snowman","description":"Posted by MowaceHalstead, Ks<a title=\"Built for Community Mapping\" href=\"http://www.platial.com\"><img src=\"http://media.geocommons.com/platial/images/logotype_small.jpg\"></a>","id":"a6bn8csyi4b6"},"type":"Feature","geometry":{"type":"Point","coordinates":[-97.5086518,38.0014004]}},{"properties":{"name":"Turtle","description":"Posted by MowaceWheeling, WV<a title=\"Built for Community Mapping\" href=\"http://www.platial.com\"><img src=\"http://media.geocommons.com/platial/images/logotype_small.jpg\"></a>","id":"a6bn8coqdzua"},"type":"Feature","geometry":{"type":"Point","coordinates":[-80.721111,40.063889]}},{"properties":{"name":"Turtle","description":"Posted by Mowace26003<a title=\"Built for Community Mapping\" href=\"http://www.platial.com\"><img src=\"http://media.geocommons.com/platial/images/logotype_small.jpg\"></a>","id":"a6bn8cjci9sf"},"type":"Feature","geometry":{"type":"Point","coordinates":[-80.685126,40.072736]}},{"properties":{"name":"[HS]coRpSE","description":"Posted by MowaceEast windsor<a title=\"Built for Community Mapping\" href=\"http://www.platial.com\"><img src=\"http://media.geocommons.com/platial/images/logotype_small.jpg\"></a>","id":"a6bn8cjhw6qp"},"type":"Feature","geometry":{"type":"Point","coordinates":[-74.530262,40.258872]}},{"properties":{"name":"capslock","description":"Posted by MowaceRomford, Greater London, UK<a title=\"Built for Community Mapping\" href=\"http://www.platial.com\"><img src=\"http://media.geocommons.com/platial/images/logotype_small.jpg\"></a>","id":"a6bn8cixj830"},"type":"Feature","geometry":{"type":"Point","coordinates":[0.1838708,51.5741517]}},{"properties":{"name":"jarcojklPanda","description":"Posted by Mowacetimisoara<a title=\"Built for Community Mapping\" href=\"http://www.platial.com\"><img src=\"http://media.geocommons.com/platial/images/logotype_small.jpg\"></a>","id":"a6bn8ch2ojdr"},"type":"Feature","geometry":{"type":"Point","coordinates":[21.225176,45.747937]}},{"properties":{"name":"kronos","description":"Posted by Mowace<img src=\"http://media.geocommons.com/platial/img/2010/01/4/Picture_028.jpg\">south carolina<a title=\"Built for Community Mapping\" href=\"http://www.platial.com\"><img src=\"http://media.geocommons.com/platial/images/logotype_small.jpg\"></a>","id":"a6bn8comaoho"},"type":"Feature","geometry":{"type":"Point","coordinates":[-80.963471,33.621426]}},{"properties":{"name":"sean","description":"Posted by Mowace4207 Harris place wilmington de<a title=\"Built for Community Mapping\" href=\"http://www.platial.com\"><img src=\"http://media.geocommons.com/platial/images/logotype_small.jpg\"></a>","id":"a6bn8cjcn5gr"},"type":"Feature","geometry":{"type":"Point","coordinates":[-75.648632,39.72425]}},{"properties":{"name":"shufnehr","description":"Posted by MowaceFrankfurt, Germanyhallo from germany<a title=\"Built for Community Mapping\" href=\"http://www.platial.com\"><img src=\"http://media.geocommons.com/platial/images/logotype_small.jpg\"></a>","id":"a6bn8cepvlkk"},"type":"Feature","geometry":{"type":"Point","coordinates":[8.684307,50.112258]}}],"is_temporal":false,"author":{"url":"http://www.platial.com/map/620020","metadata":null,"contact_name":"mowace","contact_address":null,"source":"platial:mowace","contact_phone":null},"source":"http://www.platial.com/map/620020","pagination":{"sort":null,"start":0,"total":49,"limit":1000000},"state":"complete","tags":"platial,platial:id=620020,platial:user=mowace","published":"2010-03-03T17:00:00Z","id":30895}