{"type":"FeatureCollection","data_type":"Dataset","url_type":null,"permissions":[{"permissions":{"download":true,"view":true},"group_id":"everyone"}],"classification":null,"title":"Philippines financed activities","count":82,"stream_id":312107,"contributor":{"url":"http://geocommons.com/users/59309","name":"jinsan1973"},"data_attributes":null,"calculation_params":null,"icon_link":null,"link":"http://geocommons.com/overlays/312107.json","extent":[118.745,5.11988,126.274,20.6912],"geometry_types":["point"],"unique_name":null,"name":"Philippines financed activities","feature_count":82,"description":"","next_feature":null,"is_raster":false,"short_classification":"Y","stats":{"latitude":{"max":20.69118,"mean":11.8740197073171,"variance":14.1812775089509,"stdev":3.76580370026784,"median":11.657691,"min":5.119879},"project count":{"max":12,"mean":5.68292682926829,"variance":5.00933453778982,"stdev":2.23815427032853,"median":6,"min":2},"longitude":{"max":126.273895,"mean":122.848474121951,"variance":3.47719186561292,"stdev":1.86472299970074,"median":122.708367,"min":118.744877}},"features":[{"properties":{"latitude":17.567527,"admprecision":"ADM1","adm1 name":"Abra","longitude":120.794941,"project count":4,"id":"abjcwz0pcker"},"type":"Feature","geometry":{"type":"Point","coordinates":[120.794941,17.567527]}},{"properties":{"latitude":9.059037,"admprecision":"ADM1","adm1 name":"Agusan del Norte","longitude":125.486592,"project count":5,"id":"abjcwz2bb5pv"},"type":"Feature","geometry":{"type":"Point","coordinates":[125.486592,9.059037]}},{"properties":{"latitude":8.585089,"admprecision":"ADM1","adm1 name":"Agusan del Sur","longitude":125.801243,"project count":7,"id":"abjcwz189saj"},"type":"Feature","geometry":{"type":"Point","coordinates":[125.801243,8.585089]}},{"properties":{"latitude":11.655835,"admprecision":"ADM1","adm1 name":"Aklan","longitude":122.210746,"project count":3,"id":"abjcwyxrq3j4"},"type":"Feature","geometry":{"type":"Point","coordinates":[122.210746,11.655835]}},{"properties":{"latitude":13.254595,"admprecision":"ADM1","adm1 name":"Albay","longitude":123.74786,"project count":8,"id":"abjcwyrdtb43"},"type":"Feature","geometry":{"type":"Point","coordinates":[123.74786,13.254595]}},{"properties":{"latitude":11.262351,"admprecision":"ADM1","adm1 name":"Antique","longitude":121.804149,"project count":2,"id":"abjcwz44xff5"},"type":"Feature","geometry":{"type":"Point","coordinates":[121.804149,11.262351]}},{"properties":{"latitude":18.082756,"admprecision":"ADM1","adm1 name":"Apayao","longitude":121.208737,"project count":3,"id":"abjcwyyvoi2h"},"type":"Feature","geometry":{"type":"Point","coordinates":[121.208737,18.082756]}},{"properties":{"latitude":15.782218,"admprecision":"ADM1","adm1 name":"Aurora","longitude":121.531204,"project count":2,"id":"abjcwz2tj626"},"type":"Feature","geometry":{"type":"Point","coordinates":[121.531204,15.782218]}},{"properties":{"latitude":6.592571,"admprecision":"ADM1","adm1 name":"Basilan","longitude":121.918194,"project count":7,"id":"abjcwz06k05f"},"type":"Feature","geometry":{"type":"Point","coordinates":[121.918194,6.592571]}},{"properties":{"latitude":14.646865,"admprecision":"ADM1","adm1 name":"Bataan","longitude":120.42337,"project count":5,"id":"abjcwyyo3a3u"},"type":"Feature","geometry":{"type":"Point","coordinates":[120.42337,14.646865]}},{"properties":{"latitude":20.69118,"admprecision":"ADM1","adm1 name":"Batanes","longitude":121.906879,"project count":4,"id":"abjcwys2ab45"},"type":"Feature","geometry":{"type":"Point","coordinates":[121.906879,20.69118]}},{"properties":{"latitude":13.882915,"admprecision":"ADM1","adm1 name":"Batangas","longitude":120.979253,"project count":4,"id":"abjcwz1ltf8k"},"type":"Feature","geometry":{"type":"Point","coordinates":[120.979253,13.882915]}},{"properties":{"latitude":16.561251,"admprecision":"ADM1","adm1 name":"Benguet","longitude":120.687153,"project count":3,"id":"abjcwz0gorba"},"type":"Feature","geometry":{"type":"Point","coordinates":[120.687153,16.561251]}},{"properties":{"latitude":11.639693,"admprecision":"ADM1","adm1 name":"Biliran","longitude":124.436909,"project count":5,"id":"abjcwz3dmr4d"},"type":"Feature","geometry":{"type":"Point","coordinates":[124.436909,11.639693]}},{"properties":{"latitude":9.886366,"admprecision":"ADM1","adm1 name":"Bohol","longitude":124.163303,"project count":8,"id":"abjcwz0u3h8g"},"type":"Feature","geometry":{"type":"Point","coordinates":[124.163303,9.886366]}},{"properties":{"latitude":7.997126,"admprecision":"ADM1","adm1 name":"Bukidnon","longitude":124.969868,"project count":6,"id":"abjcwywrx7uo"},"type":"Feature","geometry":{"type":"Point","coordinates":[124.969868,7.997126]}},{"properties":{"latitude":14.982197,"admprecision":"ADM1","adm1 name":"Bulacan","longitude":121.004082,"project count":7,"id":"abjcwyyg320p"},"type":"Feature","geometry":{"type":"Point","coordinates":[121.004082,14.982197]}},{"properties":{"latitude":18.098469,"admprecision":"ADM1","adm1 name":"Cagayan","longitude":121.763624,"project count":5,"id":"abjcwyycen7s"},"type":"Feature","geometry":{"type":"Point","coordinates":[121.763624,18.098469]}},{"properties":{"latitude":14.16887,"admprecision":"ADM1","adm1 name":"Camarines Norte","longitude":122.708367,"project count":5,"id":"abjcwz3tgo44"},"type":"Feature","geometry":{"type":"Point","coordinates":[122.708367,14.16887]}},{"properties":{"latitude":13.695411,"admprecision":"ADM1","adm1 name":"Camarines Sur","longitude":123.275285,"project count":7,"id":"abjcwz0s1ku1"},"type":"Feature","geometry":{"type":"Point","coordinates":[123.275285,13.695411]}},{"properties":{"latitude":9.168087,"admprecision":"ADM1","adm1 name":"Camiguin","longitude":124.719917,"project count":4,"id":"abjcwys2pcyx"},"type":"Feature","geometry":{"type":"Point","coordinates":[124.719917,9.168087]}},{"properties":{"latitude":11.392941,"admprecision":"ADM1","adm1 name":"Capiz","longitude":122.649322,"project count":6,"id":"abjcwyxmyfjf"},"type":"Feature","geometry":{"type":"Point","coordinates":[122.649322,11.392941]}},{"properties":{"latitude":13.81286,"admprecision":"ADM1","adm1 name":"Catanduanes","longitude":124.219413,"project count":6,"id":"abjcwz3rhbzn"},"type":"Feature","geometry":{"type":"Point","coordinates":[124.219413,13.81286]}},{"properties":{"latitude":14.280806,"admprecision":"ADM1","adm1 name":"Cavite","longitude":120.841812,"project count":4,"id":"abjcwz5j55px"},"type":"Feature","geometry":{"type":"Point","coordinates":[120.841812,14.280806]}},{"properties":{"latitude":10.497094,"admprecision":"ADM1","adm1 name":"Cebu","longitude":123.932636,"project count":5,"id":"abjcwz23wo24"},"type":"Feature","geometry":{"type":"Point","coordinates":[123.932636,10.497094]}},{"properties":{"latitude":7.537187,"admprecision":"ADM1","adm1 name":"Compostela Valley","longitude":125.985519,"project count":7,"id":"abjcwyzs5rn3"},"type":"Feature","geometry":{"type":"Point","coordinates":[125.985519,7.537187]}},{"properties":{"latitude":7.135033,"admprecision":"ADM1","adm1 name":"Davao Oriental","longitude":126.273895,"project count":8,"id":"abjcwytvt4v7"},"type":"Feature","geometry":{"type":"Point","coordinates":[126.273895,7.135033]}},{"properties":{"latitude":7.44521,"admprecision":"ADM1","adm1 name":"Davao del Norte","longitude":125.597221,"project count":6,"id":"abjcwyumfpdl"},"type":"Feature","geometry":{"type":"Point","coordinates":[125.597221,7.44521]}},{"properties":{"latitude":6.467025,"admprecision":"ADM1","adm1 name":"Davao del Sur","longitude":125.409031,"project count":5,"id":"abjcwyypduet"},"type":"Feature","geometry":{"type":"Point","coordinates":[125.409031,6.467025]}},{"properties":{"latitude":10.11219,"admprecision":"ADM1","adm1 name":"Dinagat Islands","longitude":125.667114,"project count":2,"id":"abjcwyve243n"},"type":"Feature","geometry":{"type":"Point","coordinates":[125.667114,10.11219]}},{"properties":{"latitude":11.657691,"admprecision":"ADM1","adm1 name":"Eastern Samar","longitude":125.379914,"project count":5,"id":"abjcwz1aczav"},"type":"Feature","geometry":{"type":"Point","coordinates":[125.379914,11.657691]}},{"properties":{"latitude":10.541448,"admprecision":"ADM1","adm1 name":"Guimaras","longitude":122.609016,"project count":3,"id":"abjcwz2spun6"},"type":"Feature","geometry":{"type":"Point","coordinates":[122.609016,10.541448]}},{"properties":{"latitude":16.837931,"admprecision":"ADM1","adm1 name":"Ifugao","longitude":121.234863,"project count":4,"id":"abjcwz0y6dqa"},"type":"Feature","geometry":{"type":"Point","coordinates":[121.234863,16.837931]}},{"properties":{"latitude":18.177566,"admprecision":"ADM1","adm1 name":"Ilocos Norte","longitude":120.694908,"project count":8,"id":"abjcwysw8tgu"},"type":"Feature","geometry":{"type":"Point","coordinates":[120.694908,18.177566]}},{"properties":{"latitude":17.281766,"admprecision":"ADM1","adm1 name":"Ilocos Sur","longitude":120.601136,"project count":4,"id":"abjcwysahho9"},"type":"Feature","geometry":{"type":"Point","coordinates":[120.601136,17.281766]}},{"properties":{"latitude":11.053214,"admprecision":"ADM1","adm1 name":"Iloilo","longitude":122.692081,"project count":10,"id":"abjcwz1zyrx3"},"type":"Feature","geometry":{"type":"Point","coordinates":[122.692081,11.053214]}},{"properties":{"latitude":16.96888,"admprecision":"ADM1","adm1 name":"Isabela","longitude":121.930089,"project count":9,"id":"abjcwyw16s4x"},"type":"Feature","geometry":{"type":"Point","coordinates":[121.930089,16.96888]}},{"properties":{"latitude":17.428971,"admprecision":"ADM1","adm1 name":"Kalinga","longitude":121.294883,"project count":3,"id":"abjcwyr06em6"},"type":"Feature","geometry":{"type":"Point","coordinates":[121.294883,17.428971]}},{"properties":{"latitude":16.564462,"admprecision":"ADM1","adm1 name":"La Union","longitude":120.428967,"project count":4,"id":"abjcwyrmxc0q"},"type":"Feature","geometry":{"type":"Point","coordinates":[120.428967,16.564462]}},{"properties":{"latitude":14.270006,"admprecision":"ADM1","adm1 name":"Laguna","longitude":121.318863,"project count":10,"id":"abjcwywv3dmn"},"type":"Feature","geometry":{"type":"Point","coordinates":[121.318863,14.270006]}},{"properties":{"latitude":8.01737,"admprecision":"ADM1","adm1 name":"Lanao del Norte","longitude":124.098134,"project count":7,"id":"abjcwz4u3msx"},"type":"Feature","geometry":{"type":"Point","coordinates":[124.098134,8.01737]}},{"properties":{"latitude":7.806245,"admprecision":"ADM1","adm1 name":"Lanao del Sur","longitude":124.311505,"project count":8,"id":"abjcwz3z3cps"},"type":"Feature","geometry":{"type":"Point","coordinates":[124.311505,7.806245]}},{"properties":{"latitude":10.856604,"admprecision":"ADM1","adm1 name":"Leyte","longitude":124.719127,"project count":6,"id":"abjcwyxg4wq5"},"type":"Feature","geometry":{"type":"Point","coordinates":[124.719127,10.856604]}},{"properties":{"latitude":7.150931,"admprecision":"ADM1","adm1 name":"Maguindanao","longitude":124.532055,"project count":10,"id":"abjcwyz73tnw"},"type":"Feature","geometry":{"type":"Point","coordinates":[124.532055,7.150931]}},{"properties":{"latitude":13.379886,"admprecision":"ADM1","adm1 name":"Marinduque","longitude":121.996494,"project count":3,"id":"abjcwyw9flg3"},"type":"Feature","geometry":{"type":"Point","coordinates":[121.996494,13.379886]}},{"properties":{"latitude":12.465973,"admprecision":"ADM1","adm1 name":"Masbate","longitude":123.473445,"project count":7,"id":"abjcwyxfeeel"},"type":"Feature","geometry":{"type":"Point","coordinates":[123.473445,12.465973]}},{"properties":{"latitude":14.565295,"admprecision":"ADM1","adm1 name":"Metropolitan Manila","longitude":121.02451,"project count":8,"id":"abjcwyydbg1s"},"type":"Feature","geometry":{"type":"Point","coordinates":[121.02451,14.565295]}},{"properties":{"latitude":8.340137,"admprecision":"ADM1","adm1 name":"Misamis Occidental","longitude":123.708461,"project count":7,"id":"abjcwyr9bxkg"},"type":"Feature","geometry":{"type":"Point","coordinates":[123.708461,8.340137]}},{"properties":{"latitude":8.663879,"admprecision":"ADM1","adm1 name":"Misamis Oriental","longitude":124.750557,"project count":3,"id":"abjcwysrpd2x"},"type":"Feature","geometry":{"type":"Point","coordinates":[124.750557,8.663879]}},{"properties":{"latitude":17.064435,"admprecision":"ADM1","adm1 name":"Mountain Province","longitude":121.168349,"project count":3,"id":"abjcwz2uo0e6"},"type":"Feature","geometry":{"type":"Point","coordinates":[121.168349,17.064435]}},{"properties":{"latitude":10.232083,"admprecision":"ADM1","adm1 name":"Negros Occidental","longitude":122.968869,"project count":8,"id":"abjcwyu9iyb0"},"type":"Feature","geometry":{"type":"Point","coordinates":[122.968869,10.232083]}},{"properties":{"latitude":9.725808,"admprecision":"ADM1","adm1 name":"Negros Oriental","longitude":122.974472,"project count":6,"id":"abjcwz4c5t4k"},"type":"Feature","geometry":{"type":"Point","coordinates":[122.974472,9.725808]}},{"properties":{"latitude":7.220846,"admprecision":"ADM1","adm1 name":"North Cotabato","longitude":124.821053,"project count":7,"id":"abjcwz5sa1r2"},"type":"Feature","geometry":{"type":"Point","coordinates":[124.821053,7.220846]}},{"properties":{"latitude":12.448762,"admprecision":"ADM1","adm1 name":"Northern Samar","longitude":124.672325,"project count":4,"id":"abjcwz2n46rn"},"type":"Feature","geometry":{"type":"Point","coordinates":[124.672325,12.448762]}},{"properties":{"latitude":15.646295,"admprecision":"ADM1","adm1 name":"Nueva Ecija","longitude":120.99451,"project count":3,"id":"abjcwyw4gvm0"},"type":"Feature","geometry":{"type":"Point","coordinates":[120.99451,15.646295]}},{"properties":{"latitude":16.25949,"admprecision":"ADM1","adm1 name":"Nueva Vizcaya","longitude":121.113323,"project count":4,"id":"abjcwz4etmjp"},"type":"Feature","geometry":{"type":"Point","coordinates":[121.113323,16.25949]}},{"properties":{"latitude":12.976711,"admprecision":"ADM1","adm1 name":"Occidental Mindoro","longitude":120.889353,"project count":6,"id":"abjcwysxshep"},"type":"Feature","geometry":{"type":"Point","coordinates":[120.889353,12.976711]}},{"properties":{"latitude":12.863195,"admprecision":"ADM1","adm1 name":"Oriental Mindoro","longitude":121.177631,"project count":7,"id":"abjcwz4psv8z"},"type":"Feature","geometry":{"type":"Point","coordinates":[121.177631,12.863195]}},{"properties":{"latitude":9.96771,"admprecision":"ADM1","adm1 name":"Palawan","longitude":118.744877,"project count":6,"id":"abjcwz2g59na"},"type":"Feature","geometry":{"type":"Point","coordinates":[118.744877,9.96771]}},{"properties":{"latitude":15.019314,"admprecision":"ADM1","adm1 name":"Pampanga","longitude":120.6727,"project count":4,"id":"abjcwyukzw9m"},"type":"Feature","geometry":{"type":"Point","coordinates":[120.6727,15.019314]}},{"properties":{"latitude":16.031185,"admprecision":"ADM1","adm1 name":"Pangasinan","longitude":120.335888,"project count":4,"id":"abjcwz5detu5"},"type":"Feature","geometry":{"type":"Point","coordinates":[120.335888,16.031185]}},{"properties":{"latitude":12.820443,"admprecision":"ADM1","adm1 name":"Quezon","longitude":123.235222,"project count":12,"id":"abjcwyxtlz7t"},"type":"Feature","geometry":{"type":"Point","coordinates":[123.235222,12.820443]}},{"properties":{"latitude":16.279062,"admprecision":"ADM1","adm1 name":"Quirino","longitude":121.712684,"project count":3,"id":"abjcwyyvnp0s"},"type":"Feature","geometry":{"type":"Point","coordinates":[121.712684,16.279062]}},{"properties":{"latitude":14.59144,"admprecision":"ADM1","adm1 name":"Rizal","longitude":121.281605,"project count":9,"id":"abjcwyszeimg"},"type":"Feature","geometry":{"type":"Point","coordinates":[121.281605,14.59144]}},{"properties":{"latitude":12.531667,"admprecision":"ADM1","adm1 name":"Romblon","longitude":122.189866,"project count":6,"id":"abjcwywaywyp"},"type":"Feature","geometry":{"type":"Point","coordinates":[122.189866,12.531667]}},{"properties":{"latitude":11.710444,"admprecision":"ADM1","adm1 name":"Samar","longitude":124.725887,"project count":5,"id":"abjcwyzqlw08"},"type":"Feature","geometry":{"type":"Point","coordinates":[124.725887,11.710444]}},{"properties":{"latitude":6.018044,"admprecision":"ADM1","adm1 name":"Sarangani","longitude":124.944874,"project count":5,"id":"abjcwz4xeh72"},"type":"Feature","geometry":{"type":"Point","coordinates":[124.944874,6.018044]}},{"properties":{"latitude":7.211433,"admprecision":"ADM1","adm1 name":"Shariff Kabunsuan","longitude":124.244213,"project count":4,"id":"abjcwz06hjub"},"type":"Feature","geometry":{"type":"Point","coordinates":[124.244213,7.211433]}},{"properties":{"latitude":9.197729,"admprecision":"ADM1","adm1 name":"Siquijor","longitude":123.576989,"project count":3,"id":"abjcwyqif485"},"type":"Feature","geometry":{"type":"Point","coordinates":[123.576989,9.197729]}},{"properties":{"latitude":12.820715,"admprecision":"ADM1","adm1 name":"Sorsogon","longitude":123.839745,"project count":7,"id":"abjcwyshvhae"},"type":"Feature","geometry":{"type":"Point","coordinates":[123.839745,12.820715]}},{"properties":{"latitude":6.312873,"admprecision":"ADM1","adm1 name":"South Cotabato","longitude":124.77676,"project count":9,"id":"abjcwyrphmhk"},"type":"Feature","geometry":{"type":"Point","coordinates":[124.77676,6.312873]}},{"properties":{"latitude":10.258482,"admprecision":"ADM1","adm1 name":"Southern Leyte","longitude":125.026027,"project count":2,"id":"abjcwyyv4oam"},"type":"Feature","geometry":{"type":"Point","coordinates":[125.026027,10.258482]}},{"properties":{"latitude":6.498507,"admprecision":"ADM1","adm1 name":"Sultan Kudarat","longitude":124.606097,"project count":6,"id":"abjcwyvtp3sb"},"type":"Feature","geometry":{"type":"Point","coordinates":[124.606097,6.498507]}},{"properties":{"latitude":6.049076,"admprecision":"ADM1","adm1 name":"Sulu","longitude":121.162471,"project count":7,"id":"abjcwz5tmggs"},"type":"Feature","geometry":{"type":"Point","coordinates":[121.162471,6.049076]}},{"properties":{"latitude":9.898211,"admprecision":"ADM1","adm1 name":"Surigao del Norte","longitude":125.787375,"project count":4,"id":"abjcwyywlbmi"},"type":"Feature","geometry":{"type":"Point","coordinates":[125.787375,9.898211]}},{"properties":{"latitude":8.702448,"admprecision":"ADM1","adm1 name":"Surigao del Sur","longitude":126.101582,"project count":9,"id":"abjcwz4jq9w5"},"type":"Feature","geometry":{"type":"Point","coordinates":[126.101582,8.702448]}},{"properties":{"latitude":15.526071,"admprecision":"ADM1","adm1 name":"Tarlac","longitude":120.473053,"project count":7,"id":"abjcwyza3ise"},"type":"Feature","geometry":{"type":"Point","coordinates":[120.473053,15.526071]}},{"properties":{"latitude":5.119879,"admprecision":"ADM1","adm1 name":"Tawi-Tawi","longitude":119.933528,"project count":7,"id":"abjcwyx70fhq"},"type":"Feature","geometry":{"type":"Point","coordinates":[119.933528,5.119879]}},{"properties":{"latitude":15.291519,"admprecision":"ADM1","adm1 name":"Zambales","longitude":120.123032,"project count":4,"id":"abjcwywzbia8"},"type":"Feature","geometry":{"type":"Point","coordinates":[120.123032,15.291519]}},{"properties":{"latitude":7.605444,"admprecision":"ADM1","adm1 name":"Zamboanga Sibugay","longitude":122.362936,"project count":5,"id":"abjcwz0qcjm0"},"type":"Feature","geometry":{"type":"Point","coordinates":[122.362936,7.605444]}},{"properties":{"latitude":8.002766,"admprecision":"ADM1","adm1 name":"Zamboanga del Norte","longitude":122.728325,"project count":9,"id":"abjcwyy40ifj"},"type":"Feature","geometry":{"type":"Point","coordinates":[122.728325,8.002766]}},{"properties":{"latitude":7.798519,"admprecision":"ADM1","adm1 name":"Zamboanga del Sur","longitude":123.29261,"project count":9,"id":"abjcwysamlnn"},"type":"Feature","geometry":{"type":"Point","coordinates":[123.29261,7.798519]}}],"is_temporal":false,"author":{"url":"","metadata":"","contact_name":"","contact_address":"","source":"","contact_phone":""},"source":"","pagination":{"sort":null,"start":0,"total":82,"limit":1000000},"state":"complete","tags":"activities,financed","published":"2014-08-16T15:33:06-04:00","id":312107}