{"type":"FeatureCollection","data_type":"Dataset","url_type":null,"permissions":[{"permissions":{"download":true,"view":true},"group_id":"everyone"}],"classification":null,"title":"SmallCellsconverted13013","count":150,"stream_id":315927,"contributor":{"url":"http://geocommons.com/users/12008","name":"pantheon"},"data_attributes":null,"calculation_params":null,"icon_link":null,"link":"http://geocommons.com/overlays/315927.json","extent":[-103.856,37.2067,-79.9539,48.3428],"geometry_types":["point"],"unique_name":null,"name":"SmallCellsconverted13013","feature_count":150,"description":"","next_feature":null,"is_raster":false,"short_classification":"Y","stats":{"newlong":{"max":-79.95388889,"variance":40.0503374001214,"mean":-86.841924074,"stdev":6.32853359002869,"min":-103.8555556,"median":-83.64333333},"newlat":{"max":48.34277778,"variance":4.68785617809626,"mean":40.8238629629333,"stdev":2.16514576370651,"min":37.20666667,"median":40.09833333}},"features":[{"properties":{"category":"PI Small Cell","site name":"South Side Works","oldlat":"40 25 38","newlong":-79.96472222,"oldlon":"-79 57 53","id":"abus9q2m3by8","site id":"Pittsburgh","newlat":40.42722222},"type":"Feature","geometry":{"type":"Point","coordinates":[-79.96472222,40.42722222]}},{"properties":{"category":"PI Small Cell","site name":"Station Square","oldlat":"40 26 05","newlong":-80.00722222,"oldlon":"-80 0 26","id":"abus9qd04dzv","site id":"Pittsburgh","newlat":40.43472222},"type":"Feature","geometry":{"type":"Point","coordinates":[-80.00722222,40.43472222]}},{"properties":{"category":"PI Small Cell","site name":"Tennyson Ave","oldlat":"40 26 46","newlong":-79.95388889,"oldlon":"-79 57 14","id":"abus9qg9m5kk","site id":"Pittsburgh","newlat":40.44611111},"type":"Feature","geometry":{"type":"Point","coordinates":[-79.95388889,40.44611111]}},{"properties":{"category":"PI Small Cell","site name":"Grant and Liberty","oldlat":"40 26 37","newlong":-79.99388889,"oldlon":"-79 59 38","id":"abus9qhf0opg","site id":"Pittsburgh","newlat":40.44361111},"type":"Feature","geometry":{"type":"Point","coordinates":[-79.99388889,40.44361111]}},{"properties":{"category":"PI Small Cell","site name":"Robinson Center","oldlat":"40 27 16","newlong":-80.1575,"oldlon":"-80 09 27","id":"abus9q6xhhd0","site id":"Robinson","newlat":40.45444444},"type":"Feature","geometry":{"type":"Point","coordinates":[-80.1575,40.45444444]}},{"properties":{"category":"PI Small Cell","site name":"South Hills Village","oldlat":"40 20 33","newlong":-80.05638889,"oldlon":"-80 3 23","id":"abus9qfa7j8l","site id":"South Hills","newlat":40.3425},"type":"Feature","geometry":{"type":"Point","coordinates":[-80.05638889,40.3425]}},{"properties":{"category":"KM Small Cell","site name":"SIU campus north end","oldlat":"37 43 05","newlong":-89.22027778,"oldlon":"-89 13 13","id":"abus9q9hil3s","site id":null,"newlat":37.71805556},"type":"Feature","geometry":{"type":"Point","coordinates":[-89.22027778,37.71805556]}},{"properties":{"category":"KM Small Cell","site name":"South End of Arch Grounds","oldlat":"38 37 22","newlong":-90.18888889,"oldlon":"-90 11 20","id":"abus9qav7y04","site id":null,"newlat":38.62277778},"type":"Feature","geometry":{"type":"Point","coordinates":[-90.18888889,38.62277778]}},{"properties":{"category":"KM Small Cell","site name":"Mardi Gras COLT locale 1","oldlat":"38 36 19","newlong":-90.20444444,"oldlon":"-90 12 16","id":"abus9qdflwrf","site id":null,"newlat":38.60527778},"type":"Feature","geometry":{"type":"Point","coordinates":[-90.20444444,38.60527778]}},{"properties":{"category":"KM Small Cell","site name":"Mardi Gras COLT locale 2","oldlat":"38 36 25","newlong":-90.20666667,"oldlon":"-90 12 24","id":"abus9qbq468b","site id":null,"newlat":38.60694444},"type":"Feature","geometry":{"type":"Point","coordinates":[-90.20666667,38.60694444]}},{"properties":{"category":"KM Small Cell","site name":"Mardi Gras COLT locale 3","oldlat":"38 36 36","newlong":-90.19722222,"oldlon":"-90 11 50","id":"abus9qeclz5p","site id":null,"newlat":38.61},"type":"Feature","geometry":{"type":"Point","coordinates":[-90.19722222,38.61]}},{"properties":{"category":"KM Small Cell","site name":"Walnut St/ Hammons Pkwy intersection","oldlat":"37 12 24","newlong":-93.28194444,"oldlon":"-93 16 55","id":"abus9q7t4k40","site id":null,"newlat":37.20666667},"type":"Feature","geometry":{"type":"Point","coordinates":[-93.28194444,37.20666667]}},{"properties":{"category":"KM Small Cell","site name":"Central/ Rock Intersection","oldlat":"37 41 38","newlong":-97.24444444,"oldlon":"-97 14 40","id":"abus9q4c1dbi","site id":null,"newlat":37.69388889},"type":"Feature","geometry":{"type":"Point","coordinates":[-97.24444444,37.69388889]}},{"properties":{"category":"KM Small Cell","site name":"Near Campbell/ Walnut intersection, NW of","oldlat":"37 12 30","newlong":-93.29555556,"oldlon":"-93 17 44","id":"abus9qf63997","site id":null,"newlat":37.20833333},"type":"Feature","geometry":{"type":"Point","coordinates":[-93.29555556,37.20833333]}},{"properties":{"category":"KM Small Cell","site name":"Boston Park Rec Center","oldlat":"37 40 04","newlong":-97.25916667,"oldlon":"-97 15 33","id":"abus9q33dtap","site id":null,"newlat":37.66777778},"type":"Feature","geometry":{"type":"Point","coordinates":[-97.25916667,37.66777778]}},{"properties":{"category":"KM Small Cell","site name":"Near 21st and Grove Intersection, just west","oldlat":"37 43 20","newlong":-97.30972222,"oldlon":"-97 18 35","id":"abus9qab5upi","site id":null,"newlat":37.72222222},"type":"Feature","geometry":{"type":"Point","coordinates":[-97.30972222,37.72222222]}},{"properties":{"category":"KM Small Cell","site name":"East end of Aggieville","oldlat":"39 11 10","newlong":-96.57388889,"oldlon":"-96 34 26","id":"abus9q8ad7l0","site id":null,"newlat":39.18611111},"type":"Feature","geometry":{"type":"Point","coordinates":[-96.57388889,39.18611111]}},{"properties":{"category":"KM Small Cell","site name":"Poyntz &amp; 9th","oldlat":"39 10 46","newlong":-96.57111111,"oldlon":"-96 34 16","id":"abus9qbqv7ds","site id":null,"newlat":39.17944444},"type":"Feature","geometry":{"type":"Point","coordinates":[-96.57111111,39.17944444]}},{"properties":{"category":"KM Small Cell","site name":"Crawford &amp; Merrill","oldlat":"38 49 38","newlong":-97.53666667,"oldlon":"-97 32 12","id":"abus9q5p9zbz","site id":null,"newlat":38.82722222},"type":"Feature","geometry":{"type":"Point","coordinates":[-97.53666667,38.82722222]}},{"properties":{"category":"KM Small Cell","site name":"Sheridan &amp; Republic","oldlat":"38 49 11","newlong":-97.61944444,"oldlon":"-97 37 10","id":"abus9qgpt00z","site id":null,"newlat":38.81972222},"type":"Feature","geometry":{"type":"Point","coordinates":[-97.61944444,38.81972222]}},{"properties":{"category":"KM Small Cell","site name":"Center between Johnson and Hamline","oldlat":"37 58 56","newlong":-100.8588889,"oldlon":"-100 51 32","id":"abus9q3qvvjx","site id":null,"newlat":37.98222222},"type":"Feature","geometry":{"type":"Point","coordinates":[-100.8588889,37.98222222]}},{"properties":{"category":"KM Small Cell","site name":"8th St near Albert","oldlat":"37 58 45","newlong":-100.8747222,"oldlon":"-100 52 29","id":"abus9q3v0i67","site id":null,"newlat":37.97916667},"type":"Feature","geometry":{"type":"Point","coordinates":[-100.8747222,37.97916667]}},{"properties":{"category":"KM Small Cell","site name":"Corbin Park VZW Store","oldlat":"38 52 59","newlong":-94.66388889,"oldlon":"-94 39 50","id":"abus9q6xh8c8","site id":null,"newlat":38.88305556},"type":"Feature","geometry":{"type":"Point","coordinates":[-94.66388889,38.88305556]}},{"properties":{"category":"KM Small Cell","site name":"Lee Summit Warehouse","oldlat":"38 56 11","newlong":-94.37916667,"oldlon":"-94 22 45","id":"abus9q9p536p","site id":null,"newlat":38.93638889},"type":"Feature","geometry":{"type":"Point","coordinates":[-94.37916667,38.93638889]}},{"properties":{"category":"OH Small Cell","site name":"Fifth Third Field","oldlat":"41 38 57","newlong":-83.53777778,"oldlon":"-83 32 16","id":"abus9qaa2g84","site id":"Toledo","newlat":41.64916667},"type":"Feature","geometry":{"type":"Point","coordinates":[-83.53777778,41.64916667]}},{"properties":{"category":"OH Small Cell","site name":"FRANKLIN PARK MALL","oldlat":"41 41 33","newlong":-83.64333333,"oldlon":"-83 38 36","id":"abus9q2vivbn","site id":"Toledo","newlat":41.6925},"type":"Feature","geometry":{"type":"Point","coordinates":[-83.64333333,41.6925]}},{"properties":{"category":"OH Small Cell","site name":"CEDAR POINT PARK","oldlat":"41 28 38","newlong":-82.67805556,"oldlon":"-82 40 41","id":"abus9q99n43o","site id":"Sandusky","newlat":41.47722222},"type":"Feature","geometry":{"type":"Point","coordinates":[-82.67805556,41.47722222]}},{"properties":{"category":"OH Small Cell","site name":"WALLEYE","oldlat":"41 39 04","newlong":-83.53777778,"oldlon":"-83 32 16","id":"abus9q3y7j5e","site id":"Toledo","newlat":41.65111111},"type":"Feature","geometry":{"type":"Point","coordinates":[-83.53777778,41.65111111]}},{"properties":{"category":"OH Small Cell","site name":"UNIV OF FINDLAY","oldlat":"41 3 14","newlong":-83.65194444,"oldlon":"-83 39 07","id":"abus9qad2c4k","site id":"Findlay","newlat":41.05388889},"type":"Feature","geometry":{"type":"Point","coordinates":[-83.65194444,41.05388889]}},{"properties":{"category":"OH Small Cell","site name":"BGSU","oldlat":"41 22 33","newlong":-83.63305556,"oldlon":"-83 37 59","id":"abus9q6cjikb","site id":"Bowling Green","newlat":41.37583333},"type":"Feature","geometry":{"type":"Point","coordinates":[-83.63305556,41.37583333]}},{"properties":{"category":"OH Small Cell","site name":"LIMA MALL","oldlat":"40 45 53","newlong":-84.15027778,"oldlon":"-84 09 01","id":"abus9qhxa4q6","site id":"Lima","newlat":40.76472222},"type":"Feature","geometry":{"type":"Point","coordinates":[-84.15027778,40.76472222]}},{"properties":{"category":"OH Small Cell","site name":"OHIO NORTHERN","oldlat":"40 46 04","newlong":-83.83083333,"oldlon":"-83 49 51","id":"abus9qfnavze","site id":"Lima","newlat":40.76777778},"type":"Feature","geometry":{"type":"Point","coordinates":[-83.83083333,40.76777778]}},{"properties":{"category":"OH Small Cell","site name":"HEIDELBERG UNIVERSITY","oldlat":"40 06 55","newlong":-83.16638889,"oldlon":"-83 09 59","id":"abus9q4b4la7","site id":"Tiffin","newlat":40.11527778},"type":"Feature","geometry":{"type":"Point","coordinates":[-83.16638889,40.11527778]}},{"properties":{"category":"OH Small Cell","site name":"OWENS CC","oldlat":"41 35 29","newlong":-83.53416667,"oldlon":"-83 32 03","id":"abus9qg4n23u","site id":"Toledo","newlat":41.59138889},"type":"Feature","geometry":{"type":"Point","coordinates":[-83.53416667,41.59138889]}},{"properties":{"category":"OH Small Cell","site name":"FALLEN TIMBERS","oldlat":"41 32 48","newlong":-83.70666667,"oldlon":"-83 42 24","id":"abus9qhj9d38","site id":"Toledo","newlat":41.54666667},"type":"Feature","geometry":{"type":"Point","coordinates":[-83.70666667,41.54666667]}},{"properties":{"category":"OH Small Cell","site name":"Brunswick Industrial","oldlat":"41 14 37","newlong":-81.79333333,"oldlon":"-81 47 36","id":"abus9qdpmgzh","site id":"Cleveland","newlat":41.24361111},"type":"Feature","geometry":{"type":"Point","coordinates":[-81.79333333,41.24361111]}},{"properties":{"category":"OH Small Cell","site name":"Akron Airport Terminal","oldlat":"40 54 52","newlong":-81.43527778,"oldlon":"-81 26 07","id":"abus9q3ds5r4","site id":"Akron","newlat":40.91444444},"type":"Feature","geometry":{"type":"Point","coordinates":[-81.43527778,40.91444444]}},{"properties":{"category":"OH Small Cell","site name":"Shaker Blvd","oldlat":"41 28 43","newlong":-81.52722222,"oldlon":"-81 31 38","id":"abus9q3zuc13","site id":"Cleveland","newlat":41.47861111},"type":"Feature","geometry":{"type":"Point","coordinates":[-81.52722222,41.47861111]}},{"properties":{"category":"OH Small Cell","site name":"Canton &amp; RT30","oldlat":"40 46 37","newlong":-81.4425,"oldlon":"-81 26 33","id":"abus9qdtsnky","site id":"Canton","newlat":40.77694444},"type":"Feature","geometry":{"type":"Point","coordinates":[-81.4425,40.77694444]}},{"properties":{"category":"OH Small Cell","site name":"Twinsburg &amp; RT14","oldlat":"41 18 47","newlong":-81.4425,"oldlon":"-81 26 33","id":"abus9qhgfaba","site id":"Cleveland","newlat":41.31305556},"type":"Feature","geometry":{"type":"Point","coordinates":[-81.4425,41.31305556]}},{"properties":{"category":"OH Small Cell","site name":"University of Dayton","oldlat":"39 44 38","newlong":-84.19111111,"oldlon":"-84 11 28","id":"abus9q89mue0","site id":null,"newlat":39.74388889},"type":"Feature","geometry":{"type":"Point","coordinates":[-84.19111111,39.74388889]}},{"properties":{"category":"OH Small Cell","site name":"Cincinnati Zoo","oldlat":"39 08 13","newlong":-84.5,"oldlon":"-84 30 0","id":"abus9q495evy","site id":null,"newlat":39.13694444},"type":"Feature","geometry":{"type":"Point","coordinates":[-84.5,39.13694444]}},{"properties":{"category":"OH Small Cell","site name":"Northgate Mall","oldlat":"39 14 46","newlong":-84.61,"oldlon":"-84 36 36","id":"abus9q2b49k5","site id":null,"newlat":39.24611111},"type":"Feature","geometry":{"type":"Point","coordinates":[-84.61,39.24611111]}},{"properties":{"category":"OH Small Cell","site name":"West Chester Shopping Area (West)","oldlat":"39 18 07","newlong":-84.43611111,"oldlon":"-84 26 10","id":"abus9qcll6vj","site id":null,"newlat":39.30194444},"type":"Feature","geometry":{"type":"Point","coordinates":[-84.43611111,39.30194444]}},{"properties":{"category":"OH Small Cell","site name":"Dayton Airport","oldlat":"39 55 01","newlong":-84.24305556,"oldlon":"-84 14 35","id":"abus9q78c73d","site id":null,"newlat":39.91694444},"type":"Feature","geometry":{"type":"Point","coordinates":[-84.24305556,39.91694444]}},{"properties":{"category":"OH Small Cell","site name":"Eastgate Mall","oldlat":"39 05 42","newlong":-84.28111111,"oldlon":"-84 16 52","id":"abus9qdnuy04","site id":null,"newlat":39.095},"type":"Feature","geometry":{"type":"Point","coordinates":[-84.28111111,39.095]}},{"properties":{"category":"OH Small Cell","site name":"Town Center Shopping Mall","oldlat":"39 01 59","newlong":-84.59305556,"oldlon":"-84 35 35","id":"abus9qbhiorb","site id":null,"newlat":39.03305556},"type":"Feature","geometry":{"type":"Point","coordinates":[-84.59305556,39.03305556]}},{"properties":{"category":"OH Small Cell","site name":"Erie Ave Shopping Area","oldlat":"39 08 42","newlong":-84.42805556,"oldlon":"-84 25 41","id":"abus9qawwwkf","site id":null,"newlat":39.145},"type":"Feature","geometry":{"type":"Point","coordinates":[-84.42805556,39.145]}},{"properties":{"category":"OH Small Cell","site name":"Cincinnati Airport (CVG)","oldlat":"39 03 29","newlong":-84.62388889,"oldlon":"-84 37 26","id":"abus9q9p8bpk","site id":null,"newlat":39.05805556},"type":"Feature","geometry":{"type":"Point","coordinates":[-84.62388889,39.05805556]}},{"properties":{"category":"OH Small Cell","site name":"Harper's Point","oldlat":"39 14 34","newlong":-84.28222222,"oldlon":"-84 16 56","id":"abus9qaslfx6","site id":null,"newlat":39.24277778},"type":"Feature","geometry":{"type":"Point","coordinates":[-84.28222222,39.24277778]}},{"properties":{"category":"OH Small Cell","site name":"Cincinnati Outlet Mall","oldlat":"39 24 25","newlong":-84.34111111,"oldlon":"-84 20 28","id":"abus9q9sflzc","site id":null,"newlat":39.40694444},"type":"Feature","geometry":{"type":"Point","coordinates":[-84.34111111,39.40694444]}},{"properties":{"category":"OH Small Cell","site name":"Union Terminal","oldlat":"39 06 22","newlong":-84.55805556,"oldlon":"-84 33 29","id":"abus9q1fglr8","site id":null,"newlat":39.10611111},"type":"Feature","geometry":{"type":"Point","coordinates":[-84.55805556,39.10611111]}},{"properties":{"category":"OH Small Cell","site name":"Riverfest Ohio Side","oldlat":"39 06 23","newlong":-84.5,"oldlon":"-84 30 0","id":"abus9qb1lo5r","site id":null,"newlat":39.10638889},"type":"Feature","geometry":{"type":"Point","coordinates":[-84.5,39.10638889]}},{"properties":{"category":"OH Small Cell","site name":"Riverfront Hotel District","oldlat":"39 05 06","newlong":-84.52111111,"oldlon":"-84 31 16","id":"abus9q8ezs7d","site id":null,"newlat":39.085},"type":"Feature","geometry":{"type":"Point","coordinates":[-84.52111111,39.085]}},{"properties":{"category":"OH Small Cell","site name":"Shopping Center","oldlat":"39 04 8","newlong":-84.465,"oldlon":"-84 27 54","id":"abus9qe92vyr","site id":null,"newlat":39.06888889},"type":"Feature","geometry":{"type":"Point","coordinates":[-84.465,39.06888889]}},{"properties":{"category":"OH Small Cell","site name":"Riverfest KY Side","oldlat":"39 05 44","newlong":-84.48,"oldlon":"-84 28 48","id":"abus9q218a2b","site id":null,"newlat":39.09555556},"type":"Feature","geometry":{"type":"Point","coordinates":[-84.48,39.09555556]}},{"properties":{"category":"OH Small Cell","site name":"Wright State University (West/Housing)","oldlat":"39 41 42","newlong":-84.08,"oldlon":"-84 04 48","id":"abus9qfii1wm","site id":null,"newlat":39.695},"type":"Feature","geometry":{"type":"Point","coordinates":[-84.08,39.695]}},{"properties":{"category":"OH Small Cell","site name":"West Chester Shopping Area (East)","oldlat":"39 17 38","newlong":-84.45194444,"oldlon":"-84 27 07","id":"abus9q5iju0b","site id":null,"newlat":39.29388889},"type":"Feature","geometry":{"type":"Point","coordinates":[-84.45194444,39.29388889]}},{"properties":{"category":"OH Small Cell","site name":"Wright State University","oldlat":"39 46 33","newlong":-84.05111111,"oldlon":"-84 03 4","id":"abus9q371bd1","site id":null,"newlat":39.77583333},"type":"Feature","geometry":{"type":"Point","coordinates":[-84.05111111,39.77583333]}},{"properties":{"category":"OH Small Cell","site name":"Fairfield Commons Mall","oldlat":"39 46 33","newlong":-84.05111111,"oldlon":"-84 03 4","id":"abus9qfloctw","site id":null,"newlat":39.77583333},"type":"Feature","geometry":{"type":"Point","coordinates":[-84.05111111,39.77583333]}},{"properties":{"category":"OH Small Cell","site name":"P&amp;G and Shopping area","oldlat":"39 17 49","newlong":-84.31805556,"oldlon":"-84 19 05","id":"abus9qfsg6rh","site id":null,"newlat":39.29694444},"type":"Feature","geometry":{"type":"Point","coordinates":[-84.31805556,39.29694444]}},{"properties":{"category":"OH Small Cell","site name":"VZW Sales office/training","oldlat":"39 17 49","newlong":-84.31805556,"oldlon":"-84 19 05","id":"abus9qdrjuzs","site id":null,"newlat":39.29694444},"type":"Feature","geometry":{"type":"Point","coordinates":[-84.31805556,39.29694444]}},{"properties":{"category":"OH Small Cell","site name":"TriCounty Mall","oldlat":"39 17 49","newlong":-84.46388889,"oldlon":"-84 27 50","id":"abus9q3xq8vn","site id":null,"newlat":39.29694444},"type":"Feature","geometry":{"type":"Point","coordinates":[-84.46388889,39.29694444]}},{"properties":{"category":"OH Small Cell","site name":"Coverage hole I-75 and I-70","oldlat":"39 52 44","newlong":-84.18611111,"oldlon":"-84 11 10","id":"abus9q1sbh4c","site id":null,"newlat":39.87888889},"type":"Feature","geometry":{"type":"Point","coordinates":[-84.18611111,39.87888889]}},{"properties":{"category":"OH Small Cell","site name":"Airforce Base","oldlat":"39 47 49","newlong":-84.04111111,"oldlon":"-84 02 28","id":"abus9qb42y0v","site id":null,"newlat":39.79694444},"type":"Feature","geometry":{"type":"Point","coordinates":[-84.04111111,39.79694444]}},{"properties":{"category":"OH Small Cell","site name":"GroveCityDowntown-SmallCell","oldlat":"39 52 57","newlong":-83.09166667,"oldlon":"-83 05 30","id":"abus9q5fo0zs","site id":null,"newlat":39.8825},"type":"Feature","geometry":{"type":"Point","coordinates":[-83.09166667,39.8825]}},{"properties":{"category":"OH Small Cell","site name":"GroveCitySouth-SmallCell","oldlat":"39 50 21","newlong":-83.08777778,"oldlon":"-83 05 16","id":"abus9qb8tv1i","site id":null,"newlat":39.83916667},"type":"Feature","geometry":{"type":"Point","coordinates":[-83.08777778,39.83916667]}},{"properties":{"category":"OH Small Cell","site name":"GroveCityNorth-SmallCell","oldlat":"39 53 04","newlong":-83.07111111,"oldlon":"-83 04 16","id":"abus9q4y206m","site id":null,"newlat":39.88444444},"type":"Feature","geometry":{"type":"Point","coordinates":[-83.07111111,39.88444444]}},{"properties":{"category":"OH Small Cell","site name":"PlainTwpEast-SmallCell","oldlat":"40 04 29","newlong":-82.84527778,"oldlon":"-82 50 43","id":"abus9q3po70g","site id":null,"newlat":40.07472222},"type":"Feature","geometry":{"type":"Point","coordinates":[-82.84527778,40.07472222]}},{"properties":{"category":"OH Small Cell","site name":"BlendonWoodsEast-SmallCell","oldlat":"40 05 16","newlong":-82.82666667,"oldlon":"-82 49 36","id":"abus9q6iugbd","site id":null,"newlat":40.08777778},"type":"Feature","geometry":{"type":"Point","coordinates":[-82.82666667,40.08777778]}},{"properties":{"category":"OH Small Cell","site name":"NewAlbanyNorth-SmallCell","oldlat":"40 06 20","newlong":-82.82611111,"oldlon":"-82 49 34","id":"abus9q31u6mr","site id":null,"newlat":40.10555556},"type":"Feature","geometry":{"type":"Point","coordinates":[-82.82611111,40.10555556]}},{"properties":{"category":"OH Small Cell","site name":"NewAlbanySW-SmallCell","oldlat":"40 04 18","newlong":-82.8225,"oldlon":"-82 49 21","id":"abus9q6hqfvc","site id":null,"newlat":40.07166667},"type":"Feature","geometry":{"type":"Point","coordinates":[-82.8225,40.07166667]}},{"properties":{"category":"OH Small Cell","site name":"NewRomeSouth-SmallCell","oldlat":"39 55 51","newlong":-83.15222222,"oldlon":"-83 09 08","id":"abus9q4ob1r9","site id":null,"newlat":39.93083333},"type":"Feature","geometry":{"type":"Point","coordinates":[-83.15222222,39.93083333]}},{"properties":{"category":"OH Small Cell","site name":"ShadevilleEast-SmallCell","oldlat":"39 49 09","newlong":-82.95361111,"oldlon":"-82 57 13","id":"abus9q4iqvwg","site id":null,"newlat":39.81916667},"type":"Feature","geometry":{"type":"Point","coordinates":[-82.95361111,39.81916667]}},{"properties":{"category":"OH Small Cell","site name":"Rickenbacker-SmallCell","oldlat":"39 49 25","newlong":-82.93305556,"oldlon":"-82 55 59","id":"abus9q4ytnhv","site id":null,"newlat":39.82361111},"type":"Feature","geometry":{"type":"Point","coordinates":[-82.93305556,39.82361111]}},{"properties":{"category":"OH Small Cell","site name":"HilltopEast-SmallCell","oldlat":"39 55 38","newlong":-83.05611111,"oldlon":"-83 03 22","id":"abus9q3098rc","site id":null,"newlat":39.92722222},"type":"Feature","geometry":{"type":"Point","coordinates":[-83.05611111,39.92722222]}},{"properties":{"category":"OH Small Cell","site name":"JacksonTwpNorth-SmallCell","oldlat":"39 54 55","newlong":-83.03638889,"oldlon":"-83 02 11","id":"abus9qby2lz7","site id":null,"newlat":39.91527778},"type":"Feature","geometry":{"type":"Point","coordinates":[-83.03638889,39.91527778]}},{"properties":{"category":"OH Small Cell","site name":"EastHilliardNW-SmallCell","oldlat":"40 02 57","newlong":-83.15055556,"oldlon":"-83 09 02","id":"abus9qefnq4n","site id":null,"newlat":40.04916667},"type":"Feature","geometry":{"type":"Point","coordinates":[-83.15055556,40.04916667]}},{"properties":{"category":"OH Small Cell","site name":"HooverResSW-SmallCell","oldlat":"40 07 56","newlong":-82.91444444,"oldlon":"-82 54 52","id":"abus9q1p4b12","site id":null,"newlat":40.13222222},"type":"Feature","geometry":{"type":"Point","coordinates":[-82.91444444,40.13222222]}},{"properties":{"category":"OH Small Cell","site name":"HooverResSouth-SmallCell","oldlat":"40 07 11","newlong":-82.91305556,"oldlon":"-82 54 47","id":"abus9q9cgoxm","site id":null,"newlat":40.11972222},"type":"Feature","geometry":{"type":"Point","coordinates":[-82.91305556,40.11972222]}},{"properties":{"category":"OH Small Cell","site name":"EastColumbusEast-SmallCell","oldlat":"39 54 36","newlong":-82.82333333,"oldlon":"-82 49 24","id":"abus9qcwae2h","site id":null,"newlat":39.91},"type":"Feature","geometry":{"type":"Point","coordinates":[-82.82333333,39.91]}},{"properties":{"category":"OH Small Cell","site name":"MadisonNorth-SmallCell","oldlat":"39 54 28","newlong":-82.865,"oldlon":"-82 51 54","id":"abus9q4ytrds","site id":null,"newlat":39.90777778},"type":"Feature","geometry":{"type":"Point","coordinates":[-82.865,39.90777778]}},{"properties":{"category":"OH Small Cell","site name":"EastonWayWest-SmallCell","oldlat":"40 02 47","newlong":-82.92027778,"oldlon":"-82 55 13","id":"abus9q9h9jw6","site id":null,"newlat":40.04638889},"type":"Feature","geometry":{"type":"Point","coordinates":[-82.92027778,40.04638889]}},{"properties":{"category":"OH Small Cell","site name":"DuxberryParkNorth-SmallCell","oldlat":"40 01 00","newlong":-82.96083333,"oldlon":"-82 57 39","id":"abus9qa3ee9x","site id":null,"newlat":40.01666667},"type":"Feature","geometry":{"type":"Point","coordinates":[-82.96083333,40.01666667]}},{"properties":{"category":"OH Small Cell","site name":"DevryNorth-SmallCell","oldlat":"39 56 53","newlong":-82.93722222,"oldlon":"-82 56 14","id":"abus9q8los1b","site id":null,"newlat":39.94805556},"type":"Feature","geometry":{"type":"Point","coordinates":[-82.93722222,39.94805556]}},{"properties":{"category":"OH Small Cell","site name":"PolarisNorth-SmallCell","oldlat":"40 08 53","newlong":-82.97333333,"oldlon":"-82 58 24","id":"abus9qem4j7i","site id":null,"newlat":40.14805556},"type":"Feature","geometry":{"type":"Point","coordinates":[-82.97333333,40.14805556]}},{"properties":{"category":"OH Small Cell","site name":"BerwickNorth-SmallCell","oldlat":"39 56 46","newlong":-82.89555556,"oldlon":"-82 53 44","id":"abus9q2w7k7d","site id":null,"newlat":39.94611111},"type":"Feature","geometry":{"type":"Point","coordinates":[-82.89555556,39.94611111]}},{"properties":{"category":"OH Small Cell","site name":"ConsumerSquareSouth-SmallCell","oldlat":"39 55 04","newlong":-82.80333333,"oldlon":"-82 48 12","id":"abus9q30cyua","site id":null,"newlat":39.91777778},"type":"Feature","geometry":{"type":"Point","coordinates":[-82.80333333,39.91777778]}},{"properties":{"category":"OH Small Cell","site name":"DublinWest-SmallCell","oldlat":"40 07 44","newlong":-83.19972222,"oldlon":"-83 11 59","id":"abus9q5lnn39","site id":null,"newlat":40.12888889},"type":"Feature","geometry":{"type":"Point","coordinates":[-83.19972222,40.12888889]}},{"properties":{"category":"OH Small Cell","site name":"GroveportDowntown-SmallCell","oldlat":"39 51 05","newlong":-82.88444444,"oldlon":"-82 53 04","id":"abus9qfby6m7","site id":null,"newlat":39.85138889},"type":"Feature","geometry":{"type":"Point","coordinates":[-82.88444444,39.85138889]}},{"properties":{"category":"OH Small Cell","site name":"OSUCentralCampus-SmallCell","oldlat":"40 00 20","newlong":-83.00083333,"oldlon":"-83 00 03","id":"abus9qgte345","site id":null,"newlat":40.00555556},"type":"Feature","geometry":{"type":"Point","coordinates":[-83.00083333,40.00555556]}},{"properties":{"category":"OH Small Cell","site name":"RiversideWest-SmallCell","oldlat":"40 01 52","newlong":-83.04972222,"oldlon":"-83 02 59","id":"abus9q5738nm","site id":null,"newlat":40.03111111},"type":"Feature","geometry":{"type":"Point","coordinates":[-83.04972222,40.03111111]}},{"properties":{"category":"OH Small Cell","site name":"NWColumbusSouth-SmallCell","oldlat":"40 02 31","newlong":-83.05027778,"oldlon":"-83 03 01","id":"abus9qhpshc3","site id":null,"newlat":40.04194444},"type":"Feature","geometry":{"type":"Point","coordinates":[-83.05027778,40.04194444]}},{"properties":{"category":"OH Small Cell","site name":"OrangeTwpSW-SmallCell","oldlat":"40 09 25","newlong":-83.01916667,"oldlon":"-83 01 09","id":"abus9qay3vjr","site id":null,"newlat":40.15694444},"type":"Feature","geometry":{"type":"Point","coordinates":[-83.01916667,40.15694444]}},{"properties":{"category":"OH Small Cell","site name":"BexleyNW-SmallCell","oldlat":"39 58 10","newlong":-82.93444444,"oldlon":"-82 56 04","id":"abus9q3uj6yy","site id":null,"newlat":39.96944444},"type":"Feature","geometry":{"type":"Point","coordinates":[-82.93444444,39.96944444]}},{"properties":{"category":"OH Small Cell","site name":"EastHilliardWest-SmallCell","oldlat":"40 02 04","newlong":-83.15944444,"oldlon":"-83 09 34","id":"abus9qfq37jv","site id":null,"newlat":40.03444444},"type":"Feature","geometry":{"type":"Point","coordinates":[-83.15944444,40.03444444]}},{"properties":{"category":"OH Small Cell","site name":"EastHilliardSW-SmallCell","oldlat":"40 01 19","newlong":-83.16,"oldlon":"-83 09 36","id":"abus9q2jy0fi","site id":null,"newlat":40.02194444},"type":"Feature","geometry":{"type":"Point","coordinates":[-83.16,40.02194444]}},{"properties":{"category":"OH Small Cell","site name":"WilsonBridgeEast-SmallCell","oldlat":"40 07 02","newlong":-83.00333333,"oldlon":"-83 00 12","id":"abus9q9pzfpo","site id":null,"newlat":40.11722222},"type":"Feature","geometry":{"type":"Point","coordinates":[-83.00333333,40.11722222]}},{"properties":{"category":"OH Small Cell","site name":"NorthwoodsNorth-SmallCell","oldlat":"40 08 40","newlong":-83.0175,"oldlon":"-83 01 03","id":"abus9q4k2gyc","site id":null,"newlat":40.14444444},"type":"Feature","geometry":{"type":"Point","coordinates":[-83.0175,40.14444444]}},{"properties":{"category":"OH Small Cell","site name":"SEColumbusNE-SmallCell","oldlat":"39 56 19","newlong":-82.96444444,"oldlon":"-82 57 52","id":"abus9qfmugvv","site id":null,"newlat":39.93861111},"type":"Feature","geometry":{"type":"Point","coordinates":[-82.96444444,39.93861111]}},{"properties":{"category":"OH Small Cell","site name":"ObetzNorth-SmallCell","oldlat":"39 55 05","newlong":-82.93083333,"oldlon":"-82 55 51","id":"abus9q3i7n8w","site id":null,"newlat":39.91805556},"type":"Feature","geometry":{"type":"Point","coordinates":[-82.93083333,39.91805556]}},{"properties":{"category":"OH Small Cell","site name":"ObetzSouth-SmallCell","oldlat":"39 52 41","newlong":-82.95055556,"oldlon":"-82 57 02","id":"abus9q31ooin","site id":null,"newlat":39.87805556},"type":"Feature","geometry":{"type":"Point","coordinates":[-82.95055556,39.87805556]}},{"properties":{"category":"OH Small Cell","site name":"Cleveland161SE-SmallCell","oldlat":"40 04 50","newlong":-82.93138889,"oldlon":"-82 55 53","id":"abus9qe7wr3t","site id":null,"newlat":40.08055556},"type":"Feature","geometry":{"type":"Point","coordinates":[-82.93138889,40.08055556]}},{"properties":{"category":"OH Small Cell","site name":"NorthWorthingtonEast-SmallCell","oldlat":"40 05 54","newlong":-82.9875,"oldlon":"-82 59 15","id":"abus9qear2wh","site id":null,"newlat":40.09833333},"type":"Feature","geometry":{"type":"Point","coordinates":[-82.9875,40.09833333]}},{"properties":{"category":"OH Small Cell","site name":"TuttleCrossingSW-SmallCell","oldlat":"40 04 20","newlong":-83.13527778,"oldlon":"-83 08 07","id":"abus9q3gziv0","site id":null,"newlat":40.07222222},"type":"Feature","geometry":{"type":"Point","coordinates":[-83.13527778,40.07222222]}},{"properties":{"category":"OH Small Cell","site name":"SummitviewEast-SmallCell","oldlat":"40 07 58","newlong":-83.07055556,"oldlon":"-83 04 14","id":"abus9qgxkbrx","site id":null,"newlat":40.13277778},"type":"Feature","geometry":{"type":"Point","coordinates":[-83.07055556,40.13277778]}},{"properties":{"category":"OH Small Cell","site name":"LithopolisDT-SmallCell","oldlat":"39 48 11","newlong":-82.80388889,"oldlon":"-82 48 14","id":"abus9q71tml8","site id":null,"newlat":39.80305556},"type":"Feature","geometry":{"type":"Point","coordinates":[-82.80388889,39.80305556]}},{"properties":{"category":"GP Small Cell","site name":"Southdale Mall","oldlat":"44 52 49","newlong":-93.32638889,"oldlon":"-93 19 35","id":"abus9q1h5i3s","site id":null,"newlat":44.88027778},"type":"Feature","geometry":{"type":"Point","coordinates":[-93.32638889,44.88027778]}},{"properties":{"category":"GP Small Cell","site name":"Riverdale Outdoor Mall","oldlat":"45 11 56","newlong":-93.35472222,"oldlon":"-93 21 17","id":"abus9qg032gm","site id":null,"newlat":45.19888889},"type":"Feature","geometry":{"type":"Point","coordinates":[-93.35472222,45.19888889]}},{"properties":{"category":"GP Small Cell","site name":"Gaviidae","oldlat":"44 58 38","newlong":-93.27166667,"oldlon":"-93 16 18","id":"abus9q4k5a7p","site id":null,"newlat":44.97722222},"type":"Feature","geometry":{"type":"Point","coordinates":[-93.27166667,44.97722222]}},{"properties":{"category":"GP Small Cell","site name":"St Thomas","oldlat":"44 58 26","newlong":-93.27833333,"oldlon":"-93 16 42","id":"abus9q9y12kx","site id":null,"newlat":44.97388889},"type":"Feature","geometry":{"type":"Point","coordinates":[-93.27833333,44.97388889]}},{"properties":{"category":"GP Small Cell","site name":"Terminal 2","oldlat":"44 52 26","newlong":-93.22472222,"oldlon":"-93 13 29","id":"abus9qeligso","site id":null,"newlat":44.87388889},"type":"Feature","geometry":{"type":"Point","coordinates":[-93.22472222,44.87388889]}},{"properties":{"category":"GP Small Cell","site name":"Village Pointe","oldlat":"41 15 40","newlong":-96.18277778,"oldlon":"-96 10 58","id":"abus9q50ye5u","site id":null,"newlat":41.26111111},"type":"Feature","geometry":{"type":"Point","coordinates":[-96.18277778,41.26111111]}},{"properties":{"category":"GP Small Cell","site name":"48th&amp;O","oldlat":"40 48 50","newlong":-96.65166667,"oldlon":"-96 39 06","id":"abus9q90a2bw","site id":null,"newlat":40.81388889},"type":"Feature","geometry":{"type":"Point","coordinates":[-96.65166667,40.81388889]}},{"properties":{"category":"GP Small Cell","site name":"UNL","oldlat":"40 49 07","newlong":-96.70083333,"oldlon":"-96 42 03","id":"abus9q4v27hu","site id":null,"newlat":40.81861111},"type":"Feature","geometry":{"type":"Point","coordinates":[-96.70083333,40.81861111]}},{"properties":{"category":"GP Small Cell","site name":"MidAmerica Center","oldlat":"41 14 14","newlong":-95.88916667,"oldlon":"-95 53 21","id":"abus9qgrl5t6","site id":null,"newlat":41.23722222},"type":"Feature","geometry":{"type":"Point","coordinates":[-95.88916667,41.23722222]}},{"properties":{"category":"GP Small Cell","site name":"Waverly","oldlat":"40 54 48","newlong":-96.53138889,"oldlon":"-96 31 53","id":"abus9q6r2eli","site id":null,"newlat":40.91333333},"type":"Feature","geometry":{"type":"Point","coordinates":[-96.53138889,40.91333333]}},{"properties":{"category":"GP Small Cell","site name":"Thomasbrook","oldlat":"40 47 11","newlong":-96.63916667,"oldlon":"-96 38 21","id":"abus9q6t8hlb","site id":null,"newlat":40.78638889},"type":"Feature","geometry":{"type":"Point","coordinates":[-96.63916667,40.78638889]}},{"properties":{"category":"GP Small Cell","site name":"Southern Hills Small","oldlat":"42 26 44","newlong":-96.34555556,"oldlon":"-96 20 44","id":"abus9q34fpmt","site id":null,"newlat":42.44555556},"type":"Feature","geometry":{"type":"Point","coordinates":[-96.34555556,42.44555556]}},{"properties":{"category":"GP Small Cell","site name":"Morningside Small","oldlat":"42 28 29","newlong":-96.3625,"oldlon":"-96 21 45","id":"abus9qfj24p8","site id":null,"newlat":42.47472222},"type":"Feature","geometry":{"type":"Point","coordinates":[-96.3625,42.47472222]}},{"properties":{"category":"GP Small Cell","site name":"West IA Tech","oldlat":"42 29 03","newlong":-96.44666667,"oldlon":"-96 26 48","id":"abus9q6tpudk","site id":null,"newlat":42.48416667},"type":"Feature","geometry":{"type":"Point","coordinates":[-96.44666667,42.48416667]}},{"properties":{"category":"GP Small Cell","site name":"Small Ellsworth","oldlat":"44 08 50","newlong":-103.0908333,"oldlon":"-103 05 27","id":"abus9qaht5p1","site id":null,"newlat":44.14722222},"type":"Feature","geometry":{"type":"Point","coordinates":[-103.0908333,44.14722222]}},{"properties":{"category":"GP Small Cell","site name":"Ells Neighbor","oldlat":"44 09 24","newlong":-103.07,"oldlon":"-103 04 12","id":"abus9qazdnue","site id":null,"newlat":44.15666667},"type":"Feature","geometry":{"type":"Point","coordinates":[-103.07,44.15666667]}},{"properties":{"category":"GP Small Cell","site name":"Black Gold","oldlat":"48 12 55","newlong":-103.6266667,"oldlon":"-103 37 36","id":"abus9q1nu39f","site id":null,"newlat":48.21527778},"type":"Feature","geometry":{"type":"Point","coordinates":[-103.6266667,48.21527778]}},{"properties":{"category":"GP Small Cell","site name":"Burke Remote","oldlat":"48 13 36","newlong":-103.625,"oldlon":"-103 37 30","id":"abus9qd2z4zw","site id":null,"newlat":48.22666667},"type":"Feature","geometry":{"type":"Point","coordinates":[-103.625,48.22666667]}},{"properties":{"category":"GP Small Cell","site name":"Ameritech","oldlat":"48 13 00","newlong":-103.6258333,"oldlon":"-103 37 33","id":"abus9q2dez2i","site id":null,"newlat":48.21666667},"type":"Feature","geometry":{"type":"Point","coordinates":[-103.6258333,48.21666667]}},{"properties":{"category":"GP Small Cell","site name":"Target Logistics","oldlat":"48 07 40","newlong":-103.8555556,"oldlon":"-103 51 20","id":"abus9qcy378r","site id":null,"newlat":48.12777778},"type":"Feature","geometry":{"type":"Point","coordinates":[-103.8555556,48.12777778]}},{"properties":{"category":"GP Small Cell","site name":"Capital Lodge","oldlat":"48 20 34","newlong":-103.0344444,"oldlon":"-103 02 04","id":"abus9q84656c","site id":null,"newlat":48.34277778},"type":"Feature","geometry":{"type":"Point","coordinates":[-103.0344444,48.34277778]}},{"properties":{"category":"GP Small Cell","site name":"Grand Stand","oldlat":"44 58 54","newlong":-93.17555556,"oldlon":"-93 10 32","id":"abus9qe6izvj","site id":null,"newlat":44.98166667},"type":"Feature","geometry":{"type":"Point","coordinates":[-93.17555556,44.98166667]}},{"properties":{"category":"GP Small Cell","site name":"Tiger Lot","oldlat":"44 59 05","newlong":-93.17027778,"oldlon":"-93 10 13","id":"abus9q5zyokh","site id":null,"newlat":44.98472222},"type":"Feature","geometry":{"type":"Point","coordinates":[-93.17027778,44.98472222]}},{"properties":{"category":"MI Small Cell","site name":"Detroit 1","oldlat":"42 12 36","newlong":-83.23,"oldlon":"-83 13 48","id":"abus9q51o970","site id":null,"newlat":42.21},"type":"Feature","geometry":{"type":"Point","coordinates":[-83.23,42.21]}},{"properties":{"category":"MI Small Cell","site name":"Detroit 2","oldlat":"42 16 48","newlong":-83.18,"oldlon":"-83 10 48","id":"abus9qd6w2ii","site id":null,"newlat":42.28},"type":"Feature","geometry":{"type":"Point","coordinates":[-83.18,42.28]}},{"properties":{"category":"MI Small Cell","site name":"Detroit 3","oldlat":"42 19 12","newlong":-83.44,"oldlon":"-83 26 24","id":"abus9qgud5gn","site id":null,"newlat":42.32},"type":"Feature","geometry":{"type":"Point","coordinates":[-83.44,42.32]}},{"properties":{"category":"MI Small Cell","site name":"Detroit 4","oldlat":"42 19 48","newlong":-83.44,"oldlon":"-83 26 24","id":"abus9q27prfx","site id":null,"newlat":42.33},"type":"Feature","geometry":{"type":"Point","coordinates":[-83.44,42.33]}},{"properties":{"category":"MI Small Cell","site name":"Detroit 5","oldlat":"42 23 60","newlong":-83.19,"oldlon":"-83 11 24","id":"abus9q27h9p8","site id":null,"newlat":42.4},"type":"Feature","geometry":{"type":"Point","coordinates":[-83.19,42.4]}},{"properties":{"category":"MI Small Cell","site name":"Detroit 6","oldlat":"42 27 0","newlong":-83.13,"oldlon":"-83 07 48","id":"abus9qgyjy5a","site id":null,"newlat":42.45},"type":"Feature","geometry":{"type":"Point","coordinates":[-83.13,42.45]}},{"properties":{"category":"MI Small Cell","site name":"Detroit 7","oldlat":"42 26 24","newlong":-83.26,"oldlon":"-83 15 36","id":"abus9q66s6bp","site id":null,"newlat":42.44},"type":"Feature","geometry":{"type":"Point","coordinates":[-83.26,42.44]}},{"properties":{"category":"MI Small Cell","site name":"Detroit 8","oldlat":"42 28 12","newlong":-83.45,"oldlon":"-83 27 00","id":"abus9qc2e9fs","site id":null,"newlat":42.47},"type":"Feature","geometry":{"type":"Point","coordinates":[-83.45,42.47]}},{"properties":{"category":"MI Small Cell","site name":"Detroit 9","oldlat":"42 29 24","newlong":-83.44,"oldlon":"-83 26 24","id":"abus9q7hg850","site id":null,"newlat":42.49},"type":"Feature","geometry":{"type":"Point","coordinates":[-83.44,42.49]}},{"properties":{"category":"MI Small Cell","site name":"Detroit 10","oldlat":"42 30 00","newlong":-83.25,"oldlon":"-83 15 00","id":"abus9qfo1gg9","site id":null,"newlat":42.5},"type":"Feature","geometry":{"type":"Point","coordinates":[-83.25,42.5]}},{"properties":{"category":"MI Small Cell","site name":"Detroit 11","oldlat":"42 31 48","newlong":-83.19,"oldlon":"-83 11 24","id":"abus9q4zjc6d","site id":null,"newlat":42.53},"type":"Feature","geometry":{"type":"Point","coordinates":[-83.19,42.53]}},{"properties":{"category":"MI Small Cell","site name":"Detroit 12","oldlat":"42 32 60","newlong":-83.16,"oldlon":"-83 09 36","id":"abus9q3oxry2","site id":null,"newlat":42.55},"type":"Feature","geometry":{"type":"Point","coordinates":[-83.16,42.55]}},{"properties":{"category":"MI Small Cell","site name":"Detroit 13","oldlat":"42 30 00","newlong":-83.09,"oldlon":"-83 05 24","id":"abus9qgr7dw9","site id":null,"newlat":42.5},"type":"Feature","geometry":{"type":"Point","coordinates":[-83.09,42.5]}},{"properties":{"category":"MI Small Cell","site name":"Detroit 14","oldlat":"42 34 12","newlong":-82.94,"oldlon":"-82 56 24","id":"abus9q4nmoqk","site id":null,"newlat":42.57},"type":"Feature","geometry":{"type":"Point","coordinates":[-82.94,42.57]}},{"properties":{"category":"MI Small Cell","site name":"Detroit 15","oldlat":"42 37 12","newlong":-82.94,"oldlon":"-82 56 24","id":"abus9q3q00c0","site id":null,"newlat":42.62},"type":"Feature","geometry":{"type":"Point","coordinates":[-82.94,42.62]}},{"properties":{"category":"MI Small Cell","site name":"Lansing 1","oldlat":"42 43 48","newlong":-84.57,"oldlon":"-84 34 12","id":"abus9qa2yfry","site id":null,"newlat":42.73},"type":"Feature","geometry":{"type":"Point","coordinates":[-84.57,42.73]}},{"properties":{"category":"MI Small Cell","site name":"Lansing 2","oldlat":"42 43 48","newlong":-84.56,"oldlon":"-84 33 36","id":"abus9qb3e8h0","site id":null,"newlat":42.73},"type":"Feature","geometry":{"type":"Point","coordinates":[-84.56,42.73]}},{"properties":{"category":"MI Small Cell","site name":"Lansing 3","oldlat":"42 43 48","newlong":-84.54,"oldlon":"-84 32 24","id":"abus9qg95xok","site id":null,"newlat":42.73},"type":"Feature","geometry":{"type":"Point","coordinates":[-84.54,42.73]}},{"properties":{"category":"MI Small Cell","site name":"Grand Rapids 1","oldlat":"42 57 36","newlong":-85.67,"oldlon":"-85 40 12","id":"abus9q5hgrat","site id":null,"newlat":42.96},"type":"Feature","geometry":{"type":"Point","coordinates":[-85.67,42.96]}},{"properties":{"category":"MI Small Cell","site name":"Grand Rapids 2","oldlat":"42 59 24","newlong":-85.68,"oldlon":"-85 40 48","id":"abus9q2kig84","site id":null,"newlat":42.99},"type":"Feature","geometry":{"type":"Point","coordinates":[-85.68,42.99]}}],"is_temporal":false,"author":{"url":"","metadata":"","contact_name":"","contact_address":"","source":"","contact_phone":""},"source":"","pagination":{"sort":null,"start":0,"total":150,"limit":1000000},"state":"complete","tags":"","published":"2014-08-16T21:09:29-04:00","id":315927}