{"type":"FeatureCollection","data_type":"Dataset","url_type":null,"permissions":[{"permissions":{"download":true,"view":true},"group_id":"everyone"}],"classification":null,"title":"\nlowlandsmokers's places\n","count":46,"stream_id":31989,"contributor":{"url":"http://geocommons.com/users/11444","name":"platial"},"data_attributes":null,"calculation_params":null,"icon_link":null,"link":"http://geocommons.com/overlays/31989.json","extent":[-116.391,43.6122,6.41737,52.9667],"geometry_types":["point"],"unique_name":null,"name":"\nlowlandsmokers's places\n","feature_count":46,"description":"\nA Map by Lowlandsmokers\n\n\n","next_feature":null,"is_raster":false,"short_classification":"Y","stats":{},"features":[{"properties":{"name":"Ad","description":"Posted by Lowlandsmokersmeridian, ID<a title=\"Built for Community Mapping\" href=\"http://www.platial.com\"><img src=\"http://media.geocommons.com/platial/images/logotype_small.jpg\"></a>","id":"a77s2yvkknqf"},"type":"Feature","geometry":{"type":"Point","coordinates":[-116.390556,43.612222]}},{"properties":{"name":"Bonten","description":"Posted by LowlandsmokersBaexem<a title=\"Built for Community Mapping\" href=\"http://www.platial.com\"><img src=\"http://media.geocommons.com/platial/images/logotype_small.jpg\"></a>","id":"a77s2yjzewxb"},"type":"Feature","geometry":{"type":"Point","coordinates":[5.883405,51.2261542]}},{"properties":{"name":"Bram","description":"Posted by Lowlandsmokers<img src=\"http://media.geocommons.com/platial/img/2009/06/1/Brambbq3.jpg\">Spakenburg<a title=\"Built for Community Mapping\" href=\"http://www.platial.com\"><img src=\"http://media.geocommons.com/platial/images/logotype_small.jpg\"></a>","id":"a77s2yhn3aai"},"type":"Feature","geometry":{"type":"Point","coordinates":[5.3779321,52.2533246]}},{"properties":{"name":"Bram","description":"Posted by Lowlandsmokers<img src=\"http://media.geocommons.com/platial/img/2009/06/2/Bram_weber_onetouch_gold_67cm.jpg\">nijmegen<a title=\"Built for Community Mapping\" href=\"http://www.platial.com\"><img src=\"http://media.geocommons.com/platial/images/logotype_small.jpg\"></a>","id":"a77s2yp8ub7v"},"type":"Feature","geometry":{"type":"Point","coordinates":[5.866667,51.833332]}},{"properties":{"name":"Castelli","description":"Posted by Lowlandsmokers<img src=\"http://media.geocommons.com/platial/img/2009/06/1/Photo_36_smallllx.jpg\">Zemst, BE<a title=\"Built for Community Mapping\" href=\"http://www.platial.com\"><img src=\"http://media.geocommons.com/platial/images/logotype_small.jpg\"></a>","id":"a77s2yi6tghz"},"type":"Feature","geometry":{"type":"Point","coordinates":[4.4647125,50.9840679]}},{"properties":{"name":"Duco","description":"Posted by Lowlandsmokersstroe noord-holland<a title=\"Built for Community Mapping\" href=\"http://www.platial.com\"><img src=\"http://media.geocommons.com/platial/images/logotype_small.jpg\"></a>","id":"a77s2ygcrcyy"},"type":"Feature","geometry":{"type":"Point","coordinates":[4.9767186,52.9254861]}},{"properties":{"name":"Duco","description":"Posted by Lowlandsmokersstroerweg 7<a title=\"Built for Community Mapping\" href=\"http://www.platial.com\"><img src=\"http://media.geocommons.com/platial/images/logotype_small.jpg\"></a>","id":"a77s2yu6xgtg"},"type":"Feature","geometry":{"type":"Point","coordinates":[4.9732372,52.9255752]}},{"properties":{"name":"Frank","description":"Posted by Lowlandsmokers<img src=\"http://media.geocommons.com/platial/img/2010/02/1/frank.jpg\">amersfoort<a title=\"Built for Community Mapping\" href=\"http://www.platial.com\"><img src=\"http://media.geocommons.com/platial/images/logotype_small.jpg\"></a>","id":"a77s2yklzwd2"},"type":"Feature","geometry":{"type":"Point","coordinates":[5.383333,52.150002]}},{"properties":{"name":"Frank54","description":"Posted by Lowlandsmokersamersfoort<a title=\"Built for Community Mapping\" href=\"http://www.platial.com\"><img src=\"http://media.geocommons.com/platial/images/logotype_small.jpg\"></a>","id":"a77s2yv1d2py"},"type":"Feature","geometry":{"type":"Point","coordinates":[5.383333,52.150002]}},{"properties":{"name":"FrankvW","description":"Posted by Lowlandsmokers<img src=\"http://media.geocommons.com/platial/img/2009/06/1/042.JPG\">Netherlands, gouda<a title=\"Built for Community Mapping\" href=\"http://www.platial.com\"><img src=\"http://media.geocommons.com/platial/images/logotype_small.jpg\"></a>","id":"a77s2ygewo1o"},"type":"Feature","geometry":{"type":"Point","coordinates":[4.709833,52.010271]}},{"properties":{"name":"Fred","description":"Posted by LowlandsmokersThe Hagueegg member<a title=\"Built for Community Mapping\" href=\"http://www.platial.com\"><img src=\"http://media.geocommons.com/platial/images/logotype_small.jpg\"></a>","id":"a77s2yvxsn64"},"type":"Feature","geometry":{"type":"Point","coordinates":[4.3,52.083332]}},{"properties":{"name":"Fred","description":"Posted by LowlandsmokersThe Hague<a title=\"Built for Community Mapping\" href=\"http://www.platial.com\"><img src=\"http://media.geocommons.com/platial/images/logotype_small.jpg\"></a>","id":"a77s2ygnbrb7"},"type":"Feature","geometry":{"type":"Point","coordinates":[4.3,52.083332]}},{"properties":{"name":"Frits","description":"Posted by Lowlandsmokers<img src=\"http://media.geocommons.com/platial/img/2009/06/1/4382.jpg\">Oosterhout GLD<a title=\"Built for Community Mapping\" href=\"http://www.platial.com\"><img src=\"http://media.geocommons.com/platial/images/logotype_small.jpg\"></a>","id":"a77s2yrz0yst"},"type":"Feature","geometry":{"type":"Point","coordinates":[5.8260121,51.879077]}},{"properties":{"name":"Harold","description":"Posted by LowlandsmokersGoes the netherlands<a title=\"Built for Community Mapping\" href=\"http://www.platial.com\"><img src=\"http://media.geocommons.com/platial/images/logotype_small.jpg\"></a>","id":"a77s2ynk4o3i"},"type":"Feature","geometry":{"type":"Point","coordinates":[3.8870456,51.5021342]}},{"properties":{"name":"Harry H","description":"Posted by Lowlandsmokers<img src=\"http://media.geocommons.com/platial/img/2009/06/1/Grillatoren_309a.jpg\">Hoofddorp<a title=\"Built for Community Mapping\" href=\"http://www.platial.com\"><img src=\"http://media.geocommons.com/platial/images/logotype_small.jpg\"></a>","id":"a77s2yqciwpp"},"type":"Feature","geometry":{"type":"Point","coordinates":[4.687286,52.308713]}},{"properties":{"name":"Jacob","description":"Posted by Lowlandsmokersblerick<a title=\"Built for Community Mapping\" href=\"http://www.platial.com\"><img src=\"http://media.geocommons.com/platial/images/logotype_small.jpg\"></a>","id":"a77s2yhv45hy"},"type":"Feature","geometry":{"type":"Point","coordinates":[6.148013,51.3628549]}},{"properties":{"name":"Jeroen","description":"Posted by Lowlandsmokers<img src=\"http://media.geocommons.com/platial/img/2009/06/1/18052009018.jpg\">rotterdam<a title=\"Built for Community Mapping\" href=\"http://www.platial.com\"><img src=\"http://media.geocommons.com/platial/images/logotype_small.jpg\"></a>","id":"a77s2yla1oee"},"type":"Feature","geometry":{"type":"Point","coordinates":[4.5,51.916668]}},{"properties":{"name":"Johnie","description":"Posted by Lowlandsmokers<img src=\"http://media.geocommons.com/platial/img/2009/06/1/Primo_021_(Small).jpg\">netherlands, veenendaal<a title=\"Built for Community Mapping\" href=\"http://www.platial.com\"><img src=\"http://media.geocommons.com/platial/images/logotype_small.jpg\"></a>","id":"a77s2yn896wi"},"type":"Feature","geometry":{"type":"Point","coordinates":[5.5591745,52.0251348]}},{"properties":{"name":"Lerxst","description":"Posted by Lowlandsmokers<img src=\"http://media.geocommons.com/platial/img/2010/02/1/bikfrt180x80aniavjl3.gif\">Vijfhuizen<a title=\"Built for Community Mapping\" href=\"http://www.platial.com\"><img src=\"http://media.geocommons.com/platial/images/logotype_small.jpg\"></a>","id":"a77s2ynl9mar"},"type":"Feature","geometry":{"type":"Point","coordinates":[4.679584,52.35261]}},{"properties":{"name":"Malloot","description":"Posted by LowlandsmokersHoofddorp<a title=\"Built for Community Mapping\" href=\"http://www.platial.com\"><img src=\"http://media.geocommons.com/platial/images/logotype_small.jpg\"></a>","id":"a77s2yo51pay"},"type":"Feature","geometry":{"type":"Point","coordinates":[4.687286,52.308713]}},{"properties":{"name":"Marcel","description":"Posted by Lowlandsmokers<img src=\"http://media.geocommons.com/platial/img/2009/06/1/BBQ_King_klein.JPG\">Zoetermeer<a title=\"Built for Community Mapping\" href=\"http://www.platial.com\"><img src=\"http://media.geocommons.com/platial/images/logotype_small.jpg\"></a>","id":"a77s2yuvwfx3"},"type":"Feature","geometry":{"type":"Point","coordinates":[4.5,52.049999]}},{"properties":{"name":"Mark","description":"Posted by Lowlandsmokers<img src=\"http://media.geocommons.com/platial/img/2009/06/1/8398.jpg\">eindhoven<a title=\"Built for Community Mapping\" href=\"http://www.platial.com\"><img src=\"http://media.geocommons.com/platial/images/logotype_small.jpg\"></a>","id":"a77s2yumq5z6"},"type":"Feature","geometry":{"type":"Point","coordinates":[5.466667,51.450001]}},{"properties":{"name":"Mark","description":"Posted by Lowlandsmokers<img src=\"http://media.geocommons.com/platial/img/2009/06/1/playmobil_special_man_with_barbecue.jpg\">eindhoven<a title=\"Built for Community Mapping\" href=\"http://www.platial.com\"><img src=\"http://media.geocommons.com/platial/images/logotype_small.jpg\"></a>","id":"a77s2yin45za"},"type":"Feature","geometry":{"type":"Point","coordinates":[5.466667,51.450001]}},{"properties":{"name":"Mike","description":"Posted by Lowlandsmokers<img src=\"http://media.geocommons.com/platial/img/2009/06/1/Men_Cooking_2_.jpg\">eindhovenEindhoven, de BBQste<a title=\"Built for Community Mapping\" href=\"http://www.platial.com\"><img src=\"http://media.geocommons.com/platial/images/logotype_small.jpg\"></a>","id":"a77s2yvvohv2"},"type":"Feature","geometry":{"type":"Point","coordinates":[5.466667,51.450001]}},{"properties":{"name":"Mike","description":"Posted by Lowlandsmokers<img src=\"http://media.geocommons.com/platial/img/2009/06/1/Men_Cooking.jpg\">eindhovenEindhoven, de BBQste<a title=\"Built for Community Mapping\" href=\"http://www.platial.com\"><img src=\"http://media.geocommons.com/platial/images/logotype_small.jpg\"></a>","id":"a77s2yu42vvd"},"type":"Feature","geometry":{"type":"Point","coordinates":[5.466667,51.450001]}},{"properties":{"name":"Niek","description":"Posted by Lowlandsmokers<img src=\"http://media.geocommons.com/platial/img/2009/06/1/AVATARBBQFIRE.jpg\">Mariahout<a title=\"Built for Community Mapping\" href=\"http://www.platial.com\"><img src=\"http://media.geocommons.com/platial/images/logotype_small.jpg\"></a>","id":"a77s2ysv0cfz"},"type":"Feature","geometry":{"type":"Point","coordinates":[5.6212732,51.5384467]}},{"properties":{"name":"Pascal","description":"Posted by LowlandsmokersDoetinchem Netherlands<a title=\"Built for Community Mapping\" href=\"http://www.platial.com\"><img src=\"http://media.geocommons.com/platial/images/logotype_small.jpg\"></a>","id":"a77s2yjjfxq3"},"type":"Feature","geometry":{"type":"Point","coordinates":[6.287642,51.964993]}},{"properties":{"name":"Pascal","description":"Posted by LowlandsmokersDoetinchem Netherlands<a title=\"Built for Community Mapping\" href=\"http://www.platial.com\"><img src=\"http://media.geocommons.com/platial/images/logotype_small.jpg\"></a>","id":"a77s2ys4erhf"},"type":"Feature","geometry":{"type":"Point","coordinates":[6.287642,51.964993]}},{"properties":{"name":"Phubar","description":"Posted by Lowlandsmokers<img src=\"http://media.geocommons.com/platial/img/2009/06/1/tyuutyty.jpg\">Utrecht Lunetten<a title=\"Built for Community Mapping\" href=\"http://www.platial.com\"><img src=\"http://media.geocommons.com/platial/images/logotype_small.jpg\"></a>","id":"a77s2yig85q1"},"type":"Feature","geometry":{"type":"Point","coordinates":[5.1323002,52.0625971]}},{"properties":{"name":"Robertrhoon","description":"Posted by LowlandsmokersRhoon<a title=\"Built for Community Mapping\" href=\"http://www.platial.com\"><img src=\"http://media.geocommons.com/platial/images/logotype_small.jpg\"></a>","id":"a77s2yj1afgx"},"type":"Feature","geometry":{"type":"Point","coordinates":[4.421723,51.8512984]}},{"properties":{"name":"Robson","description":"Posted by Lowlandsmokers<img src=\"http://media.geocommons.com/platial/img/2010/02/1/images_4_.jpg\">Antwerpen<a title=\"Built for Community Mapping\" href=\"http://www.platial.com\"><img src=\"http://media.geocommons.com/platial/images/logotype_small.jpg\"></a>","id":"a77s2yhd4nit"},"type":"Feature","geometry":{"type":"Point","coordinates":[4.719444,51.247913]}},{"properties":{"name":"Rookgordijn","description":"Posted by LowlandsmokersBergschehoek<a title=\"Built for Community Mapping\" href=\"http://www.platial.com\"><img src=\"http://media.geocommons.com/platial/images/logotype_small.jpg\"></a>","id":"a77s2yskgpqx"},"type":"Feature","geometry":{"type":"Point","coordinates":[4.5000594,51.9897529]}},{"properties":{"name":"Rookgordijn","description":"Posted by LowlandsmokersBergschehoek<a title=\"Built for Community Mapping\" href=\"http://www.platial.com\"><img src=\"http://media.geocommons.com/platial/images/logotype_small.jpg\"></a>","id":"a77s2yw479zc"},"type":"Feature","geometry":{"type":"Point","coordinates":[4.5000594,51.9897529]}},{"properties":{"name":"Sander","description":"Posted by LowlandsmokersAmsterdamAmsterdam Zuidoost <a title=\"Built for Community Mapping\" href=\"http://www.platial.com\"><img src=\"http://media.geocommons.com/platial/images/logotype_small.jpg\"></a>","id":"a77s2yjz7h34"},"type":"Feature","geometry":{"type":"Point","coordinates":[4.889999,52.369998]}},{"properties":{"name":"Spiffs","description":"Posted by Lowlandsmokers<img src=\"http://media.geocommons.com/platial/img/2009/06/1/IMG_0149_4_.JPG\">Den Helder<a title=\"Built for Community Mapping\" href=\"http://www.platial.com\"><img src=\"http://media.geocommons.com/platial/images/logotype_small.jpg\"></a>","id":"a77s2ynq1a3b"},"type":"Feature","geometry":{"type":"Point","coordinates":[4.766666,52.966667]}},{"properties":{"name":"Ton","description":"Posted by LowlandsmokersBerkel en Rodenrijs<a title=\"Built for Community Mapping\" href=\"http://www.platial.com\"><img src=\"http://media.geocommons.com/platial/images/logotype_small.jpg\"></a>","id":"a77s2ytefb0p"},"type":"Feature","geometry":{"type":"Point","coordinates":[4.4782962,51.9928874]}},{"properties":{"name":"Weberitis","description":"Posted by Lowlandsmokerslochem<a title=\"Built for Community Mapping\" href=\"http://www.platial.com\"><img src=\"http://media.geocommons.com/platial/images/logotype_small.jpg\"></a>","id":"a77s2ywe3n49"},"type":"Feature","geometry":{"type":"Point","coordinates":[6.417369,52.161]}},{"properties":{"name":"Zaagmans","description":"Posted by LowlandsmokersZutphen<a title=\"Built for Community Mapping\" href=\"http://www.platial.com\"><img src=\"http://media.geocommons.com/platial/images/logotype_small.jpg\"></a>","id":"a77s2yuojanp"},"type":"Feature","geometry":{"type":"Point","coordinates":[6.195306,52.141405]}},{"properties":{"name":"bbqmaster","description":"Posted by Lowlandsmokers<img src=\"http://media.geocommons.com/platial/img/2010/02/1/bbq_002.jpg\">hellevoetsluis<a title=\"Built for Community Mapping\" href=\"http://www.platial.com\"><img src=\"http://media.geocommons.com/platial/images/logotype_small.jpg\"></a>","id":"a77s2yp315he"},"type":"Feature","geometry":{"type":"Point","coordinates":[4.138402,51.833755]}},{"properties":{"name":"elepom","description":"Posted by LowlandsmokersHaarlem<a title=\"Built for Community Mapping\" href=\"http://www.platial.com\"><img src=\"http://media.geocommons.com/platial/images/logotype_small.jpg\"></a>","id":"a77s2yh0akoz"},"type":"Feature","geometry":{"type":"Point","coordinates":[4.65,52.366665]}},{"properties":{"name":"eyckmans","description":"Posted by LowlandsmokersHerselt<a title=\"Built for Community Mapping\" href=\"http://www.platial.com\"><img src=\"http://media.geocommons.com/platial/images/logotype_small.jpg\"></a>","id":"a77s2ynuq0cy"},"type":"Feature","geometry":{"type":"Point","coordinates":[4.880798,51.052879]}},{"properties":{"name":"fresan","description":"Posted by Lowlandsmokers<img src=\"http://media.geocommons.com/platial/img/2009/06/2/011_2_.JPG\">Almere, netherlands<a title=\"Built for Community Mapping\" href=\"http://www.platial.com\"><img src=\"http://media.geocommons.com/platial/images/logotype_small.jpg\"></a>","id":"a77s2yq0ro1j"},"type":"Feature","geometry":{"type":"Point","coordinates":[5.17,52.36]}},{"properties":{"name":"nico de leeuw","description":"Posted by Lowlandsmokers<img src=\"http://media.geocommons.com/platial/img/2010/02/1/imagesCAMZ4K74.jpg\">Edam<a title=\"Built for Community Mapping\" href=\"http://www.platial.com\"><img src=\"http://media.geocommons.com/platial/images/logotype_small.jpg\"></a>","id":"a77s2yqmo691"},"type":"Feature","geometry":{"type":"Point","coordinates":[5.048007,52.512466]}},{"properties":{"name":"noskos","description":"Posted by Lowlandsmokers<img src=\"http://media.geocommons.com/platial/img/2009/06/1/wsmavatar.jpg\">\\'s-Gravenzandewww.BBQ-NL.com<a title=\"Built for Community Mapping\" href=\"http://www.platial.com\"><img src=\"http://media.geocommons.com/platial/images/logotype_small.jpg\"></a>","id":"a77s2yhxrv6f"},"type":"Feature","geometry":{"type":"Point","coordinates":[4.160725,52.003521]}},{"properties":{"name":"pavv","description":"Posted by Lowlandsmokersalkmaar netherlands<a title=\"Built for Community Mapping\" href=\"http://www.platial.com\"><img src=\"http://media.geocommons.com/platial/images/logotype_small.jpg\"></a>","id":"a77s2yhes3ol"},"type":"Feature","geometry":{"type":"Point","coordinates":[4.750678,52.632356]}},{"properties":{"name":"wowter","description":"Posted by LowlandsmokersAlmere, netherlands<a title=\"Built for Community Mapping\" href=\"http://www.platial.com\"><img src=\"http://media.geocommons.com/platial/images/logotype_small.jpg\"></a>","id":"a77s2yvwzl4o"},"type":"Feature","geometry":{"type":"Point","coordinates":[5.17,52.36]}}],"is_temporal":false,"author":{"url":"http://www.platial.com/map/685169","metadata":null,"contact_name":"lowlandsmokers","contact_address":null,"source":"platial:lowlandsmokers","contact_phone":null},"source":"http://www.platial.com/map/685169","pagination":{"sort":null,"start":0,"total":46,"limit":1000000},"state":"complete","tags":"platial,platial:id=685169,platial:user=lowlandsmokers","published":"2010-03-04T17:00:00Z","id":31989}