{"type":"FeatureCollection","data_type":"Dataset","url_type":null,"permissions":[{"permissions":{"download":true,"view":true},"group_id":"everyone"}],"classification":null,"title":"\nrbarlam's places\n","count":31,"stream_id":32124,"contributor":{"url":"http://geocommons.com/users/11444","name":"platial"},"data_attributes":null,"calculation_params":null,"icon_link":null,"link":"http://geocommons.com/overlays/32124.json","extent":[-14.4764,13.3355,119.707,49.8353],"geometry_types":["point"],"unique_name":null,"name":"\nrbarlam's places\n","feature_count":31,"description":"\nA Map by Rbarlam\n\n\n","next_feature":null,"is_raster":false,"short_classification":"Y","stats":{},"features":[{"properties":{"name":"CEIP Pare Algué","description":"Posted by Rbarlamjacint verdaguer 16-22, ManresaProjecte Valors en Joc\n21 alumnes de Cicle Superior<a title=\"Built for Community Mapping\" href=\"http://www.platial.com\"><img src=\"http://media.geocommons.com/platial/images/logotype_small.jpg\"></a>","id":"a6cwgl6cmbtf"},"type":"Feature","geometry":{"type":"Point","coordinates":[1.830661,41.727822]}},{"properties":{"name":"Col·legi Sant Josep","description":"Posted by RbarlamVedruna 1, Tarrega<a title=\"Built for Community Mapping\" href=\"http://www.platial.com\"><img src=\"http://media.geocommons.com/platial/images/logotype_small.jpg\"></a>","id":"a6cwgl2tvdk2"},"type":"Feature","geometry":{"type":"Point","coordinates":[1.145759,41.65012]}},{"properties":{"name":"Daina-Isard","description":"Posted by RbarlamCerdanya 15, Olesa de Montserrat<a title=\"Built for Community Mapping\" href=\"http://www.platial.com\"><img src=\"http://media.geocommons.com/platial/images/logotype_small.jpg\"></a>","id":"a6cwgkqp2hs3"},"type":"Feature","geometry":{"type":"Point","coordinates":[1.899783,41.545057]}},{"properties":{"name":"Escola Llissach","description":"Posted by Rbarlam<a title=\"Built for Community Mapping\" href=\"http://www.platial.com\"><img src=\"http://media.geocommons.com/platial/images/logotype_small.jpg\"></a>","id":"a6cwgl4snlz8"},"type":"Feature","geometry":{"type":"Point","coordinates":[1.84021,41.78335]}},{"properties":{"name":"Escola Sant Nicolau","description":"Posted by RbarlamJardi 72, Sabadell<a title=\"Built for Community Mapping\" href=\"http://www.platial.com\"><img src=\"http://media.geocommons.com/platial/images/logotype_small.jpg\"></a>","id":"a6cwgkzqebph"},"type":"Feature","geometry":{"type":"Point","coordinates":[2.112825,41.545769]}},{"properties":{"name":"FC Barcelona","description":"Posted by RbarlamTaquigraf garriga 7, Barcelona<a title=\"Built for Community Mapping\" href=\"http://www.platial.com\"><img src=\"http://media.geocommons.com/platial/images/logotype_small.jpg\"></a>","id":"a6cwgkurqi94"},"type":"Feature","geometry":{"type":"Point","coordinates":[2.13176,41.385815]}},{"properties":{"name":"Germans Al Helimi","description":"Posted by RbarlamLloc on van néixer la Chaimae i el Nourddine Al Helimi.<a title=\"Built for Community Mapping\" href=\"http://www.platial.com\"><img src=\"http://media.geocommons.com/platial/images/logotype_small.jpg\"></a>","id":"a6cwgkv67561"},"type":"Feature","geometry":{"type":"Point","coordinates":[-6.14136,35.18952]}},{"properties":{"name":"Hossaine Chekkouri","description":"Posted by Rbarlam<a title=\"Built for Community Mapping\" href=\"http://www.platial.com\"><img src=\"http://media.geocommons.com/platial/images/logotype_small.jpg\"></a>","id":"a6cwgkyfxrxj"},"type":"Feature","geometry":{"type":"Point","coordinates":[-6.15209,35.19163]}},{"properties":{"name":"IES Castellar","description":"Posted by RbarlamCastellar del Vallès<a title=\"Built for Community Mapping\" href=\"http://www.platial.com\"><img src=\"http://media.geocommons.com/platial/images/logotype_small.jpg\"></a>","id":"a6cwgkwigi69"},"type":"Feature","geometry":{"type":"Point","coordinates":[2.08565,41.616176]}},{"properties":{"name":"IES Flix","description":"Posted by RbarlamFlix<a title=\"Built for Community Mapping\" href=\"http://www.platial.com\"><img src=\"http://media.geocommons.com/platial/images/logotype_small.jpg\"></a>","id":"a6cwgl1cnvyy"},"type":"Feature","geometry":{"type":"Point","coordinates":[0.544696,41.227442]}},{"properties":{"name":"Ihssane Abid","description":"Posted by Rbarlam<img src=\"http://media.geocommons.com/platial/img/2007/01/4/ihssane.jpg\"><a title=\"Built for Community Mapping\" href=\"http://www.platial.com\"><img src=\"http://media.geocommons.com/platial/images/logotype_small.jpg\"></a>","id":"a6cwgkyqip6q"},"type":"Feature","geometry":{"type":"Point","coordinates":[-6.87744,33.97981]}},{"properties":{"name":"Ilhame Srati","description":"Posted by Rbarlam<img src=\"http://media.geocommons.com/platial/img/2007/01/4/ilhame.jpg\"><img src=\"http://media.geocommons.com/platial/img/2007/01/4/ilhame.jpg\"><a title=\"Built for Community Mapping\" href=\"http://www.platial.com\"><img src=\"http://media.geocommons.com/platial/images/logotype_small.jpg\"></a>","id":"a6cwgkxxg809"},"type":"Feature","geometry":{"type":"Point","coordinates":[-6.03149,35.46626]}},{"properties":{"name":"Jianxin Jiang","description":"Posted by Rbarlam<img src=\"http://media.geocommons.com/platial/img/2007/01/4/jianxin.jpg\"><img src=\"http://media.geocommons.com/platial/img/2007/01/4/jianxin2.jpg\"><img src=\"http://media.geocommons.com/platial/img/2007/01/4/jianxin3.jpg\"><a title=\"Built for Community Mapping\" href=\"http://www.platial.com\"><img src=\"http://media.geocommons.com/platial/images/logotype_small.jpg\"></a>","id":"a6cwgl1dlb8e"},"type":"Feature","geometry":{"type":"Point","coordinates":[119.70703,29.84064]}},{"properties":{"name":"Jimmeh Conteh","description":"Posted by Rbarlam<img src=\"http://media.geocommons.com/platial/img/2007/01/4/jimme2.jpg\"><a title=\"Built for Community Mapping\" href=\"http://www.platial.com\"><img src=\"http://media.geocommons.com/platial/images/logotype_small.jpg\"></a>","id":"a6cwgkrmhf7c"},"type":"Feature","geometry":{"type":"Point","coordinates":[-14.38316,13.33551]}},{"properties":{"name":"Jimmeh Conteh","description":"Posted by Rbarlam<a title=\"Built for Community Mapping\" href=\"http://www.platial.com\"><img src=\"http://media.geocommons.com/platial/images/logotype_small.jpg\"></a>","id":"a6cwgl0zzzuh"},"type":"Feature","geometry":{"type":"Point","coordinates":[-14.47638,13.39296]}},{"properties":{"name":"Kahoulah Srati","description":"Posted by Rbarlam<img src=\"http://media.geocommons.com/platial/img/2007/01/4/khaoulah_4_.jpg\"><img src=\"http://media.geocommons.com/platial/img/2007/01/4/SquarenearportAsilah.JPG\"><img src=\"http://media.geocommons.com/platial/img/2007/01/4/khaoulah_3_.jpg\"><a title=\"Built for Community Mapping\" href=\"http://www.platial.com\"><img src=\"http://media.geocommons.com/platial/images/logotype_small.jpg\"></a>","id":"a6cwgl1jhm49"},"type":"Feature","geometry":{"type":"Point","coordinates":[-8.26172,32.24997]}},{"properties":{"name":"Kaoulah","description":"Posted by Rbarlam<a title=\"Built for Community Mapping\" href=\"http://www.platial.com\"><img src=\"http://media.geocommons.com/platial/images/logotype_small.jpg\"></a>","id":"a6cwgl0gohel"},"type":"Feature","geometry":{"type":"Point","coordinates":[74.35547,23.56399]}},{"properties":{"name":"Kaoulah","description":"Posted by Rbarlam<img src=\"http://media.geocommons.com/platial/img/2007/01/4/kaoulah.jpg\">Morocco<a title=\"Built for Community Mapping\" href=\"http://www.platial.com\"><img src=\"http://media.geocommons.com/platial/images/logotype_small.jpg\"></a>","id":"a6cwgkw734be"},"type":"Feature","geometry":{"type":"Point","coordinates":[-7.09262,31.791702]}},{"properties":{"name":"L'Espill","description":"Posted by RbarlamSant Joan 59 Manresa<a title=\"Built for Community Mapping\" href=\"http://www.platial.com\"><img src=\"http://media.geocommons.com/platial/images/logotype_small.jpg\"></a>","id":"a6cwgl6592to"},"type":"Feature","geometry":{"type":"Point","coordinates":[1.843757,41.732698]}},{"properties":{"name":"Many","description":"Posted by Rbarlam<a title=\"Built for Community Mapping\" href=\"http://www.platial.com\"><img src=\"http://media.geocommons.com/platial/images/logotype_small.jpg\"></a>","id":"a6cwgl50tsxp"},"type":"Feature","geometry":{"type":"Point","coordinates":[75.05859,25.32417]}},{"properties":{"name":"Many","description":"Posted by Rbarlam<a title=\"Built for Community Mapping\" href=\"http://www.platial.com\"><img src=\"http://media.geocommons.com/platial/images/logotype_small.jpg\"></a>","id":"a6cwgl6ejgla"},"type":"Feature","geometry":{"type":"Point","coordinates":[74.35547,23.56399]}},{"properties":{"name":"Mingjian Zheng","description":"Posted by Rbarlam<img src=\"http://media.geocommons.com/platial/img/2007/01/4/mingwei_4_.jpg\"><img src=\"http://media.geocommons.com/platial/img/2007/01/4/qingxia.jpg\"><img src=\"http://media.geocommons.com/platial/img/2007/01/4/W020060124174263491101.jpg\"><img src=\"http://media.geocommons.com/platial/img/2007/01/4/mingwei_2_.jpg\"><a title=\"Built for Community Mapping\" href=\"http://www.platial.com\"><img src=\"http://media.geocommons.com/platial/images/logotype_small.jpg\"></a>","id":"a6cwgl6hfxoy"},"type":"Feature","geometry":{"type":"Point","coordinates":[117.07031,25.00597]}},{"properties":{"name":"Núria Reguant","description":"Posted by RbarlamPoble de la Núria Reguant, professora de l\\'aula d\\'acollida de l\\'IES Quercus i coordinadora del projecte @collida.<a title=\"Built for Community Mapping\" href=\"http://www.platial.com\"><img src=\"http://media.geocommons.com/platial/images/logotype_small.jpg\"></a>","id":"a6cwgl67kglz"},"type":"Feature","geometry":{"type":"Point","coordinates":[1.75002,41.83168]}},{"properties":{"name":"Oms i de Prat","description":"Posted by RbarlamOms i de Prat  2-4, ManresaProjecte Salix i els Sentits\nEI-5, amb 5 alumnes<a title=\"Built for Community Mapping\" href=\"http://www.platial.com\"><img src=\"http://media.geocommons.com/platial/images/logotype_small.jpg\"></a>","id":"a6cwgl0vo6hg"},"type":"Feature","geometry":{"type":"Point","coordinates":[1.834009,41.724166]}},{"properties":{"name":"Oms i de Prat","description":"Posted by RbarlamOms i de Prat  2-4, Manresa<a title=\"Built for Community Mapping\" href=\"http://www.platial.com\"><img src=\"http://media.geocommons.com/platial/images/logotype_small.jpg\"></a>","id":"a6cwgkxoj8pt"},"type":"Feature","geometry":{"type":"Point","coordinates":[1.834009,41.724166]}},{"properties":{"name":"Ramon Barlam","description":"Posted by Rbarlam<img src=\"http://media.geocommons.com/platial/img/2007/01/3/ramon5.JPG\">Domicili d\\'en Ramon Barlam<a title=\"Built for Community Mapping\" href=\"http://www.platial.com\"><img src=\"http://media.geocommons.com/platial/images/logotype_small.jpg\"></a>","id":"a6cwgl1gexp3"},"type":"Feature","geometry":{"type":"Point","coordinates":[1.8357,41.72895]}},{"properties":{"name":"Ruslan","description":"Posted by Rbarlam<a title=\"Built for Community Mapping\" href=\"http://www.platial.com\"><img src=\"http://media.geocommons.com/platial/images/logotype_small.jpg\"></a>","id":"a6cwgl57v1jn"},"type":"Feature","geometry":{"type":"Point","coordinates":[24.03259,49.83533]}},{"properties":{"name":"Sant Joan de Déu","description":"Posted by RbarlamDoctor Joan Soler 1, Manresa<a title=\"Built for Community Mapping\" href=\"http://www.platial.com\"><img src=\"http://media.geocommons.com/platial/images/logotype_small.jpg\"></a>","id":"a6cwgkx6bmqy"},"type":"Feature","geometry":{"type":"Point","coordinates":[1.839175,41.720269]}},{"properties":{"name":"VAlentina Nicoará","description":"Posted by Rbarlam<img src=\"http://media.geocommons.com/platial/img/2007/01/4/Rimet.jpg\"><img src=\"http://media.geocommons.com/platial/img/2007/01/4/valentina_2_.jpg\"><a title=\"Built for Community Mapping\" href=\"http://www.platial.com\"><img src=\"http://media.geocommons.com/platial/images/logotype_small.jpg\"></a>","id":"a6cwgks2a7g3"},"type":"Feature","geometry":{"type":"Point","coordinates":[23.036,46.046]}},{"properties":{"name":"Valentina Nicorà","description":"Posted by RbarlamLa Valentina és una alumna de 4t d\\'ESO de l\\'IES Quercus de Sant Joan de Vilatorrada.<a title=\"Built for Community Mapping\" href=\"http://www.platial.com\"><img src=\"http://media.geocommons.com/platial/images/logotype_small.jpg\"></a>","id":"a6cwgksj9b8j"},"type":"Feature","geometry":{"type":"Point","coordinates":[25.37842,45.73686]}},{"properties":{"name":"qingxia zheng","description":"Posted by Rbarlam<img src=\"http://media.geocommons.com/platial/img/2007/01/4/qinxia.jpg\"><a title=\"Built for Community Mapping\" href=\"http://www.platial.com\"><img src=\"http://media.geocommons.com/platial/images/logotype_small.jpg\"></a>","id":"a6cwgksdd7jf"},"type":"Feature","geometry":{"type":"Point","coordinates":[117.07031,25.00597]}}],"is_temporal":false,"author":{"url":"http://www.platial.com/map/237590","metadata":null,"contact_name":"rbarlam","contact_address":null,"source":"platial:rbarlam","contact_phone":null},"source":"http://www.platial.com/map/237590","pagination":{"sort":null,"start":0,"total":31,"limit":1000000},"state":"complete","tags":"platial,platial:id=237590,platial:user=rbarlam","published":"2010-03-04T17:00:00Z","id":32124}