{"type":"FeatureCollection","data_type":"Dataset","url_type":null,"permissions":[{"permissions":{"download":true,"view":true},"group_id":"everyone"}],"classification":null,"title":"\naudisrs's places\n","count":34,"stream_id":32188,"contributor":{"url":"http://geocommons.com/users/11444","name":"platial"},"data_attributes":null,"calculation_params":null,"icon_link":null,"link":"http://geocommons.com/overlays/32188.json","extent":[-96.6667,34.2083,0.389921,57.5392],"geometry_types":["point"],"unique_name":null,"name":"\naudisrs's places\n","feature_count":34,"description":"\nA Map by Audisrs\n\n\n","next_feature":null,"is_raster":false,"short_classification":"Y","stats":{},"features":[{"properties":{"name":"AdamS4","description":"Posted by Audisrsgatwick, west sussex, england<a title=\"Built for Community Mapping\" href=\"http://www.platial.com\"><img src=\"http://media.geocommons.com/platial/images/logotype_small.jpg\"></a>","id":"a6fwc0ge4z2f"},"type":"Feature","geometry":{"type":"Point","coordinates":[-0.190831,51.155917]}},{"properties":{"name":"Andy Mac","description":"Posted by AudisrsPortsmouth<a title=\"Built for Community Mapping\" href=\"http://www.platial.com\"><img src=\"http://media.geocommons.com/platial/images/logotype_small.jpg\"></a>","id":"a6fwc0i1a8ss"},"type":"Feature","geometry":{"type":"Point","coordinates":[-1.082599,50.789364]}},{"properties":{"name":"Andy Ogg","description":"Posted by AudisrsTurriff, ScotlandI may be able to help... Just email me<a title=\"Built for Community Mapping\" href=\"http://www.platial.com\"><img src=\"http://media.geocommons.com/platial/images/logotype_small.jpg\"></a>","id":"a6fwc0qa96l9"},"type":"Feature","geometry":{"type":"Point","coordinates":[-2.469626,57.5392051]}},{"properties":{"name":"Ben","description":"Posted by Audisrstw12 2hp<a title=\"Built for Community Mapping\" href=\"http://www.platial.com\"><img src=\"http://media.geocommons.com/platial/images/logotype_small.jpg\"></a>","id":"a6fwc0pi64bm"},"type":"Feature","geometry":{"type":"Point","coordinates":[-0.3771097,51.426416]}},{"properties":{"name":"Ben","description":"Posted by Audisrstw12 2hpFull Vagcom <a title=\"Built for Community Mapping\" href=\"http://www.platial.com\"><img src=\"http://media.geocommons.com/platial/images/logotype_small.jpg\"></a>","id":"a6fwc0e0tmza"},"type":"Feature","geometry":{"type":"Point","coordinates":[-0.3771097,51.426416]}},{"properties":{"name":"Ben M","description":"Posted by Audisrstw12 2hp<a title=\"Built for Community Mapping\" href=\"http://www.platial.com\"><img src=\"http://media.geocommons.com/platial/images/logotype_small.jpg\"></a>","id":"a6fwc0m9wd40"},"type":"Feature","geometry":{"type":"Point","coordinates":[-0.3771097,51.426416]}},{"properties":{"name":"Ben M","description":"Posted by AudisrsTwickenham, Georgia, United States<a title=\"Built for Community Mapping\" href=\"http://www.platial.com\"><img src=\"http://media.geocommons.com/platial/images/logotype_small.jpg\"></a>","id":"a6fwc0k140ef"},"type":"Feature","geometry":{"type":"Point","coordinates":[-85.151861,34.208339]}},{"properties":{"name":"Ben M","description":"Posted by Audisrstw12 2hp<a title=\"Built for Community Mapping\" href=\"http://www.platial.com\"><img src=\"http://media.geocommons.com/platial/images/logotype_small.jpg\"></a>","id":"a6fwc0lfftng"},"type":"Feature","geometry":{"type":"Point","coordinates":[-0.3771097,51.426416]}},{"properties":{"name":"CliveH","description":"Posted by AudisrsLeedsVagCom/VCDS<a title=\"Built for Community Mapping\" href=\"http://www.platial.com\"><img src=\"http://media.geocommons.com/platial/images/logotype_small.jpg\"></a>","id":"a6fwc0pktmwf"},"type":"Feature","geometry":{"type":"Point","coordinates":[-1.54911,53.799637]}},{"properties":{"name":"DW","description":"Posted by Audisrslincoln, England<a title=\"Built for Community Mapping\" href=\"http://www.platial.com\"><img src=\"http://media.geocommons.com/platial/images/logotype_small.jpg\"></a>","id":"a6fwc0l2xxh4"},"type":"Feature","geometry":{"type":"Point","coordinates":[-0.538436,53.234863]}},{"properties":{"name":"DW","description":"Posted by AudisrsLincoln<a title=\"Built for Community Mapping\" href=\"http://www.platial.com\"><img src=\"http://media.geocommons.com/platial/images/logotype_small.jpg\"></a>","id":"a6fwc0qvm1vy"},"type":"Feature","geometry":{"type":"Point","coordinates":[-96.666667,40.8]}},{"properties":{"name":"David Hodgkinson","description":"Posted by Audisrshigh bentham<a title=\"Built for Community Mapping\" href=\"http://www.platial.com\"><img src=\"http://media.geocommons.com/platial/images/logotype_small.jpg\"></a>","id":"a6fwc0q4ecbn"},"type":"Feature","geometry":{"type":"Point","coordinates":[-2.5101403,54.1180072]}},{"properties":{"name":"DavidT","description":"Posted by AudisrsSandbachVCDS User<a title=\"Built for Community Mapping\" href=\"http://www.platial.com\"><img src=\"http://media.geocommons.com/platial/images/logotype_small.jpg\"></a>","id":"a6fwc0coe4az"},"type":"Feature","geometry":{"type":"Point","coordinates":[-2.363387,53.144204]}},{"properties":{"name":"Gareth RS4","description":"Posted by Audisrsportland dorset<a title=\"Built for Community Mapping\" href=\"http://www.platial.com\"><img src=\"http://media.geocommons.com/platial/images/logotype_small.jpg\"></a>","id":"a6fwc0d5pi65"},"type":"Feature","geometry":{"type":"Point","coordinates":[-2.4457688,50.5673472]}},{"properties":{"name":"Grant","description":"Posted by AudisrsGU52 0UTVCDS for non CAN cars.  Beers welcome...<a title=\"Built for Community Mapping\" href=\"http://www.platial.com\"><img src=\"http://media.geocommons.com/platial/images/logotype_small.jpg\"></a>","id":"a6fwc0la702m"},"type":"Feature","geometry":{"type":"Point","coordinates":[-0.837007,51.264124]}},{"properties":{"name":"Grant","description":"Posted by Audisrsdumbarton<a title=\"Built for Community Mapping\" href=\"http://www.platial.com\"><img src=\"http://media.geocommons.com/platial/images/logotype_small.jpg\"></a>","id":"a6fwc0oou89h"},"type":"Feature","geometry":{"type":"Point","coordinates":[-4.550985,55.949352]}},{"properties":{"name":"Jeffw","description":"Posted by Audisrstn12 6lwUSB VAG-com<a title=\"Built for Community Mapping\" href=\"http://www.platial.com\"><img src=\"http://media.geocommons.com/platial/images/logotype_small.jpg\"></a>","id":"a6fwc0dvptqh"},"type":"Feature","geometry":{"type":"Point","coordinates":[0.389921,51.184036]}},{"properties":{"name":"Lewis Grant","description":"Posted by Audisrseast kilbrideKEY-USB, no CAN unfortunately<a title=\"Built for Community Mapping\" href=\"http://www.platial.com\"><img src=\"http://media.geocommons.com/platial/images/logotype_small.jpg\"></a>","id":"a6fwc0cr72rc"},"type":"Feature","geometry":{"type":"Point","coordinates":[-4.177955,55.765461]}},{"properties":{"name":"MarkB","description":"Posted by Audisrsfarnham, surrey<a title=\"Built for Community Mapping\" href=\"http://www.platial.com\"><img src=\"http://media.geocommons.com/platial/images/logotype_small.jpg\"></a>","id":"a6fwc0gkkoh4"},"type":"Feature","geometry":{"type":"Point","coordinates":[-0.795617,51.214071]}},{"properties":{"name":"Mike Brooks","description":"Posted by Audisrsswindonshareware vagcom<a title=\"Built for Community Mapping\" href=\"http://www.platial.com\"><img src=\"http://media.geocommons.com/platial/images/logotype_small.jpg\"></a>","id":"a6fwc0db633n"},"type":"Feature","geometry":{"type":"Point","coordinates":[-1.765775,51.56143]}},{"properties":{"name":"Mikey-S","description":"Posted by AudisrsLiverpoolFull VCDS, ex Audi tech, always willing to help.<a title=\"Built for Community Mapping\" href=\"http://www.platial.com\"><img src=\"http://media.geocommons.com/platial/images/logotype_small.jpg\"></a>","id":"a6fwc0lz4xxx"},"type":"Feature","geometry":{"type":"Point","coordinates":[-2.977467,53.410872]}},{"properties":{"name":"PHIL","description":"Posted by AudisrsCROWBOROUGH<a title=\"Built for Community Mapping\" href=\"http://www.platial.com\"><img src=\"http://media.geocommons.com/platial/images/logotype_small.jpg\"></a>","id":"a6fwc0i2eaa5"},"type":"Feature","geometry":{"type":"Point","coordinates":[0.15,51.049999]}},{"properties":{"name":"RSPaul","description":"Posted by AudisrsCrawley, uk<a title=\"Built for Community Mapping\" href=\"http://www.platial.com\"><img src=\"http://media.geocommons.com/platial/images/logotype_small.jpg\"></a>","id":"a6fwc0c4uz9t"},"type":"Feature","geometry":{"type":"Point","coordinates":[-1.5,51.799999]}},{"properties":{"name":"Searider","description":"Posted by AudisrsSouthampton<a title=\"Built for Community Mapping\" href=\"http://www.platial.com\"><img src=\"http://media.geocommons.com/platial/images/logotype_small.jpg\"></a>","id":"a6fwc0iaj43r"},"type":"Feature","geometry":{"type":"Point","coordinates":[-1.395056,50.899693]}},{"properties":{"name":"Spen","description":"Posted by AudisrsBracknellK line only (no CAN bus)<a title=\"Built for Community Mapping\" href=\"http://www.platial.com\"><img src=\"http://media.geocommons.com/platial/images/logotype_small.jpg\"></a>","id":"a6fwc0eo7k9l"},"type":"Feature","geometry":{"type":"Point","coordinates":[-0.746479,51.417025]}},{"properties":{"name":"Stigter","description":"Posted by Audisrsch42 7jl<a title=\"Built for Community Mapping\" href=\"http://www.platial.com\"><img src=\"http://media.geocommons.com/platial/images/logotype_small.jpg\"></a>","id":"a6fwc0hq4fj7"},"type":"Feature","geometry":{"type":"Point","coordinates":[-2.997294,53.371958]}},{"properties":{"name":"Tom_S4","description":"Posted by AudisrsSutton, Surrey<a title=\"Built for Community Mapping\" href=\"http://www.platial.com\"><img src=\"http://media.geocommons.com/platial/images/logotype_small.jpg\"></a>","id":"a6fwc0hqr4zj"},"type":"Feature","geometry":{"type":"Point","coordinates":[-0.213507,51.38807]}},{"properties":{"name":"bneaves","description":"Posted by AudisrsLeamington SpaFull HEX USB CAN<a title=\"Built for Community Mapping\" href=\"http://www.platial.com\"><img src=\"http://media.geocommons.com/platial/images/logotype_small.jpg\"></a>","id":"a6fwc0kgn8zk"},"type":"Feature","geometry":{"type":"Point","coordinates":[-1.533333,52.299999]}},{"properties":{"name":"daybar","description":"Posted by AudisrsLondonfull USB hex<a title=\"Built for Community Mapping\" href=\"http://www.platial.com\"><img src=\"http://media.geocommons.com/platial/images/logotype_small.jpg\"></a>","id":"a6fwc0mnnjru"},"type":"Feature","geometry":{"type":"Point","coordinates":[-0.126197,51.500197]}},{"properties":{"name":"derdle","description":"Posted by AudisrshertfordFull VAGCOM<a title=\"Built for Community Mapping\" href=\"http://www.platial.com\"><img src=\"http://media.geocommons.com/platial/images/logotype_small.jpg\"></a>","id":"a6fwc0obn5np"},"type":"Feature","geometry":{"type":"Point","coordinates":[-0.078882,51.795968]}},{"properties":{"name":"derdle","description":"Posted by AudisrsRoyston, hertsFull Vagcom <a title=\"Built for Community Mapping\" href=\"http://www.platial.com\"><img src=\"http://media.geocommons.com/platial/images/logotype_small.jpg\"></a>","id":"a6fwc0clzssr"},"type":"Feature","geometry":{"type":"Point","coordinates":[-0.024067,52.048177]}},{"properties":{"name":"frazered","description":"Posted by AudisrsWarrington, UKHEX+CAN USB Lead<a title=\"Built for Community Mapping\" href=\"http://www.platial.com\"><img src=\"http://media.geocommons.com/platial/images/logotype_small.jpg\"></a>","id":"a6fwc0j0rps5"},"type":"Feature","geometry":{"type":"Point","coordinates":[-2.6,53.383335]}},{"properties":{"name":"mikeyquattro","description":"Posted by AudisrsswindonShareware 409.1\rShareware 409.1<a title=\"Built for Community Mapping\" href=\"http://www.platial.com\"><img src=\"http://media.geocommons.com/platial/images/logotype_small.jpg\"></a>","id":"a6fwc0fxu9c8"},"type":"Feature","geometry":{"type":"Point","coordinates":[-1.765775,51.56143]}},{"properties":{"name":"rik","description":"Posted by AudisrsNewbury UK<a title=\"Built for Community Mapping\" href=\"http://www.platial.com\"><img src=\"http://media.geocommons.com/platial/images/logotype_small.jpg\"></a>","id":"a6fwc0g802ke"},"type":"Feature","geometry":{"type":"Point","coordinates":[-1.321859,51.400387]}}],"is_temporal":false,"author":{"url":"http://www.platial.com/map/520172","metadata":null,"contact_name":"audisrs","contact_address":null,"source":"platial:audisrs","contact_phone":null},"source":"http://www.platial.com/map/520172","pagination":{"sort":null,"start":0,"total":34,"limit":1000000},"state":"complete","tags":"platial,platial:id=520172,platial:user=audisrs","published":"2010-03-04T17:00:00Z","id":32188}