{"type":"FeatureCollection","data_type":"Dataset","url_type":null,"permissions":[{"permissions":{"download":true,"view":true},"group_id":"everyone"}],"classification":null,"title":"\nGloucester &amp; Sharpness Canal\n","count":30,"stream_id":32281,"contributor":{"url":"http://geocommons.com/users/11444","name":"platial"},"data_attributes":null,"calculation_params":null,"icon_link":null,"link":"http://geocommons.com/overlays/32281.json","extent":[-2.48128,51.7193,-2.25078,51.8642],"geometry_types":["point"],"unique_name":null,"name":"\nGloucester & Sharpness Canal\n","feature_count":30,"description":"\nA Map by Hughcj\n\n\n","next_feature":null,"is_raster":false,"short_classification":"Y","stats":{},"features":[{"properties":{"name":"Bakers Quay","description":"Posted by <a title=\"http://www.gloucesterdocks.me.uk\" href=\"http://www.gloucesterdocks.me.uk\">Hughcj</a><a title=\"Built for Community Mapping\" href=\"http://www.platial.com\"><img src=\"http://media.geocommons.com/platial/images/logotype_small.jpg\"></a>","id":"a690rbeg3vua"},"type":"Feature","geometry":{"type":"Point","coordinates":[-2.2543,51.86041]}},{"properties":{"name":"Cambridge Arms Bridge","description":"Posted by <a title=\"http://www.gloucesterdocks.me.uk\" href=\"http://www.gloucesterdocks.me.uk\">Hughcj</a><a title=\"Built for Community Mapping\" href=\"http://www.platial.com\"><img src=\"http://media.geocommons.com/platial/images/logotype_small.jpg\"></a>","id":"a690rbfrp7b6"},"type":"Feature","geometry":{"type":"Point","coordinates":[-2.38208,51.74279]}},{"properties":{"name":"Fretherne Bridge","description":"Posted by <a title=\"http://www.gloucesterdocks.me.uk\" href=\"http://www.gloucesterdocks.me.uk\">Hughcj</a><a title=\"Built for Community Mapping\" href=\"http://www.platial.com\"><img src=\"http://media.geocommons.com/platial/images/logotype_small.jpg\"></a>","id":"a690rbazl01c"},"type":"Feature","geometry":{"type":"Point","coordinates":[-2.36886,51.77417]}},{"properties":{"name":"Gloucester Lock","description":"Posted by <a title=\"http://www.gloucesterdocks.me.uk\" href=\"http://www.gloucesterdocks.me.uk\">Hughcj</a><a title=\"Built for Community Mapping\" href=\"http://www.platial.com\"><img src=\"http://media.geocommons.com/platial/images/logotype_small.jpg\"></a>","id":"a690rboq5z7c"},"type":"Feature","geometry":{"type":"Point","coordinates":[-2.2527,51.86419]}},{"properties":{"name":"Hempsted Bridge","description":"Posted by <a title=\"http://www.gloucesterdocks.me.uk\" href=\"http://www.gloucesterdocks.me.uk\">Hughcj</a><a title=\"Built for Community Mapping\" href=\"http://www.platial.com\"><img src=\"http://media.geocommons.com/platial/images/logotype_small.jpg\"></a>","id":"a690rbksa8t3"},"type":"Feature","geometry":{"type":"Point","coordinates":[-2.264,51.84592]}},{"properties":{"name":"High Level Bridge","description":"Posted by <a title=\"http://www.gloucesterdocks.me.uk\" href=\"http://www.gloucesterdocks.me.uk\">Hughcj</a><a title=\"Built for Community Mapping\" href=\"http://www.platial.com\"><img src=\"http://media.geocommons.com/platial/images/logotype_small.jpg\"></a>","id":"a690rbedkuwb"},"type":"Feature","geometry":{"type":"Point","coordinates":[-2.47399,51.72373]}},{"properties":{"name":"Junction Footbridge","description":"Posted by <a title=\"http://www.gloucesterdocks.me.uk\" href=\"http://www.gloucesterdocks.me.uk\">Hughcj</a><a title=\"Built for Community Mapping\" href=\"http://www.platial.com\"><img src=\"http://media.geocommons.com/platial/images/logotype_small.jpg\"></a>","id":"a690rbituod7"},"type":"Feature","geometry":{"type":"Point","coordinates":[-2.35457,51.78194]}},{"properties":{"name":"Llanthony Bridge","description":"Posted by <a title=\"http://www.gloucesterdocks.me.uk\" href=\"http://www.gloucesterdocks.me.uk\">Hughcj</a><a title=\"Built for Community Mapping\" href=\"http://www.platial.com\"><img src=\"http://media.geocommons.com/platial/images/logotype_small.jpg\"></a>","id":"a690rbmnkmc4"},"type":"Feature","geometry":{"type":"Point","coordinates":[-2.25369,51.86155]}},{"properties":{"name":"Llanthony Quay","description":"Posted by <a title=\"http://www.gloucesterdocks.me.uk\" href=\"http://www.gloucesterdocks.me.uk\">Hughcj</a><a title=\"Built for Community Mapping\" href=\"http://www.platial.com\"><img src=\"http://media.geocommons.com/platial/images/logotype_small.jpg\"></a>","id":"a690rbah5bqi"},"type":"Feature","geometry":{"type":"Point","coordinates":[-2.25504,51.86041]}},{"properties":{"name":"Low Level Bridge","description":"Posted by <a title=\"http://www.gloucesterdocks.me.uk\" href=\"http://www.gloucesterdocks.me.uk\">Hughcj</a><a title=\"Built for Community Mapping\" href=\"http://www.platial.com\"><img src=\"http://media.geocommons.com/platial/images/logotype_small.jpg\"></a>","id":"a690rbahmub8"},"type":"Feature","geometry":{"type":"Point","coordinates":[-2.47419,51.72308]}},{"properties":{"name":"Main Basin","description":"Posted by <a title=\"http://www.gloucesterdocks.me.uk\" href=\"http://www.gloucesterdocks.me.uk\">Hughcj</a><a title=\"Built for Community Mapping\" href=\"http://www.platial.com\"><img src=\"http://media.geocommons.com/platial/images/logotype_small.jpg\"></a>","id":"a690rbdkps11"},"type":"Feature","geometry":{"type":"Point","coordinates":[-2.25291,51.86314]}},{"properties":{"name":"Monk Meadow Dock","description":"Posted by <a title=\"http://www.gloucesterdocks.me.uk\" href=\"http://www.gloucesterdocks.me.uk\">Hughcj</a><a title=\"Built for Community Mapping\" href=\"http://www.platial.com\"><img src=\"http://media.geocommons.com/platial/images/logotype_small.jpg\"></a>","id":"a690rbezss5a"},"type":"Feature","geometry":{"type":"Point","coordinates":[-2.25904,51.85656]}},{"properties":{"name":"Netheridge Bridge over the new Two Mile Cut","description":"Posted by <a title=\"http://www.gloucesterdocks.me.uk\" href=\"http://www.gloucesterdocks.me.uk\">Hughcj</a><a title=\"Built for Community Mapping\" href=\"http://www.platial.com\"><img src=\"http://media.geocommons.com/platial/images/logotype_small.jpg\"></a>","id":"a690rbfu9d02"},"type":"Feature","geometry":{"type":"Point","coordinates":[-2.27275,51.83891]}},{"properties":{"name":"New bridge under construction","description":"Posted by <a title=\"http://www.gloucesterdocks.me.uk\" href=\"http://www.gloucesterdocks.me.uk\">Hughcj</a><a title=\"Built for Community Mapping\" href=\"http://www.platial.com\"><img src=\"http://media.geocommons.com/platial/images/logotype_small.jpg\"></a>","id":"a690rba3k6bu"},"type":"Feature","geometry":{"type":"Point","coordinates":[-2.25593,51.85863]}},{"properties":{"name":"Parkend Bridge","description":"Posted by <a title=\"http://www.gloucesterdocks.me.uk\" href=\"http://www.gloucesterdocks.me.uk\">Hughcj</a><a title=\"Built for Community Mapping\" href=\"http://www.platial.com\"><img src=\"http://media.geocommons.com/platial/images/logotype_small.jpg\"></a>","id":"a690rbh9lbx4"},"type":"Feature","geometry":{"type":"Point","coordinates":[-2.32432,51.79437]}},{"properties":{"name":"Patch Bridge","description":"Posted by <a title=\"http://www.gloucesterdocks.me.uk\" href=\"http://www.gloucesterdocks.me.uk\">Hughcj</a><a title=\"Built for Community Mapping\" href=\"http://www.platial.com\"><img src=\"http://media.geocommons.com/platial/images/logotype_small.jpg\"></a>","id":"a690rbfy8b99"},"type":"Feature","geometry":{"type":"Point","coordinates":[-2.39558,51.73603]}},{"properties":{"name":"Purton Lower Bridge","description":"Posted by <a title=\"http://www.gloucesterdocks.me.uk\" href=\"http://www.gloucesterdocks.me.uk\">Hughcj</a><a title=\"Built for Community Mapping\" href=\"http://www.platial.com\"><img src=\"http://media.geocommons.com/platial/images/logotype_small.jpg\"></a>","id":"a690rbcc85r5"},"type":"Feature","geometry":{"type":"Point","coordinates":[-2.44884,51.73678]}},{"properties":{"name":"Purton Upper Bridge","description":"Posted by <a title=\"http://www.gloucesterdocks.me.uk\" href=\"http://www.gloucesterdocks.me.uk\">Hughcj</a><a title=\"Built for Community Mapping\" href=\"http://www.platial.com\"><img src=\"http://media.geocommons.com/platial/images/logotype_small.jpg\"></a>","id":"a690rbb6ketl"},"type":"Feature","geometry":{"type":"Point","coordinates":[-2.44729,51.73577]}},{"properties":{"name":"Rea Bridge","description":"Posted by <a title=\"http://www.gloucesterdocks.me.uk\" href=\"http://www.gloucesterdocks.me.uk\">Hughcj</a><a title=\"Built for Community Mapping\" href=\"http://www.platial.com\"><img src=\"http://media.geocommons.com/platial/images/logotype_small.jpg\"></a>","id":"a690rbgfgx14"},"type":"Feature","geometry":{"type":"Point","coordinates":[-2.28343,51.83379]}},{"properties":{"name":"Sandfield Bridge","description":"Posted by <a title=\"http://www.gloucesterdocks.me.uk\" href=\"http://www.gloucesterdocks.me.uk\">Hughcj</a><a title=\"Built for Community Mapping\" href=\"http://www.platial.com\"><img src=\"http://media.geocommons.com/platial/images/logotype_small.jpg\"></a>","id":"a690rbd2kcks"},"type":"Feature","geometry":{"type":"Point","coordinates":[-2.35838,51.77903]}},{"properties":{"name":"Sellars Bridge","description":"Posted by <a title=\"http://www.gloucesterdocks.me.uk\" href=\"http://www.gloucesterdocks.me.uk\">Hughcj</a><a title=\"Built for Community Mapping\" href=\"http://www.platial.com\"><img src=\"http://media.geocommons.com/platial/images/logotype_small.jpg\"></a>","id":"a690rbgfnsv4"},"type":"Feature","geometry":{"type":"Point","coordinates":[-2.29726,51.81986]}},{"properties":{"name":"Sharpness New Dock","description":"Posted by <a title=\"http://www.gloucesterdocks.me.uk\" href=\"http://www.gloucesterdocks.me.uk\">Hughcj</a><a title=\"Built for Community Mapping\" href=\"http://www.platial.com\"><img src=\"http://media.geocommons.com/platial/images/logotype_small.jpg\"></a>","id":"a690rbnrgxtp"},"type":"Feature","geometry":{"type":"Point","coordinates":[-2.47694,51.71929]}},{"properties":{"name":"Sharpness Old Dock","description":"Posted by <a title=\"http://www.gloucesterdocks.me.uk\" href=\"http://www.gloucesterdocks.me.uk\">Hughcj</a><a title=\"Built for Community Mapping\" href=\"http://www.platial.com\"><img src=\"http://media.geocommons.com/platial/images/logotype_small.jpg\"></a>","id":"a690rbkf3gtw"},"type":"Feature","geometry":{"type":"Point","coordinates":[-2.48128,51.7248]}},{"properties":{"name":"Sims Bridge","description":"Posted by <a title=\"http://www.gloucesterdocks.me.uk\" href=\"http://www.gloucesterdocks.me.uk\">Hughcj</a><a title=\"Built for Community Mapping\" href=\"http://www.platial.com\"><img src=\"http://media.geocommons.com/platial/images/logotype_small.jpg\"></a>","id":"a690rbn96yav"},"type":"Feature","geometry":{"type":"Point","coordinates":[-2.27791,51.83791]}},{"properties":{"name":"Site of Hardwicke Bridge","description":"Posted by <a title=\"http://www.gloucesterdocks.me.uk\" href=\"http://www.gloucesterdocks.me.uk\">Hughcj</a><a title=\"Built for Community Mapping\" href=\"http://www.platial.com\"><img src=\"http://media.geocommons.com/platial/images/logotype_small.jpg\"></a>","id":"a690rbf0fyf8"},"type":"Feature","geometry":{"type":"Point","coordinates":[-2.30615,51.81249]}},{"properties":{"name":"Site of Hempsted Railway Bridge","description":"Posted by <a title=\"http://www.gloucesterdocks.me.uk\" href=\"http://www.gloucesterdocks.me.uk\">Hughcj</a><a title=\"Built for Community Mapping\" href=\"http://www.platial.com\"><img src=\"http://media.geocommons.com/platial/images/logotype_small.jpg\"></a>","id":"a690rbl6qfmj"},"type":"Feature","geometry":{"type":"Point","coordinates":[-2.26188,51.84816]}},{"properties":{"name":"Site of Pegthorne Bridge","description":"Posted by <a title=\"http://www.gloucesterdocks.me.uk\" href=\"http://www.gloucesterdocks.me.uk\">Hughcj</a><a title=\"Built for Community Mapping\" href=\"http://www.platial.com\"><img src=\"http://media.geocommons.com/platial/images/logotype_small.jpg\"></a>","id":"a690rbbg36j1"},"type":"Feature","geometry":{"type":"Point","coordinates":[-2.34436,51.78732]}},{"properties":{"name":"Site of Severn Railway Bridge","description":"Posted by <a title=\"http://www.gloucesterdocks.me.uk\" href=\"http://www.gloucesterdocks.me.uk\">Hughcj</a><a title=\"Built for Community Mapping\" href=\"http://www.platial.com\"><img src=\"http://media.geocommons.com/platial/images/logotype_small.jpg\"></a>","id":"a690rbghgqmd"},"type":"Feature","geometry":{"type":"Point","coordinates":[-2.46712,51.72825]}},{"properties":{"name":"Splatt Bridge","description":"Posted by <a title=\"http://www.gloucesterdocks.me.uk\" href=\"http://www.gloucesterdocks.me.uk\">Hughcj</a><a title=\"Built for Community Mapping\" href=\"http://www.platial.com\"><img src=\"http://media.geocommons.com/platial/images/logotype_small.jpg\"></a>","id":"a690rbkqwgk3"},"type":"Feature","geometry":{"type":"Point","coordinates":[-2.37498,51.75866]}},{"properties":{"name":"Victoria Dock","description":"Posted by <a title=\"http://www.gloucesterdocks.me.uk\" href=\"http://www.gloucesterdocks.me.uk\">Hughcj</a><a title=\"Built for Community Mapping\" href=\"http://www.platial.com\"><img src=\"http://media.geocommons.com/platial/images/logotype_small.jpg\"></a>","id":"a690rbfxm7ay"},"type":"Feature","geometry":{"type":"Point","coordinates":[-2.25078,51.86277]}}],"is_temporal":false,"author":{"url":"http://www.platial.com/map/42317","metadata":null,"contact_name":"hughcj","contact_address":null,"source":"platial:hughcj","contact_phone":null},"source":"http://www.platial.com/map/42317","pagination":{"sort":null,"start":0,"total":30,"limit":1000000},"state":"complete","tags":"platial,platial:id=42317,platial:user=hughcj","published":"2010-03-04T17:00:00Z","id":32281}