{"type":"FeatureCollection","data_type":"Dataset","url_type":null,"permissions":[{"permissions":{"download":true,"view":true},"group_id":"everyone"}],"classification":null,"title":"Facebook insights 03.06.2013","count":143,"stream_id":334765,"contributor":{"url":"http://geocommons.com/users/66077","name":"shiyaoyuanhrb"},"data_attributes":null,"calculation_params":null,"icon_link":null,"link":"http://geocommons.com/overlays/334765.json","extent":[-126.5,-47.5,179.5,79.5],"geometry_types":["point"],"unique_name":null,"name":"Facebook insights 03.06.2013","feature_count":143,"description":"","next_feature":null,"is_raster":false,"short_classification":"Y","stats":{"number of visitors":{"max":24,"variance":10.1184871466561,"mean":2.96503496503496,"stdev":3.1809569545431,"min":1,"median":2}},"features":[{"properties":{"city":"Addis Ababa, Ethiopia","geo_score":0.714,"number of visitors":2,"id":"ad0di8zpvcld","geo_precision":"zip"},"type":"Feature","geometry":{"type":"Point","coordinates":[-5.51,35.34]}},{"properties":{"city":"Adis Abeba, Ethiopia","geo_score":0.714,"number of visitors":3,"id":"ad0di8qbr4k5","geo_precision":"zip"},"type":"Feature","geometry":{"type":"Point","coordinates":[-5.51,35.34]}},{"properties":{"city":"Ahmedabad, India","geo_score":0.714,"number of visitors":2,"id":"ad0di92xd55z","geo_precision":"zip"},"type":"Feature","geometry":{"type":"Point","coordinates":[75.9666667,17.1666667]}},{"properties":{"city":"Alexandria, Egypt","geo_score":0.714,"number of visitors":2,"id":"ad0di8r0cltx","geo_precision":"zip"},"type":"Feature","geometry":{"type":"Point","coordinates":[26.8,63.5333333]}},{"properties":{"city":"Alexandria, USA","geo_score":0.714,"number of visitors":1,"id":"ad0di8q8oo2k","geo_precision":"zip"},"type":"Feature","geometry":{"type":"Point","coordinates":[67.52,33.16]}},{"properties":{"city":"Algiers, Algeria","geo_score":0.714,"number of visitors":3,"id":"ad0di8zekpgb","geo_precision":"zip"},"type":"Feature","geometry":{"type":"Point","coordinates":[41.8833333,19.8]}},{"properties":{"city":"Amman, Jordan","geo_score":0.714,"number of visitors":4,"id":"ad0di8yq674k","geo_precision":"zip"},"type":"Feature","geometry":{"type":"Point","coordinates":[130.8333333,-3.7166667]}},{"properties":{"city":"Amsterdam, Netherlands","geo_score":0.714,"number of visitors":2,"id":"ad0di8t7aeof","geo_precision":"zip"},"type":"Feature","geometry":{"type":"Point","coordinates":[6.7666667,51.3833333]}},{"properties":{"city":"Baghdad, Iraq","geo_score":0.714,"number of visitors":2,"id":"ad0di8q0gr0r","geo_precision":"zip"},"type":"Feature","geometry":{"type":"Point","coordinates":[30.2166667,64.3166667]}},{"properties":{"city":"Baltimore,USA","geo_score":0.857,"number of visitors":2,"id":"ad0di91y599y","geo_precision":"zip"},"type":"Feature","geometry":{"type":"Point","coordinates":[-73.7333333,38.05]}},{"properties":{"city":"Bangalore, India","geo_score":0.714,"number of visitors":4,"id":"ad0di8tzzyt2","geo_precision":"zip"},"type":"Feature","geometry":{"type":"Point","coordinates":[75.9666667,17.1666667]}},{"properties":{"city":"Batna, Algeria","geo_score":0.714,"number of visitors":1,"id":"ad0di9349i9u","geo_precision":"zip"},"type":"Feature","geometry":{"type":"Point","coordinates":[43.7,-23.35]}},{"properties":{"city":"Belgaum, India","geo_score":0.714,"number of visitors":2,"id":"ad0di8ztd848","geo_precision":"zip"},"type":"Feature","geometry":{"type":"Point","coordinates":[-77.5333333,1.2166667]}},{"properties":{"city":"Belgrade, Serbia","geo_score":0.714,"number of visitors":1,"id":"ad0di8uv7g5c","geo_precision":"zip"},"type":"Feature","geometry":{"type":"Point","coordinates":[45.927,35.1426]}},{"properties":{"city":"Bhavnagar, India","geo_score":0.714,"number of visitors":2,"id":"ad0di8vm4ipw","geo_precision":"zip"},"type":"Feature","geometry":{"type":"Point","coordinates":[13.2333333,4.7666667]}},{"properties":{"city":"Bhopal, India","geo_score":0.714,"number of visitors":1,"id":"ad0di8u6svsh","geo_precision":"zip"},"type":"Feature","geometry":{"type":"Point","coordinates":[13.2333333,4.7666667]}},{"properties":{"city":"Blida, Algeria","geo_score":0.714,"number of visitors":1,"id":"ad0di8vdgtfx","geo_precision":"zip"},"type":"Feature","geometry":{"type":"Point","coordinates":[5.1666667,49.9833333]}},{"properties":{"city":"BogotȢ, Colombia","geo_score":0.714,"number of visitors":2,"id":"ad0di8v3v2bo","geo_precision":"zip"},"type":"Feature","geometry":{"type":"Point","coordinates":[19.4166667,4.1333333]}},{"properties":{"city":"Boston,USA","geo_score":0.714,"number of visitors":3,"id":"ad0di8uweq9s","geo_precision":"zip"},"type":"Feature","geometry":{"type":"Point","coordinates":[-61.3,-32.7333333]}},{"properties":{"city":"Botucatu, Brazil","geo_score":0.857,"number of visitors":1,"id":"ad0di8pkfya5","geo_precision":"zip"},"type":"Feature","geometry":{"type":"Point","coordinates":[-96.5,79.5]}},{"properties":{"city":"Brisbane, Australia","geo_score":0.857,"number of visitors":1,"id":"ad0di8oaz5wk","geo_precision":"zip"},"type":"Feature","geometry":{"type":"Point","coordinates":[-126.5,-19.5]}},{"properties":{"city":"Bronx, USA","geo_score":0.714,"number of visitors":1,"id":"ad0di8qje5fj","geo_precision":"zip"},"type":"Feature","geometry":{"type":"Point","coordinates":[151.55,-31.1666667]}},{"properties":{"city":"Buenos Aires, Argentina","geo_score":0.857,"number of visitors":1,"id":"ad0di8zbv828","geo_precision":"zip"},"type":"Feature","geometry":{"type":"Point","coordinates":[-50.0,-47.5]}},{"properties":{"city":"Bujumbura, Burundi","geo_score":0.714,"number of visitors":1,"id":"ad0di94joig8","geo_precision":"zip"},"type":"Feature","geometry":{"type":"Point","coordinates":[143.8666667,-4.4]}},{"properties":{"city":"Cairo, Egypt","geo_score":0.714,"number of visitors":24,"id":"ad0di8utf1px","geo_precision":"zip"},"type":"Feature","geometry":{"type":"Point","coordinates":[-99.5245277,33.4673183]}},{"properties":{"city":"Campinas, Brazil","geo_score":0.857,"number of visitors":2,"id":"ad0di8tpeb9k","geo_precision":"zip"},"type":"Feature","geometry":{"type":"Point","coordinates":[-96.5,79.5]}},{"properties":{"city":"Canton,USA","geo_score":0.714,"number of visitors":1,"id":"ad0di8p2y9c7","geo_precision":"zip"},"type":"Feature","geometry":{"type":"Point","coordinates":[23.7413889,35.3302778]}},{"properties":{"city":"Cape Town, South Africa","geo_score":0.857,"number of visitors":5,"id":"ad0di8pvk9rf","geo_precision":"zip"},"type":"Feature","geometry":{"type":"Point","coordinates":[115.95,20.9333333]}},{"properties":{"city":"Chandigarh, India","geo_score":0.714,"number of visitors":3,"id":"ad0di8yq6o07","geo_precision":"zip"},"type":"Feature","geometry":{"type":"Point","coordinates":[75.9666667,17.1666667]}},{"properties":{"city":"Chennai, India","geo_score":0.714,"number of visitors":3,"id":"ad0di8zcb9ow","geo_precision":"zip"},"type":"Feature","geometry":{"type":"Point","coordinates":[31.05,58.8833333]}},{"properties":{"city":"Chevy Chase,USA","geo_score":0.714,"number of visitors":1,"id":"ad0di8smzby0","geo_precision":"zip"},"type":"Feature","geometry":{"type":"Point","coordinates":[-0.7166667,39.4666667]}},{"properties":{"city":"Chicago,USA","geo_score":0.714,"number of visitors":2,"id":"ad0di8tamnzs","geo_precision":"zip"},"type":"Feature","geometry":{"type":"Point","coordinates":[19.65,-8.95]}},{"properties":{"city":"Chittagong, Bangladesh","geo_score":0.857,"number of visitors":3,"id":"ad0di92dqur9","geo_precision":"zip"},"type":"Feature","geometry":{"type":"Point","coordinates":[-16.7166667,25.25]}},{"properties":{"city":"Coimbatore, India","geo_score":0.714,"number of visitors":3,"id":"ad0di8xru8u8","geo_precision":"zip"},"type":"Feature","geometry":{"type":"Point","coordinates":[75.9666667,17.1666667]}},{"properties":{"city":"Colombo, Sri Lanka","geo_score":0.857,"number of visitors":2,"id":"ad0di8ymso11","geo_precision":"zip"},"type":"Feature","geometry":{"type":"Point","coordinates":[-74.2166667,24.5833333]}},{"properties":{"city":"Constantine, Algeria","geo_score":0.857,"number of visitors":2,"id":"ad0di948vvqc","geo_precision":"zip"},"type":"Feature","geometry":{"type":"Point","coordinates":[179.5,51.45]}},{"properties":{"city":"Cork, Ireland","geo_score":0.857,"number of visitors":1,"id":"ad0di8ysglra","geo_precision":"zip"},"type":"Feature","geometry":{"type":"Point","coordinates":[-12.6666667,55.0]}},{"properties":{"city":"Crato, Brazil","geo_score":0.857,"number of visitors":1,"id":"ad0di8vjug7y","geo_precision":"zip"},"type":"Feature","geometry":{"type":"Point","coordinates":[-96.5,79.5]}},{"properties":{"city":"Damascus, Syria","geo_score":0.714,"number of visitors":2,"id":"ad0di92r61of","geo_precision":"zip"},"type":"Feature","geometry":{"type":"Point","coordinates":[117.9666667,28.4666667]}},{"properties":{"city":"Darwin, Australia","geo_score":0.857,"number of visitors":1,"id":"ad0di8t9wz3x","geo_precision":"zip"},"type":"Feature","geometry":{"type":"Point","coordinates":[-126.5,-19.5]}},{"properties":{"city":"Delhi, India","geo_score":0.714,"number of visitors":2,"id":"ad0di8o4sycl","geo_precision":"zip"},"type":"Feature","geometry":{"type":"Point","coordinates":[77.2166667,28.6666667]}},{"properties":{"city":"Dhaka, Bangladesh","geo_score":0.714,"number of visitors":8,"id":"ad0di8x1xib0","geo_precision":"zip"},"type":"Feature","geometry":{"type":"Point","coordinates":[89.3666667,23.7]}},{"properties":{"city":"Dharan, Nepal","geo_score":0.714,"number of visitors":2,"id":"ad0di8rx244u","geo_precision":"zip"},"type":"Feature","geometry":{"type":"Point","coordinates":[23.5256767272949,52.1229498091348]}},{"properties":{"city":"Doha, Qatar","geo_score":0.714,"number of visitors":3,"id":"ad0di94frwzn","geo_precision":"zip"},"type":"Feature","geometry":{"type":"Point","coordinates":[135.8666667,-33.25]}},{"properties":{"city":"Douala, Cameroon","geo_score":0.857,"number of visitors":2,"id":"ad0di8sifri9","geo_precision":"zip"},"type":"Feature","geometry":{"type":"Point","coordinates":[114.35,8.5]}},{"properties":{"city":"Dubai, United Arab Emirates","geo_score":0.714,"number of visitors":3,"id":"ad0di8x6w8f4","geo_precision":"zip"},"type":"Feature","geometry":{"type":"Point","coordinates":[103.42392,24.38254]}},{"properties":{"city":"El Fayoum City, Egypt","geo_score":0.714,"number of visitors":2,"id":"ad0di90pa29z","geo_precision":"zip"},"type":"Feature","geometry":{"type":"Point","coordinates":[13.4333333,8.4833333]}},{"properties":{"city":"Enugu, Nigeria","geo_score":0.714,"number of visitors":2,"id":"ad0di944asxh","geo_precision":"zip"},"type":"Feature","geometry":{"type":"Point","coordinates":[34.15,-0.9]}},{"properties":{"city":"Faisalabad, Pakistan","geo_score":0.714,"number of visitors":2,"id":"ad0di90li5sh","geo_precision":"zip"},"type":"Feature","geometry":{"type":"Point","coordinates":[70.1777778,28.5777778]}},{"properties":{"city":"FlorianȮpolis, Brazil","geo_score":0.857,"number of visitors":2,"id":"ad0di8sehfum","geo_precision":"zip"},"type":"Feature","geometry":{"type":"Point","coordinates":[-96.5,79.5]}},{"properties":{"city":"G?za, Egypt","geo_score":0.714,"number of visitors":3,"id":"ad0di8s4k1wq","geo_precision":"zip"},"type":"Feature","geometry":{"type":"Point","coordinates":[97.55,25.0166667]}},{"properties":{"city":"Galle, Sri Lanka","geo_score":0.714,"number of visitors":2,"id":"ad0di8sz3g71","geo_precision":"zip"},"type":"Feature","geometry":{"type":"Point","coordinates":[-84.3333333,9.85]}},{"properties":{"city":"Gaza, Palestine","geo_score":0.714,"number of visitors":3,"id":"ad0di8prcoi6","geo_precision":"zip"},"type":"Feature","geometry":{"type":"Point","coordinates":[-96.0772409,41.2480546]}},{"properties":{"city":"Geneva, Switzerland","geo_score":0.714,"number of visitors":2,"id":"ad0di8x2cq8j","geo_precision":"zip"},"type":"Feature","geometry":{"type":"Point","coordinates":[-71.0061618,42.4487074]}},{"properties":{"city":"Georgetown, Guyana","geo_score":0.857,"number of visitors":2,"id":"ad0di8qbnqhj","geo_precision":"zip"},"type":"Feature","geometry":{"type":"Point","coordinates":[-75.78167,23.466667]}},{"properties":{"city":"Giza, Egypt","geo_score":0.714,"number of visitors":2,"id":"ad0di8p1om7t","geo_precision":"zip"},"type":"Feature","geometry":{"type":"Point","coordinates":[6.26701354980469,46.2359026969433]}},{"properties":{"city":"Gwalior, India","geo_score":0.714,"number of visitors":2,"id":"ad0di8ws84do","geo_precision":"zip"},"type":"Feature","geometry":{"type":"Point","coordinates":[75.9666667,17.1666667]}},{"properties":{"city":"Haddon Heights,USA","geo_score":0.714,"number of visitors":1,"id":"ad0di904bi12","geo_precision":"zip"},"type":"Feature","geometry":{"type":"Point","coordinates":[8.67332403654952,47.173016115822]}},{"properties":{"city":"Hyderabad, India","geo_score":0.714,"number of visitors":5,"id":"ad0di8rzn04g","geo_precision":"zip"},"type":"Feature","geometry":{"type":"Point","coordinates":[75.9666667,17.1666667]}},{"properties":{"city":"Indore, India","geo_score":0.714,"number of visitors":4,"id":"ad0di93ihp23","geo_precision":"zip"},"type":"Feature","geometry":{"type":"Point","coordinates":[-81.9767503,27.9214141]}},{"properties":{"city":"Islamabad, Pakistan","geo_score":0.714,"number of visitors":5,"id":"ad0di8udxxxu","geo_precision":"zip"},"type":"Feature","geometry":{"type":"Point","coordinates":[39.716667,9.65]}},{"properties":{"city":"Ismailia, Egypt","geo_score":0.714,"number of visitors":2,"id":"ad0di8vhwhtq","geo_precision":"zip"},"type":"Feature","geometry":{"type":"Point","coordinates":[49.2086111,39.3663889]}},{"properties":{"city":"Istanbul, Turkey","geo_score":0.714,"number of visitors":1,"id":"ad0di90cd1gr","geo_precision":"zip"},"type":"Feature","geometry":{"type":"Point","coordinates":[-69.5980556,-14.2677778]}},{"properties":{"city":"Izmir, Turkey","geo_score":0.714,"number of visitors":4,"id":"ad0di8z9qrxf","geo_precision":"zip"},"type":"Feature","geometry":{"type":"Point","coordinates":[-69.5980556,-14.2677778]}},{"properties":{"city":"Jaipur, India","geo_score":0.714,"number of visitors":2,"id":"ad0di91qbgfx","geo_precision":"zip"},"type":"Feature","geometry":{"type":"Point","coordinates":[75.9666667,17.1666667]}},{"properties":{"city":"Jakarta, Indonesia","geo_score":0.714,"number of visitors":2,"id":"ad0di8yurwzp","geo_precision":"zip"},"type":"Feature","geometry":{"type":"Point","coordinates":[34.9483333,-24.2608333]}},{"properties":{"city":"Jeddah, Saudi Arabia","geo_score":0.714,"number of visitors":4,"id":"ad0di8xzf54s","geo_precision":"zip"},"type":"Feature","geometry":{"type":"Point","coordinates":[118.218537,27.002969]}},{"properties":{"city":"Johannesburg, South Africa","geo_score":0.857,"number of visitors":2,"id":"ad0di8s0vtys","geo_precision":"zip"},"type":"Feature","geometry":{"type":"Point","coordinates":[115.95,20.9333333]}},{"properties":{"city":"Juiz de Fora, Brazil","geo_score":0.857,"number of visitors":2,"id":"ad0di8uqdkp6","geo_precision":"zip"},"type":"Feature","geometry":{"type":"Point","coordinates":[-96.5,79.5]}},{"properties":{"city":"Kabul, Afghanistan","geo_score":0.714,"number of visitors":1,"id":"ad0di91nbbum","geo_precision":"zip"},"type":"Feature","geometry":{"type":"Point","coordinates":[-4.7666667,11.5333333]}},{"properties":{"city":"Karachi, Pakistan","geo_score":0.857,"number of visitors":9,"id":"ad0di8t9bayb","geo_precision":"zip"},"type":"Feature","geometry":{"type":"Point","coordinates":[150.0,40.0]}},{"properties":{"city":"Kathmandu, Nepal","geo_score":0.714,"number of visitors":4,"id":"ad0di8w84ln0","geo_precision":"zip"},"type":"Feature","geometry":{"type":"Point","coordinates":[23.5256767272949,52.1229498091348]}},{"properties":{"city":"Katihar, India","geo_score":0.714,"number of visitors":1,"id":"ad0di924x4rd","geo_precision":"zip"},"type":"Feature","geometry":{"type":"Point","coordinates":[75.9666667,17.1666667]}},{"properties":{"city":"Khammam, India","geo_score":0.714,"number of visitors":1,"id":"ad0di94eoxsv","geo_precision":"zip"},"type":"Feature","geometry":{"type":"Point","coordinates":[75.9666667,17.1666667]}},{"properties":{"city":"Kharkov, Ukraine","geo_score":0.714,"number of visitors":1,"id":"ad0di8wurkxv","geo_precision":"zip"},"type":"Feature","geometry":{"type":"Point","coordinates":[32.0,49.0]}},{"properties":{"city":"Khartoum, Sudan","geo_score":0.714,"number of visitors":4,"id":"ad0di94daof2","geo_precision":"zip"},"type":"Feature","geometry":{"type":"Point","coordinates":[93.45,23.15]}},{"properties":{"city":"Kigali, Rwanda","geo_score":0.714,"number of visitors":1,"id":"ad0di93fp20x","geo_precision":"zip"},"type":"Feature","geometry":{"type":"Point","coordinates":[16.4833333,-5.4666667]}},{"properties":{"city":"Kumasi, Ghana","geo_score":0.714,"number of visitors":2,"id":"ad0di8twgtqp","geo_precision":"zip"},"type":"Feature","geometry":{"type":"Point","coordinates":[120.4608333,24.1302778]}},{"properties":{"city":"Lagos, Nigeria","geo_score":0.714,"number of visitors":8,"id":"ad0di8yidsiz","geo_precision":"zip"},"type":"Feature","geometry":{"type":"Point","coordinates":[20.8333333,-7.8]}},{"properties":{"city":"Lahore, Pakistan","geo_score":0.714,"number of visitors":6,"id":"ad0di8uy1llz","geo_precision":"zip"},"type":"Feature","geometry":{"type":"Point","coordinates":[67.2180556,30.0675]}},{"properties":{"city":"Lima, Peru","geo_score":0.714,"number of visitors":2,"id":"ad0di90wummg","geo_precision":"zip"},"type":"Feature","geometry":{"type":"Point","coordinates":[23.6166667,-15.6666667]}},{"properties":{"city":"London, United Kingdom","geo_score":0.714,"number of visitors":4,"id":"ad0di8u0mqmi","geo_precision":"zip"},"type":"Feature","geometry":{"type":"Point","coordinates":[-87.324482,41.580592]}},{"properties":{"city":"Loni, India","geo_score":0.714,"number of visitors":2,"id":"ad0di8zj0p8o","geo_precision":"zip"},"type":"Feature","geometry":{"type":"Point","coordinates":[23.0,-17.3833333]}},{"properties":{"city":"Los Angeles,USA","geo_score":0.714,"number of visitors":4,"id":"ad0di8prmebf","geo_precision":"zip"},"type":"Feature","geometry":{"type":"Point","coordinates":[4.556944,52.26]}},{"properties":{"city":"Ludhiana, India","geo_score":0.714,"number of visitors":5,"id":"ad0di8rroe00","geo_precision":"zip"},"type":"Feature","geometry":{"type":"Point","coordinates":[75.9666667,17.1666667]}},{"properties":{"city":"Lugansk, Ukraine","geo_score":0.714,"number of visitors":3,"id":"ad0di8pziru4","geo_precision":"zip"},"type":"Feature","geometry":{"type":"Point","coordinates":[-64.8666667,-33.8666667]}},{"properties":{"city":"Maastricht, Netherlands","geo_score":0.714,"number of visitors":2,"id":"ad0di8zuhyyl","geo_precision":"zip"},"type":"Feature","geometry":{"type":"Point","coordinates":[176.320213395,-39.628241652]}},{"properties":{"city":"Madrid, Spain","geo_score":0.714,"number of visitors":1,"id":"ad0di91lax0a","geo_precision":"zip"},"type":"Feature","geometry":{"type":"Point","coordinates":[-101.5435011,40.8499965]}},{"properties":{"city":"Makati, Philippines","geo_score":0.857,"number of visitors":4,"id":"ad0di8r9oiet","geo_precision":"zip"},"type":"Feature","geometry":{"type":"Point","coordinates":[135.0,20.0]}},{"properties":{"city":"Mangalore, India","geo_score":0.714,"number of visitors":4,"id":"ad0di8vjkszm","geo_precision":"zip"},"type":"Feature","geometry":{"type":"Point","coordinates":[75.9666667,17.1666667]}},{"properties":{"city":"Manipal, India","geo_score":0.714,"number of visitors":1,"id":"ad0di94mod9x","geo_precision":"zip"},"type":"Feature","geometry":{"type":"Point","coordinates":[75.9666667,17.1666667]}},{"properties":{"city":"Mansoura, Egypt","geo_score":0.857,"number of visitors":2,"id":"ad0di94kghti","geo_precision":"zip"},"type":"Feature","geometry":{"type":"Point","coordinates":[5.0,72.5]}},{"properties":{"city":"Medina, Saudi Arabia","geo_score":0.714,"number of visitors":1,"id":"ad0di8vtjh12","geo_precision":"zip"},"type":"Feature","geometry":{"type":"Point","coordinates":[9.059087715,46.6222424803]}},{"properties":{"city":"Mexico City, Mexico","geo_score":0.714,"number of visitors":1,"id":"ad0di8qg2lnl","geo_precision":"zip"},"type":"Feature","geometry":{"type":"Point","coordinates":[13.4333333,8.4833333]}},{"properties":{"city":"Miami,USA","geo_score":0.714,"number of visitors":2,"id":"ad0di8pfonao","geo_precision":"zip"},"type":"Feature","geometry":{"type":"Point","coordinates":[16.8916667,44.8577778]}},{"properties":{"city":"Milan, Italy","geo_score":0.714,"number of visitors":1,"id":"ad0di8y3vsza","geo_precision":"zip"},"type":"Feature","geometry":{"type":"Point","coordinates":[94.55,24.55]}},{"properties":{"city":"Minshat el-Santa, Egypt","geo_score":0.714,"number of visitors":1,"id":"ad0di8qoh0dr","geo_precision":"zip"},"type":"Feature","geometry":{"type":"Point","coordinates":[-73.7,8.6833333]}},{"properties":{"city":"Moscow, Russia","geo_score":0.714,"number of visitors":3,"id":"ad0di92l2s1u","geo_precision":"zip"},"type":"Feature","geometry":{"type":"Point","coordinates":[-69.25,-16.4333333]}},{"properties":{"city":"Mukalla, Yemen","geo_score":0.714,"number of visitors":2,"id":"ad0di8tjl0nu","geo_precision":"zip"},"type":"Feature","geometry":{"type":"Point","coordinates":[19.3,-5.55]}},{"properties":{"city":"Multan, Pakistan","geo_score":0.714,"number of visitors":2,"id":"ad0di91c2z0o","geo_precision":"zip"},"type":"Feature","geometry":{"type":"Point","coordinates":[98.25,12.9]}},{"properties":{"city":"Mumbai, India","geo_score":0.714,"number of visitors":19,"id":"ad0di8w7dcab","geo_precision":"zip"},"type":"Feature","geometry":{"type":"Point","coordinates":[-77.5333333,1.2166667]}},{"properties":{"city":"Mysore, India","geo_score":0.714,"number of visitors":1,"id":"ad0di8zh900y","geo_precision":"zip"},"type":"Feature","geometry":{"type":"Point","coordinates":[15.1,50.266667]}},{"properties":{"city":"Nagpur, India","geo_score":0.714,"number of visitors":3,"id":"ad0di8yf30i0","geo_precision":"zip"},"type":"Feature","geometry":{"type":"Point","coordinates":[75.9666667,17.1666667]}},{"properties":{"city":"Nanchang, China","geo_score":0.714,"number of visitors":2,"id":"ad0di8yh2g9y","geo_precision":"zip"},"type":"Feature","geometry":{"type":"Point","coordinates":[114.3771826,25.1893752]}},{"properties":{"city":"Natal, Brazil","geo_score":0.857,"number of visitors":2,"id":"ad0di8ypthla","geo_precision":"zip"},"type":"Feature","geometry":{"type":"Point","coordinates":[-96.5,79.5]}},{"properties":{"city":"Navi Mumbai (New Mumbai), India","geo_score":0.714,"number of visitors":2,"id":"ad0di8pahpec","geo_precision":"zip"},"type":"Feature","geometry":{"type":"Point","coordinates":[11.5333333,-2.4666667]}},{"properties":{"city":"Nellore, India","geo_score":0.714,"number of visitors":2,"id":"ad0di8ycrqwk","geo_precision":"zip"},"type":"Feature","geometry":{"type":"Point","coordinates":[75.9666667,17.1666667]}},{"properties":{"city":"New Brunswick,USA","geo_score":0.714,"number of visitors":2,"id":"ad0di8zqpa3t","geo_precision":"zip"},"type":"Feature","geometry":{"type":"Point","coordinates":[-73.3990109,40.7001]}},{"properties":{"city":"New Delhi, India","geo_score":0.714,"number of visitors":7,"id":"ad0di8t6d3vb","geo_precision":"zip"},"type":"Feature","geometry":{"type":"Point","coordinates":[91.0843849182129,29.6245786716913]}},{"properties":{"city":"New York,USA","geo_score":0.714,"number of visitors":4,"id":"ad0di9348x31","geo_precision":"zip"},"type":"Feature","geometry":{"type":"Point","coordinates":[21.2166667,-0.5166667]}},{"properties":{"city":"Nnewi, Nigeria","geo_score":0.714,"number of visitors":4,"id":"ad0di8zvkdv5","geo_precision":"zip"},"type":"Feature","geometry":{"type":"Point","coordinates":[89.85,23.1]}},{"properties":{"city":"Paris, France","geo_score":0.714,"number of visitors":2,"id":"ad0di8uvmvqs","geo_precision":"zip"},"type":"Feature","geometry":{"type":"Point","coordinates":[121.0427778,15.7544444]}},{"properties":{"city":"Penang, Malaysia","geo_score":0.714,"number of visitors":2,"id":"ad0di8qun25i","geo_precision":"zip"},"type":"Feature","geometry":{"type":"Point","coordinates":[133.0166667,-31.9166667]}},{"properties":{"city":"Peshawar, Pakistan","geo_score":0.714,"number of visitors":7,"id":"ad0di8v2yscc","geo_precision":"zip"},"type":"Feature","geometry":{"type":"Point","coordinates":[67.7252778,30.1597222]}},{"properties":{"city":"Philadelphia,USA","geo_score":0.714,"number of visitors":15,"id":"ad0di8v97u9f","geo_precision":"zip"},"type":"Feature","geometry":{"type":"Point","coordinates":[-21.8833333,73.3833333]}},{"properties":{"city":"PondichȦry, India","geo_score":0.714,"number of visitors":2,"id":"ad0di93jvfcj","geo_precision":"zip"},"type":"Feature","geometry":{"type":"Point","coordinates":[79.83,11.93]}},{"properties":{"city":"Pondicherry, India","geo_score":0.714,"number of visitors":4,"id":"ad0di931gcdq","geo_precision":"zip"},"type":"Feature","geometry":{"type":"Point","coordinates":[79.83,11.93]}},{"properties":{"city":"Porto Alegre, Brazil","geo_score":0.857,"number of visitors":2,"id":"ad0di93lybis","geo_precision":"zip"},"type":"Feature","geometry":{"type":"Point","coordinates":[-96.5,79.5]}},{"properties":{"city":"Pretoria, South Africa","geo_score":0.857,"number of visitors":2,"id":"ad0di91bumar","geo_precision":"zip"},"type":"Feature","geometry":{"type":"Point","coordinates":[115.95,20.9333333]}},{"properties":{"city":"Pune, India","geo_score":0.714,"number of visitors":11,"id":"ad0di93npkqw","geo_precision":"zip"},"type":"Feature","geometry":{"type":"Point","coordinates":[10.6,52.3333333]}},{"properties":{"city":"Rahimyar Khan, Pakistan","geo_score":0.714,"number of visitors":2,"id":"ad0di91m02no","geo_precision":"zip"},"type":"Feature","geometry":{"type":"Point","coordinates":[77.0086111,31.1508333]}},{"properties":{"city":"Rajkot, India","geo_score":0.714,"number of visitors":1,"id":"ad0di8wvi8b2","geo_precision":"zip"},"type":"Feature","geometry":{"type":"Point","coordinates":[75.9666667,17.1666667]}},{"properties":{"city":"Rawalpindi, Pakistan","geo_score":0.714,"number of visitors":1,"id":"ad0di920yuen","geo_precision":"zip"},"type":"Feature","geometry":{"type":"Point","coordinates":[125.75,39.0333333]}},{"properties":{"city":"Rio de Janeiro, Brazil","geo_score":0.857,"number of visitors":4,"id":"ad0di8t41nh8","geo_precision":"zip"},"type":"Feature","geometry":{"type":"Point","coordinates":[-96.5,79.5]}},{"properties":{"city":"Riyadh, Saudi Arabia","geo_score":0.714,"number of visitors":9,"id":"ad0di8p3dp5p","geo_precision":"zip"},"type":"Feature","geometry":{"type":"Point","coordinates":[13.4333333,8.4833333]}},{"properties":{"city":"S?o Paulo, Brazil","geo_score":0.857,"number of visitors":6,"id":"ad0di8tnib67","geo_precision":"zip"},"type":"Feature","geometry":{"type":"Point","coordinates":[-96.5,79.5]}},{"properties":{"city":"Saint-Tropez, France","geo_score":0.857,"number of visitors":1,"id":"ad0di92fhiia","geo_precision":"zip"},"type":"Feature","geometry":{"type":"Point","coordinates":[6.95,43.2833333]}},{"properties":{"city":"Salvador, Brazil","geo_score":0.857,"number of visitors":3,"id":"ad0di90sexks","geo_precision":"zip"},"type":"Feature","geometry":{"type":"Point","coordinates":[-96.5,79.5]}},{"properties":{"city":"San Pedro de MacorȪs, Dominican Republic","geo_score":0.857,"number of visitors":2,"id":"ad0di92936qt","geo_precision":"zip"},"type":"Feature","geometry":{"type":"Point","coordinates":[-118.2833333,33.65]}},{"properties":{"city":"Santiago, Chile","geo_score":0.714,"number of visitors":3,"id":"ad0di91kr1t5","geo_precision":"zip"},"type":"Feature","geometry":{"type":"Point","coordinates":[-69.9833333,-27.0333333]}},{"properties":{"city":"Santo Domingo, Dominican Republic","geo_score":0.857,"number of visitors":2,"id":"ad0di8rhaph7","geo_precision":"zip"},"type":"Feature","geometry":{"type":"Point","coordinates":[-118.6833333,32.5]}},{"properties":{"city":"Sevagram, India","geo_score":0.714,"number of visitors":1,"id":"ad0di8qqbhn7","geo_precision":"zip"},"type":"Feature","geometry":{"type":"Point","coordinates":[13.2333333,4.7666667]}},{"properties":{"city":"Sewell,USA","geo_score":0.714,"number of visitors":1,"id":"ad0di8v8kybi","geo_precision":"zip"},"type":"Feature","geometry":{"type":"Point","coordinates":[-77.2277641,40.6545243]}},{"properties":{"city":"Surat, India","geo_score":0.857,"number of visitors":1,"id":"ad0di909n48i","geo_precision":"zip"},"type":"Feature","geometry":{"type":"Point","coordinates":[10.1666667,39.5]}},{"properties":{"city":"Taipei, Taiwan","geo_score":0.714,"number of visitors":2,"id":"ad0di8utaqv5","geo_precision":"zip"},"type":"Feature","geometry":{"type":"Point","coordinates":[27.3666667,45.9666667]}},{"properties":{"city":"Tanta, Egypt","geo_score":0.714,"number of visitors":2,"id":"ad0di8sukzb0","geo_precision":"zip"},"type":"Feature","geometry":{"type":"Point","coordinates":[120.3,15.8333333]}},{"properties":{"city":"Tbilisi, Georgia","geo_score":0.714,"number of visitors":14,"id":"ad0di8scyk9x","geo_precision":"zip"},"type":"Feature","geometry":{"type":"Point","coordinates":[-90.4833333,14.5166667]}},{"properties":{"city":"Tehran, Iran","geo_score":0.714,"number of visitors":1,"id":"ad0di8pfye3q","geo_precision":"zip"},"type":"Feature","geometry":{"type":"Point","coordinates":[-14.7166667,11.5333333]}},{"properties":{"city":"Tripoli, Libya","geo_score":0.714,"number of visitors":2,"id":"ad0di8snok2s","geo_precision":"zip"},"type":"Feature","geometry":{"type":"Point","coordinates":[22.4286111,-5.5755556]}},{"properties":{"city":"Ulaanbaatar, Mongolia","geo_score":0.714,"number of visitors":1,"id":"ad0di8pam3f3","geo_precision":"zip"},"type":"Feature","geometry":{"type":"Point","coordinates":[22.7,-15.05]}},{"properties":{"city":"Yangon, Myanmar","geo_score":0.714,"number of visitors":1,"id":"ad0di8pgwsoz","geo_precision":"zip"},"type":"Feature","geometry":{"type":"Point","coordinates":[140.3166667,-34.3333333]}},{"properties":{"city":"YaoundȦ, Cameroon","geo_score":0.857,"number of visitors":2,"id":"ad0di8zvo6nm","geo_precision":"zip"},"type":"Feature","geometry":{"type":"Point","coordinates":[114.35,8.5]}},{"properties":{"city":"Yogyakarta, Indonesia","geo_score":0.714,"number of visitors":3,"id":"ad0di8t2s4xd","geo_precision":"zip"},"type":"Feature","geometry":{"type":"Point","coordinates":[-111.085710577,60.667385187]}}],"is_temporal":false,"author":{"url":"","metadata":"","contact_name":"","contact_address":"","source":"","contact_phone":""},"source":"","pagination":{"sort":null,"start":0,"total":143,"limit":1000000},"state":"geocoded","tags":"","published":"2014-08-16T18:57:23-04:00","id":334765}