{"type":"FeatureCollection","data_type":"Dataset","url_type":null,"permissions":[{"permissions":{"download":true,"view":true},"group_id":"everyone"}],"classification":null,"title":"publiclibraries.com kentucky public libraries kentucky 1.2008","count":189,"stream_id":345360,"contributor":{"url":"http://geocommons.com/users/61383","name":"gtry222"},"data_attributes":null,"calculation_params":null,"icon_link":null,"link":"http://geocommons.com/overlays/345360.json","extent":[-89.1667,36.5032,-82.1534,39.093],"geometry_types":["point"],"unique_name":null,"name":"publiclibraries.com kentucky public libraries kentucky 1.2008","feature_count":189,"description":"","next_feature":null,"is_raster":false,"short_classification":"Y","stats":{"lon":{"max":-82.153431,"variance":2.66024163769628,"mean":-85.1510918730158,"stdev":1.63102472013648,"min":-89.166656,"median":-84.935923},"phone":{"max":8599874419.0,"variance":4.02535540730104e+18,"mean":5189186470.95767,"stdev":2006328838.27678,"min":2702362646.0,"median":5029575759.0},"lat":{"max":39.093,"variance":0.42001777293639,"mean":37.7041586031746,"stdev":0.648087781813845,"min":36.503169,"median":37.733121}},"features":[{"properties":{"lon":-85.307502,"city":"Columbia","zip":null,"librarysys":"Adair County Public Library","phone":2703842472.0,"id":"adm83si3u4q5","lat":37.104117,"address":"307 Greensburg Street","librarynam":"Adair County Public Library District","state":"KY"},"type":"Feature","geometry":{"type":"Point","coordinates":[-85.307502,37.104117]}},{"properties":{"lon":-86.190646,"city":"Scottsville","zip":null,"librarysys":"Allen County Public Library","phone":2702373861.0,"id":"adm83spyr50b","lat":36.753412,"address":"106 West Main Street","librarynam":"Allen County Public Library","state":"KY"},"type":"Feature","geometry":{"type":"Point","coordinates":[-86.190646,36.753412]}},{"properties":{"lon":-84.896449,"city":"Lawrenceburg","zip":null,"librarysys":"Anderson County Public Library","phone":5028397243.0,"id":"adm83sqwukxm","lat":38.038244,"address":"114 North Main Street","librarynam":"Anderson County Public Library","state":"KY"},"type":"Feature","geometry":{"type":"Point","coordinates":[-84.896449,38.038244]}},{"properties":{"lon":-86.712316,"city":"Auburn","zip":null,"librarysys":"Logan County Public Library","phone":2705428180.0,"id":"adm83sgb1hfb","lat":36.862607,"address":"344 West Main Street","librarynam":"Auburn Branch","state":"KY"},"type":"Feature","geometry":{"type":"Point","coordinates":[-86.712316,36.862607]}},{"properties":{"lon":-89.009907,"city":"Bardwell","zip":null,"librarysys":"Ballard/Carlisle/Livingston Public Library","phone":2703355059.0,"id":"adm83soa6fyf","lat":36.871361,"address":"P.O. Box 428","librarynam":"Ballard/Carlisle/Livingston Pub.Lib.System","state":"KY"},"type":"Feature","geometry":{"type":"Point","coordinates":[-89.009907,36.871361]}},{"properties":{"lon":-83.764597,"city":"Owingsville","zip":null,"librarysys":"Bath County Memorial Library","phone":6066742531.0,"id":"adm83seqxz1v","lat":38.144695,"address":"24 West Main Street","librarynam":"Bath County Memorial Library","state":"KY"},"type":"Feature","geometry":{"type":"Point","coordinates":[-83.764597,38.144695]}},{"properties":{"lon":-84.556841,"city":"Lexington","zip":null,"librarysys":"Lexington Public Library","phone":8592315570.0,"id":"adm83srlydt1","lat":38.013765,"address":"3080 Fieldstone Way","librarynam":"Beaumont Branch","state":"KY"},"type":"Feature","geometry":{"type":"Point","coordinates":[-84.556841,38.013765]}},{"properties":{"lon":-82.268299,"city":"Belfry","zip":null,"librarysys":"Pike County Public Library","phone":6063539429.0,"id":"adm83siboe8g","lat":37.6217,"address":"24371 U.S. Highway 119","librarynam":"Belfry Branch","state":"KY"},"type":"Feature","geometry":{"type":"Point","coordinates":[-82.268299,37.6217]}},{"properties":{"lon":-83.71367,"city":"Middlesboro","zip":null,"librarysys":"Bell County Public Library","phone":6062484812.0,"id":"adm83siu757j","lat":36.601599,"address":"126 S. 20th Street","librarynam":"Bell County Public Library","state":"KY"},"type":"Feature","geometry":{"type":"Point","coordinates":[-83.71367,36.601599]}},{"properties":{"lon":-84.123364,"city":"London","zip":null,"librarysys":"Laurel County Public Library","phone":6068645940.0,"id":"adm83si8x8qx","lat":37.075403,"address":"60 Bennett Circle","librarynam":"Bennett Center Branch","state":"KY"},"type":"Feature","geometry":{"type":"Point","coordinates":[-84.123364,37.075403]}},{"properties":{"lon":-84.294027,"city":"Berea","zip":null,"librarysys":"Madison County Public Library","phone":8599867112.0,"id":"adm83smn7k6d","lat":37.569854,"address":"319 East Chestnut","librarynam":"Berea Branch Library","state":"KY"},"type":"Feature","geometry":{"type":"Point","coordinates":[-84.294027,37.569854]}},{"properties":{"lon":-82.978684,"city":"Blackey","zip":null,"librarysys":"Letcher County Public Library","phone":6066334013.0,"id":"adm83sto1dxm","lat":37.140555,"address":"295 Main Street","librarynam":"Blackey Public Library","state":"KY"},"type":"Feature","geometry":{"type":"Point","coordinates":[-82.978684,37.140555]}},{"properties":{"lon":-85.32385,"city":"Bloomfield","zip":null,"librarysys":"Nelson County Public Library","phone":5022529129.0,"id":"adm83sumylmg","lat":37.910743,"address":"141 Fairfield Hill","librarynam":"Bloomfield Branch","state":"KY"},"type":"Feature","geometry":{"type":"Point","coordinates":[-85.32385,37.910743]}},{"properties":{"lon":-85.655299,"city":"Louisville","zip":null,"librarysys":"Louisville Free Public Library","phone":5025741795.0,"id":"adm83sk0s7df","lat":38.214981,"address":"2816 Del Rio Place","librarynam":"Bon Air Branch","state":"KY"},"type":"Feature","geometry":{"type":"Point","coordinates":[-85.655299,38.214981]}},{"properties":{"lon":-84.675862,"city":"Union","zip":null,"librarysys":"Boone County Public Library","phone":8593845550.0,"id":"adm83spaz38f","lat":38.965981,"address":"8899 Us 42","librarynam":"Boone County Public Library","state":"KY"},"type":"Feature","geometry":{"type":"Point","coordinates":[-84.675862,38.965981]}},{"properties":{"lon":-82.639522,"city":"Ashland","zip":null,"librarysys":"Boyd County Public Library","phone":6063290518.0,"id":"adm83suez3be","lat":38.475847,"address":"1740 Central Avenue","librarynam":"Boyd County Public Library","state":"KY"},"type":"Feature","geometry":{"type":"Point","coordinates":[-82.639522,38.475847]}},{"properties":{"lon":-84.774071,"city":"Danville","zip":null,"librarysys":"Boyle County Public Library","phone":6062368466.0,"id":"adm83sihz6w0","lat":37.647559,"address":"307 W. Broadway","librarynam":"Boyle County Public Libary","state":"KY"},"type":"Feature","geometry":{"type":"Point","coordinates":[-84.774071,37.647559]}},{"properties":{"lon":-84.068921,"city":"Brooksville","zip":null,"librarysys":"Bracken County Public Library","phone":6067353620.0,"id":"adm83srq65z7","lat":38.686321,"address":"310 West Miami Street","librarynam":"Bracken County Public Library","state":"KY"},"type":"Feature","geometry":{"type":"Point","coordinates":[-84.068921,38.686321]}},{"properties":{"lon":-83.382343,"city":"Jackson","zip":null,"librarysys":"Breathitt County Public Library","phone":6066665541.0,"id":"adm83sikkpof","lat":37.553798,"address":"1024 College Avenue","librarynam":"Breathitt County Public Library","state":"KY"},"type":"Feature","geometry":{"type":"Point","coordinates":[-83.382343,37.553798]}},{"properties":{"lon":-86.461386,"city":"Hardinsburg","zip":null,"librarysys":"Breckinridge County Public Library","phone":2707562323.0,"id":"adm83sruenor","lat":37.781155,"address":"112 South Main Street","librarynam":"Breckinridge County Public Library","state":"KY"},"type":"Feature","geometry":{"type":"Point","coordinates":[-86.461386,37.781155]}},{"properties":{"lon":-84.600479,"city":"Burnside","zip":null,"librarysys":"Pulaski County Public Library","phone":6065615287.0,"id":"adm83sjq4x9o","lat":36.988825,"address":"French Avenue","librarynam":"Burnside Branch","state":"KY"},"type":"Feature","geometry":{"type":"Point","coordinates":[-84.600479,36.988825]}},{"properties":{"lon":-86.685168,"city":"Morgantown","zip":null,"librarysys":"Butler County Public Library","phone":2705264722.0,"id":"adm83strtwvy","lat":37.227609,"address":"116 West Ohio St.","librarynam":"Butler County Public Library","state":"KY"},"type":"Feature","geometry":{"type":"Point","coordinates":[-86.685168,37.227609]}},{"properties":{"lon":-88.306324,"city":"Murray","zip":null,"librarysys":"Calloway County Public Library","phone":2707532288.0,"id":"adm83srgunt0","lat":36.610736,"address":"710 Main Street","librarynam":"Calloway County Public Library","state":"KY"},"type":"Feature","geometry":{"type":"Point","coordinates":[-88.306324,36.610736]}},{"properties":{"lon":-88.340085,"city":"Calvert City","zip":null,"librarysys":"Marshall County Public Library","phone":2703955745.0,"id":"adm83sh90qpb","lat":37.024041,"address":"1315 Fifth Avenue S.E.","librarynam":"Calvert City Branch Library","state":"KY"},"type":"Feature","geometry":{"type":"Point","coordinates":[-88.340085,37.024041]}},{"properties":{"lon":-84.444397,"city":"Cold Spring","zip":null,"librarysys":"Campbell County Public Library","phone":8597816166.0,"id":"adm83smj90hk","lat":39.024791,"address":"3920 Alexandria Pike","librarynam":"Campbell County Public Library","state":"KY"},"type":"Feature","geometry":{"type":"Point","coordinates":[-84.444397,39.024791]}},{"properties":{"lon":-85.180889,"city":"Carrollton","zip":null,"librarysys":"Carroll County Public Library","phone":5027327020.0,"id":"adm83slo3bz2","lat":38.681827,"address":"136 Court Street","librarynam":"Carroll County Public Library","state":"KY"},"type":"Feature","geometry":{"type":"Point","coordinates":[-85.180889,38.681827]}},{"properties":{"lon":-84.935923,"city":"Liberty","zip":null,"librarysys":"Casey County Public Library","phone":6067879381.0,"id":"adm83suffyto","lat":37.31622,"address":"238 Middleburg Street","librarynam":"Casey County Public Library","state":"KY"},"type":"Feature","geometry":{"type":"Point","coordinates":[-84.935923,37.31622]}},{"properties":{"lon":-82.597934,"city":"Catlettsburg","zip":null,"librarysys":"Boyd County Public Library","phone":6067398332.0,"id":"adm83sner6ii","lat":38.416466,"address":"2704 Louisa Street","librarynam":"Catlettsburg Branch","state":"KY"},"type":"Feature","geometry":{"type":"Point","coordinates":[-82.597934,38.416466]}},{"properties":{"lon":-87.12444,"city":"Central City","zip":null,"librarysys":"Muhlenberg County Public Libraries","phone":2707544630.0,"id":"adm83si6i7i7","lat":37.293211,"address":"108 East Broad Street","librarynam":"Central City Public Library","state":"KY"},"type":"Feature","geometry":{"type":"Point","coordinates":[-87.12444,37.293211]}},{"properties":{"lon":-84.186039,"city":"Winchester","zip":null,"librarysys":"Clark County Public Library","phone":8597445661.0,"id":"adm83sp4v74a","lat":37.989584,"address":"370 South Burns Avenue","librarynam":"Clark County Public Library","state":"KY"},"type":"Feature","geometry":{"type":"Point","coordinates":[-84.186039,37.989584]}},{"properties":{"lon":-83.761541,"city":"Manchester","zip":null,"librarysys":"Clay County Public Library","phone":6065982617.0,"id":"adm83sf6xojz","lat":37.153807,"address":"211 Bridge Street","librarynam":"Clay County Public Library","state":"KY"},"type":"Feature","geometry":{"type":"Point","coordinates":[-83.761541,37.153807]}},{"properties":{"lon":-85.13808,"city":"Albany","zip":null,"librarysys":"Clinton County Public Library","phone":6063875989.0,"id":"adm83sqwvcw3","lat":36.696618,"address":"205 Burkesville Road","librarynam":"Clinton County Public Library District","state":"KY"},"type":"Feature","geometry":{"type":"Point","coordinates":[-85.13808,36.696618]}},{"properties":{"lon":-86.631156,"city":"Cloverport","zip":null,"librarysys":"Breckinridge County Public Library","phone":2707883388.0,"id":"adm83sh31rzi","lat":37.833925,"address":"101 4th Street","librarynam":"Cloverport Branch","state":"KY"},"type":"Feature","geometry":{"type":"Point","coordinates":[-86.631156,37.833925]}},{"properties":{"lon":-85.691588,"city":"Louisville","zip":null,"librarysys":"Louisville Free Public Library","phone":5025741793.0,"id":"adm83skfgh77","lat":38.254654,"address":"2762 Frankfort Avenue","librarynam":"Crescent Hill Branch","state":"KY"},"type":"Feature","geometry":{"type":"Point","coordinates":[-85.691588,38.254654]}},{"properties":{"lon":-88.083489,"city":"Marion","zip":null,"librarysys":"Crittenden County Public Library","phone":2709653354.0,"id":"adm83ss4qrln","lat":37.332299,"address":"204 West Carlisle Street","librarynam":"Crittenden County Public Library","state":"KY"},"type":"Feature","geometry":{"type":"Point","coordinates":[-88.083489,37.332299]}},{"properties":{"lon":-85.370804,"city":"Burkesville","zip":null,"librarysys":"Cumberland County Public Library","phone":2708642207.0,"id":"adm83sfuyfy7","lat":36.790499,"address":"114 West Hill Street","librarynam":"Cumberland County Public Library District","state":"KY"},"type":"Feature","geometry":{"type":"Point","coordinates":[-85.370804,36.790499]}},{"properties":{"lon":-84.297272,"city":"Cynthiana","zip":null,"librarysys":"Cynthiana-Harrison County Public Library","phone":8593444881.0,"id":"adm83siqsakt","lat":38.390928,"address":"110 North Main Street","librarynam":"Cynthiana-Harrison County Public Library","state":"KY"},"type":"Feature","geometry":{"type":"Point","coordinates":[-84.297272,38.390928]}},{"properties":{"lon":-87.114348,"city":"Owensboro","zip":null,"librarysys":"Daviess County Public Library","phone":2706840211.0,"id":"adm83smaezmy","lat":37.759862,"address":"450 Griffith Avenue","librarynam":"Daviess County Public Library","state":"KY"},"type":"Feature","geometry":{"type":"Point","coordinates":[-87.114348,37.759862]}},{"properties":{"lon":-87.691358,"city":"Dawson Springs","zip":null,"librarysys":"Hopkins County - Madisonville Public Library","phone":2707978990.0,"id":"adm83so4qpmp","lat":37.166181,"address":"103 West Ramsey","librarynam":"Dawson Springs Branch","state":"KY"},"type":"Feature","geometry":{"type":"Point","coordinates":[-87.691358,37.166181]}},{"properties":{"lon":-86.437342,"city":"Bowling Green","zip":null,"librarysys":"The Bowling Green Public Library","phone":2707820252.0,"id":"adm83sjm4elh","lat":36.999493,"address":"401 Kentucky Street","librarynam":"Depot Branch Library","state":"KY"},"type":"Feature","geometry":{"type":"Point","coordinates":[-86.437342,36.999493]}},{"properties":{"lon":-85.688293,"city":"Louisville","zip":null,"librarysys":"Bullitt County Public Library","phone":5029575759.0,"id":"adm83stybot1","lat":38.077906,"address":"1251 Hillview Blvd.","librarynam":"Dorothea Stottman Library","state":"KY"},"type":"Feature","geometry":{"type":"Point","coordinates":[-85.688293,38.077906]}},{"properties":{"lon":-84.442637,"city":"Lexington","zip":null,"librarysys":"Lexington Public Library","phone":8592315560.0,"id":"adm83so3vkf9","lat":37.998469,"address":"101 North Eagle Creek Drive","librarynam":"Eagle Creek Branch","state":"KY"},"type":"Feature","geometry":{"type":"Point","coordinates":[-84.442637,37.998469]}},{"properties":{"lon":-86.268968,"city":"Brownsville","zip":null,"librarysys":"Edmonson County Public Library","phone":2705972146.0,"id":"adm83snn1b1c","lat":37.194798,"address":"503 Washington Street","librarynam":"Edmonson County Public Library","state":"KY"},"type":"Feature","geometry":{"type":"Point","coordinates":[-86.268968,37.194798]}},{"properties":{"lon":-82.365519,"city":"Elkhorn City","zip":null,"librarysys":"Pike County Public Library","phone":6067545451.0,"id":"adm83skjzblj","lat":37.29327,"address":"150 East Main Street","librarynam":"Elkhorn City Branch Library","state":"KY"},"type":"Feature","geometry":{"type":"Point","coordinates":[-82.365519,37.29327]}},{"properties":{"lon":-84.591732,"city":"Erlanger","zip":null,"librarysys":"Kenton County Public Library","phone":8593415115.0,"id":"adm83srgztza","lat":39.020543,"address":"3130 Dixie Highway","librarynam":"Erlanger Branch","state":"KY"},"type":"Feature","geometry":{"type":"Point","coordinates":[-84.591732,39.020543]}},{"properties":{"lon":-83.975551,"city":"Irvine","zip":null,"librarysys":"Estill County Public Library","phone":6067233030.0,"id":"adm83shfcmqg","lat":37.703163,"address":"246 Main Street","librarynam":"Estill County Public Library","state":"KY"},"type":"Feature","geometry":{"type":"Point","coordinates":[-83.975551,37.703163]}},{"properties":{"lon":-85.784429,"city":"Louisville","zip":null,"librarysys":"Louisville Free Public Library","phone":5023752051.0,"id":"adm83skde3mm","lat":38.11542,"address":"10616 West Manslick Road","librarynam":"Fairdale Branch","state":"KY"},"type":"Feature","geometry":{"type":"Point","coordinates":[-85.784429,38.11542]}},{"properties":{"lon":-85.58695,"city":"Louisville","zip":null,"librarysys":"Louisville Free Public Library","phone":5022314605.0,"id":"adm83spm83m7","lat":38.148987,"address":"6768 Bardstown Road","librarynam":"Fern Creek Branch","state":"KY"},"type":"Feature","geometry":{"type":"Point","coordinates":[-85.58695,38.148987]}},{"properties":{"lon":-82.716123,"city":"Flatwoods","zip":null,"librarysys":"Greenup County Public Library","phone":6068363771.0,"id":"adm83sjp1jcf","lat":38.523832,"address":"1705 Argillite Road","librarynam":"Flatwoods Branch","state":"KY"},"type":"Feature","geometry":{"type":"Point","coordinates":[-82.716123,38.523832]}},{"properties":{"lon":-83.735979,"city":"Flemingsburg","zip":null,"librarysys":"Fleming County Public Library","phone":6068457851.0,"id":"adm83sf76ql4","lat":38.419937,"address":"303 South Main Cross","librarynam":"Fleming County Public Library","state":"KY"},"type":"Feature","geometry":{"type":"Point","coordinates":[-83.735979,38.419937]}},{"properties":{"lon":-84.631516,"city":"Florence","zip":null,"librarysys":"Boone County Public Library","phone":8593716222.0,"id":"adm83ss7hwwr","lat":38.995598,"address":"7425 U.S. 42","librarynam":"Florence Branch","state":"KY"},"type":"Feature","geometry":{"type":"Point","coordinates":[-84.631516,38.995598]}},{"properties":{"lon":-82.775322,"city":"Prestonsburg","zip":null,"librarysys":"Floyd County Public Library","phone":6068862981.0,"id":"adm83sjxnxzs","lat":37.66883,"address":"18 North Arnold Avenue","librarynam":"Floyd County Public Library","state":"KY"},"type":"Feature","geometry":{"type":"Point","coordinates":[-82.775322,37.66883]}},{"properties":{"lon":-88.875292,"city":"Fulton","zip":null,"librarysys":"Fulton Public Library","phone":2704723439.0,"id":"adm83sqgij6z","lat":36.503169,"address":"312 Main Street","librarynam":"Fulton Public Library","state":"KY"},"type":"Feature","geometry":{"type":"Point","coordinates":[-88.875292,36.503169]}},{"properties":{"lon":-84.902363,"city":"Warsaw","zip":null,"librarysys":"Gallatin County Public Library","phone":8595672786.0,"id":"adm83sv3nenr","lat":38.782418,"address":"209 West Market Street","librarynam":"Gallatin County Public Library","state":"KY"},"type":"Feature","geometry":{"type":"Point","coordinates":[-84.902363,38.782418]}},{"properties":{"lon":-84.578778,"city":"Lancaster","zip":null,"librarysys":"Garrard County Public Library","phone":8597923424.0,"id":"adm83sp995om","lat":37.620007,"address":"101 Lexington Street","librarynam":"Garrard County Public Library","state":"KY"},"type":"Feature","geometry":{"type":"Point","coordinates":[-84.578778,37.620007]}},{"properties":{"lon":-87.883557,"city":"Princeton","zip":null,"librarysys":"George Coon Public Library","phone":2703652884.0,"id":"adm83sodr8a9","lat":37.109195,"address":"114 South Harrison Street","librarynam":"George Coon Public Library","state":"KY"},"type":"Feature","geometry":{"type":"Point","coordinates":[-87.883557,37.109195]}},{"properties":{"lon":-86.57808,"city":"Franklin","zip":null,"librarysys":"Goodnight Memorial Library","phone":2705868397.0,"id":"adm83snip4h4","lat":36.721014,"address":"203 South Main Street","librarynam":"Goodnight Memorial Library","state":"KY"},"type":"Feature","geometry":{"type":"Point","coordinates":[-86.57808,36.721014]}},{"properties":{"lon":-84.576695,"city":"Williamstown","zip":null,"librarysys":"Grant County Public Library","phone":8598242080.0,"id":"adm83skzgffa","lat":38.648916,"address":"201 Barnes Road","librarynam":"Grant County Public Library","state":"KY"},"type":"Feature","geometry":{"type":"Point","coordinates":[-84.576695,38.648916]}},{"properties":{"lon":-88.649519,"city":"Mayfield","zip":null,"librarysys":"Graves County Public Library","phone":2702472911.0,"id":"adm83sopkd6q","lat":36.744582,"address":"601 North 17th Street","librarynam":"Graves County Public Library","state":"KY"},"type":"Feature","geometry":{"type":"Point","coordinates":[-88.649519,36.744582]}},{"properties":{"lon":-86.293642,"city":"Leitchfield","zip":null,"librarysys":"Grayson County Public Library","phone":2702595455.0,"id":"adm83sumujy3","lat":37.478893,"address":"130 East Market Street","librarynam":"Grayson County Public Library","state":"KY"},"type":"Feature","geometry":{"type":"Point","coordinates":[-86.293642,37.478893]}},{"properties":{"lon":-85.50237,"city":"Greensburg","zip":null,"librarysys":"Green County Public Library","phone":2709327081.0,"id":"adm83snwmaw6","lat":37.259415,"address":"116 South Main Street","librarynam":"Green County Public Library","state":"KY"},"type":"Feature","geometry":{"type":"Point","coordinates":[-85.50237,37.259415]}},{"properties":{"lon":-82.835296,"city":"Greenup","zip":null,"librarysys":"Greenup County Public Library","phone":6064736514.0,"id":"adm83spdr0b9","lat":38.576755,"address":"614 Main Street","librarynam":"Greenup County Public Library","state":"KY"},"type":"Feature","geometry":{"type":"Point","coordinates":[-82.835296,38.576755]}},{"properties":{"lon":-86.749979,"city":"Hawesville","zip":null,"librarysys":"Hancock County Public Library","phone":2709276860.0,"id":"adm83shwodsm","lat":37.901815,"address":"240 Court Square","librarynam":"Hancock County Public Library","state":"KY"},"type":"Feature","geometry":{"type":"Point","coordinates":[-86.749979,37.901815]}},{"properties":{"lon":-87.178654,"city":"Greenville","zip":null,"librarysys":"Muhlenberg County Public Libraries","phone":2703384760.0,"id":"adm83sifdmx1","lat":37.200724,"address":"117 South Main Street","librarynam":"Harbin Memorial Public Library","state":"KY"},"type":"Feature","geometry":{"type":"Point","coordinates":[-87.178654,37.200724]}},{"properties":{"lon":-88.295196,"city":"Hardin","zip":null,"librarysys":"Marshall County Public Library","phone":2704374275.0,"id":"adm83spw9h49","lat":36.761636,"address":"104 Second Street","librarynam":"Hardin Branch","state":"KY"},"type":"Feature","geometry":{"type":"Point","coordinates":[-88.295196,36.761636]}},{"properties":{"lon":-85.859527,"city":"Elizabethtown","zip":null,"librarysys":"Hardin County Public Library","phone":2707696337.0,"id":"adm83sjbllbf","lat":37.694075,"address":"201 West Dixie Avenue","librarynam":"Hardin County Public Library","state":"KY"},"type":"Feature","geometry":{"type":"Point","coordinates":[-85.859527,37.694075]}},{"properties":{"lon":-83.320108,"city":"Harlan","zip":null,"librarysys":"Harlan County Public Library","phone":6065735220.0,"id":"adm83sm4w9jz","lat":36.847191,"address":"107 North 3rd Street","librarynam":"Harlan County Public Library","state":"KY"},"type":"Feature","geometry":{"type":"Point","coordinates":[-83.320108,36.847191]}},{"properties":{"lon":-82.824448,"city":"Whitesburg","zip":null,"librarysys":"Letcher County Public Library","phone":6066337547.0,"id":"adm83sqtxfrs","lat":37.117475,"address":"220 Main Street","librarynam":"Harry M. Caudill Memorial Library","state":"KY"},"type":"Feature","geometry":{"type":"Point","coordinates":[-82.824448,37.117475]}},{"properties":{"lon":-85.891349,"city":"Munfordville","zip":null,"librarysys":"Hart County Public Library","phone":2705241953.0,"id":"adm83srverjl","lat":37.272145,"address":"500 East Third Street","librarynam":"Hart County Public Library","state":"KY"},"type":"Feature","geometry":{"type":"Point","coordinates":[-85.891349,37.272145]}},{"properties":{"lon":-84.661004,"city":"Stanford","zip":null,"librarysys":"Harvey Helm Memorial Library","phone":6063657513.0,"id":"adm83stb70sa","lat":37.529288,"address":"301 Third Street","librarynam":"Harvey Helm Memorial Library","state":"KY"},"type":"Feature","geometry":{"type":"Point","coordinates":[-84.661004,37.529288]}},{"properties":{"lon":-87.59393,"city":"Henderson","zip":null,"librarysys":"Henderson County Public Library","phone":2708263712.0,"id":"adm83supez6l","lat":37.837976,"address":"101 South Main Street","librarynam":"Henderson County Public Library","state":"KY"},"type":"Feature","geometry":{"type":"Point","coordinates":[-87.59393,37.837976]}},{"properties":{"lon":-85.182403,"city":"Eminence","zip":null,"librarysys":"Henry County Public Library","phone":5028455682.0,"id":"adm83soxu1ly","lat":38.371012,"address":"172 Eminence Terrace","librarynam":"Henry County Public Library","state":"KY"},"type":"Feature","geometry":{"type":"Point","coordinates":[-85.182403,38.371012]}},{"properties":{"lon":-89.166656,"city":"Hickman","zip":null,"librarysys":"Fulton Public Library","phone":2702362646.0,"id":"adm83sqp1bax","lat":36.571313,"address":"902 Moscow Ave.","librarynam":"Hickman Branch","state":"KY"},"type":"Feature","geometry":{"type":"Point","coordinates":[-89.166656,36.571313]}},{"properties":{"lon":-88.992776,"city":"Clinton","zip":null,"librarysys":"Hickman County Memorial Library","phone":2706532225.0,"id":"adm83sqkwjrd","lat":36.665363,"address":"209 Mayfield Road","librarynam":"Hickman County Memorial Library","state":"KY"},"type":"Feature","geometry":{"type":"Point","coordinates":[-88.992776,36.665363]}},{"properties":{"lon":-85.716368,"city":"Louisville","zip":null,"librarysys":"Louisville Free Public Library","phone":5025741672.0,"id":"adm83suo7lt2","lat":38.23574,"address":"1250 Bardstown Road","librarynam":"Highland-Shelby Park Branch","state":"KY"},"type":"Feature","geometry":{"type":"Point","coordinates":[-85.716368,38.23574]}},{"properties":{"lon":-87.499058,"city":"Madisonville","zip":null,"librarysys":"Hopkins County - Madisonville Public Library","phone":2708252680.0,"id":"adm83shvzf9l","lat":37.327766,"address":"31 South Main Street","librarynam":"Hopkins County - Madisonville Public Library","state":"KY"},"type":"Feature","geometry":{"type":"Point","coordinates":[-87.499058,37.327766]}},{"properties":{"lon":-87.490616,"city":"Hopkinsville","zip":null,"librarysys":"Hopkinsville-Christian County Public Library","phone":2708874263.0,"id":"adm83spig96x","lat":36.864965,"address":"1101 Bethel Street","librarynam":"Hopkinsville-Christian County Public Library","state":"KY"},"type":"Feature","geometry":{"type":"Point","coordinates":[-87.490616,36.864965]}},{"properties":{"lon":-85.771361,"city":"Louisville","zip":null,"librarysys":"Louisville Free Public Library","phone":5025741720.0,"id":"adm83snv3256","lat":38.182297,"address":"601 West Woodlawn Ave.","librarynam":"Iroquois Branch","state":"KY"},"type":"Feature","geometry":{"type":"Point","coordinates":[-85.771361,38.182297]}},{"properties":{"lon":-86.284193,"city":"Irvington","zip":null,"librarysys":"Breckinridge County Public Library","phone":2705477404.0,"id":"adm83spfl9hb","lat":37.883357,"address":"212 East First Street","librarynam":"Irvington Branch","state":"KY"},"type":"Feature","geometry":{"type":"Point","coordinates":[-86.284193,37.883357]}},{"properties":{"lon":-83.991718,"city":"Mckee","zip":null,"librarysys":"Jackson County Public Library","phone":6062878113.0,"id":"adm83sjsypnn","lat":37.44297,"address":"David Street","librarynam":"Jackson County Public Library","state":"KY"},"type":"Feature","geometry":{"type":"Point","coordinates":[-83.991718,37.44297]}},{"properties":{"lon":-85.560927,"city":"Louisville","zip":null,"librarysys":"Louisville Free Public Library","phone":5022675713.0,"id":"adm83sq8zxf1","lat":38.197443,"address":"10635 Watterson Trail","librarynam":"Jeffersontown Branch","state":"KY"},"type":"Feature","geometry":{"type":"Point","coordinates":[-85.560927,38.197443]}},{"properties":{"lon":-82.63625,"city":"Jenkins","zip":null,"librarysys":"Letcher County Public Library","phone":6068324101.0,"id":"adm83squps91","lat":37.170618,"address":"9543 Highway 805","librarynam":"Jenkins Public Library","state":"KY"},"type":"Feature","geometry":{"type":"Point","coordinates":[-82.63625,37.170618]}},{"properties":{"lon":-83.248485,"city":"West Liberty","zip":null,"librarysys":"John F. Kennedy Memorial Library","phone":6067434151.0,"id":"adm83sfnjgkn","lat":37.920184,"address":"408 Prestonsburg Street","librarynam":"John F. Kennedy Memorial Library","state":"KY"},"type":"Feature","geometry":{"type":"Point","coordinates":[-83.248485,37.920184]}},{"properties":{"lon":-82.807929,"city":"Paintsville","zip":null,"librarysys":"Johnson County Public Library","phone":6067894355.0,"id":"adm83ss5r607","lat":37.813506,"address":"444 Main Street","librarynam":"Johnson County Public Library","state":"KY"},"type":"Feature","geometry":{"type":"Point","coordinates":[-82.807929,37.813506]}},{"properties":{"lon":-84.50892,"city":"Covington","zip":null,"librarysys":"Kenton County Public Library","phone":8599624060.0,"id":"adm83sr42mpd","lat":39.085982,"address":"502 Scott Blvd.","librarynam":"Kenton County Public Library","state":"KY"},"type":"Feature","geometry":{"type":"Point","coordinates":[-84.50892,39.085982]}},{"properties":{"lon":-82.946155,"city":"Hindman","zip":null,"librarysys":"Knott County Public Library","phone":6067855412.0,"id":"adm83sildlmk","lat":37.302941,"address":"238 Highway 160 South","librarynam":"Knott County Public Library","state":"KY"},"type":"Feature","geometry":{"type":"Point","coordinates":[-82.946155,37.302941]}},{"properties":{"lon":-83.887686,"city":"Barbourville","zip":null,"librarysys":"Knox County Public Library","phone":6065465339.0,"id":"adm83ss7qtd9","lat":36.865552,"address":"196 Daniel Boone Drive","librarynam":"Knox County Public Library","state":"KY"},"type":"Feature","geometry":{"type":"Point","coordinates":[-83.887686,36.865552]}},{"properties":{"lon":-85.740165,"city":"Hodgenville","zip":null,"librarysys":"LaRue County Public Library","phone":2703583851.0,"id":"adm83sqbtodk","lat":37.571802,"address":"201 South Lincoln Boulevard","librarynam":"LaRue County Public Library","state":"KY"},"type":"Feature","geometry":{"type":"Point","coordinates":[-85.740165,37.571802]}},{"properties":{"lon":-84.061779,"city":"London","zip":null,"librarysys":"Laurel County Public Library","phone":6068645759.0,"id":"adm83sic9r35","lat":37.116084,"address":"120 College Park Drive","librarynam":"Laurel County Public Library","state":"KY"},"type":"Feature","geometry":{"type":"Point","coordinates":[-84.061779,37.116084]}},{"properties":{"lon":-82.605355,"city":"Louisa","zip":null,"librarysys":"Lawrence County Public Library","phone":6066384497.0,"id":"adm83spaxki3","lat":38.114705,"address":"102 West Main &amp; Jefferson","librarynam":"Lawrence County Public Library","state":"KY"},"type":"Feature","geometry":{"type":"Point","coordinates":[-82.605355,38.114705]}},{"properties":{"lon":-85.731687,"city":"Lebanon Junction","zip":null,"librarysys":"Bullitt County Public Library","phone":5028334648.0,"id":"adm83sg0meh0","lat":37.834225,"address":"276 East Main Street","librarynam":"Lebanon Junction Branch Library","state":"KY"},"type":"Feature","geometry":{"type":"Point","coordinates":[-85.731687,37.834225]}},{"properties":{"lon":-83.709959,"city":"Beattyville","zip":null,"librarysys":"Lee County Public Library","phone":6064648014.0,"id":"adm83slomxzx","lat":37.573512,"address":"123 Center Street","librarynam":"Lee County Public Library","state":"KY"},"type":"Feature","geometry":{"type":"Point","coordinates":[-83.709959,37.573512]}},{"properties":{"lon":-84.70143,"city":"Hebron","zip":null,"librarysys":"Boone County Public Library","phone":8595868163.0,"id":"adm83sguufm8","lat":39.06055,"address":"3215 Cougar Path","librarynam":"Lents Branch","state":"KY"},"type":"Feature","geometry":{"type":"Point","coordinates":[-84.70143,39.06055]}},{"properties":{"lon":-83.381899,"city":"Hyden","zip":null,"librarysys":"Leslie County Public Library","phone":6066722460.0,"id":"adm83shhxgb8","lat":37.1596,"address":"Main Street","librarynam":"Leslie County Public Library","state":"KY"},"type":"Feature","geometry":{"type":"Point","coordinates":[-83.381899,37.1596]}},{"properties":{"lon":-83.317422,"city":"Vanceburg","zip":null,"librarysys":"Lewis County Public Library","phone":6067962532.0,"id":"adm83soijnkr","lat":38.601793,"address":"422 Second Street","librarynam":"Lewis County Public Library","state":"KY"},"type":"Feature","geometry":{"type":"Point","coordinates":[-83.317422,38.601793]}},{"properties":{"lon":-86.949104,"city":"Lewisburg","zip":null,"librarysys":"Logan County Public Library","phone":2707552025.0,"id":"adm83sq3imyz","lat":36.991124,"address":"155 Front Street","librarynam":"Lewisburg Branch","state":"KY"},"type":"Feature","geometry":{"type":"Point","coordinates":[-86.949104,36.991124]}},{"properties":{"lon":-86.897448,"city":"Lewisport","zip":null,"librarysys":"Hancock County Public Library","phone":2702953765.0,"id":"adm83sqj5cgj","lat":37.938945,"address":"17 Pell Street","librarynam":"Lewisport Branch","state":"KY"},"type":"Feature","geometry":{"type":"Point","coordinates":[-86.897448,37.938945]}},{"properties":{"lon":-84.496499,"city":"Lexington","zip":null,"librarysys":"Lexington Public Library","phone":8592315530.0,"id":"adm83sgt06se","lat":38.045681,"address":"140 East Main Street","librarynam":"Lexington Public Library","state":"KY"},"type":"Feature","geometry":{"type":"Point","coordinates":[-84.496499,38.045681]}},{"properties":{"lon":-82.714876,"city":"Neon","zip":null,"librarysys":"Letcher County Public Library","phone":6068557913.0,"id":"adm83srve0n5","lat":37.190592,"address":"1049 Highway 317","librarynam":"Lillian Webb Memorial Branch","state":"KY"},"type":"Feature","geometry":{"type":"Point","coordinates":[-82.714876,37.190592]}},{"properties":{"lon":-86.888467,"city":"Russellville","zip":null,"librarysys":"Logan County Public Library","phone":2707266129.0,"id":"adm83strg69p","lat":36.84295,"address":"201 West Sixth Street","librarynam":"Logan County Public Library","state":"KY"},"type":"Feature","geometry":{"type":"Point","coordinates":[-86.888467,36.84295]}},{"properties":{"lon":-84.730473,"city":"Versailles","zip":null,"librarysys":"Logan Helm Woodford County Library","phone":8598735191.0,"id":"adm83sr0vrjh","lat":38.053126,"address":"115 North Main Street","librarynam":"Logan Helm Woodford County Library","state":"KY"},"type":"Feature","geometry":{"type":"Point","coordinates":[-84.730473,38.053126]}},{"properties":{"lon":-85.757148,"city":"Louisville","zip":null,"librarysys":"Louisville Free Public Library","phone":5025741600.0,"id":"adm83ss1q1wq","lat":38.244102,"address":"301 York Street","librarynam":"Louisville Free Public Library","state":"KY"},"type":"Feature","geometry":{"type":"Point","coordinates":[-85.757148,38.244102]}},{"properties":{"lon":-88.084054,"city":"Eddyville","zip":null,"librarysys":"Lyon County Public Library","phone":2703887720.0,"id":"adm83ssebanm","lat":37.089363,"address":"261 Commerce Street","librarynam":"Lyon County Public Library","state":"KY"},"type":"Feature","geometry":{"type":"Point","coordinates":[-88.084054,37.089363]}},{"properties":{"lon":-84.300039,"city":"Richmond","zip":null,"librarysys":"Madison County Public Library","phone":6066236704.0,"id":"adm83sltacsg","lat":37.749972,"address":"507 West Main","librarynam":"Madison County Public Library","state":"KY"},"type":"Feature","geometry":{"type":"Point","coordinates":[-84.300039,37.749972]}},{"properties":{"lon":-83.068936,"city":"Salyersville","zip":null,"librarysys":"Magoffin County Public Library","phone":6063492411.0,"id":"adm83sj2ru4x","lat":37.752896,"address":"141 Church Street","librarynam":"Magoffin County Public Library","state":"KY"},"type":"Feature","geometry":{"type":"Point","coordinates":[-83.068936,37.752896]}},{"properties":{"lon":-85.583617,"city":"Goshen","zip":null,"librarysys":"Oldham County Public Library","phone":5022281896.0,"id":"adm83sgrzsuf","lat":38.399884,"address":"12505 Harmony Landing Road","librarynam":"Mahan-Oldham County Library","state":"KY"},"type":"Feature","geometry":{"type":"Point","coordinates":[-85.583617,38.399884]}},{"properties":{"lon":-85.247184,"city":"Lebanon","zip":null,"librarysys":"Marion County Public Library","phone":2706924698.0,"id":"adm83suna994","lat":37.571881,"address":"201 East Main Street","librarynam":"Marion County Public Library","state":"KY"},"type":"Feature","geometry":{"type":"Point","coordinates":[-85.247184,37.571881]}},{"properties":{"lon":-88.349774,"city":"Benton","zip":null,"librarysys":"Marshall County Public Library","phone":2705279969.0,"id":"adm83slrpsbo","lat":36.858906,"address":"1003 Poplar Street","librarynam":"Marshall County Public Library","state":"KY"},"type":"Feature","geometry":{"type":"Point","coordinates":[-88.349774,36.858906]}},{"properties":{"lon":-82.538814,"city":"Inez","zip":null,"librarysys":"Martin County Public Library System","phone":6062987766.0,"id":"adm83sthjft3","lat":37.86657,"address":"Main Street","librarynam":"Martin County Public Library System","state":"KY"},"type":"Feature","geometry":{"type":"Point","coordinates":[-82.538814,37.86657]}},{"properties":{"lon":-85.913612,"city":"Glasgow","zip":null,"librarysys":"Mary Wood Weldon Memorial Public Library","phone":2706512824.0,"id":"adm83sl8gwvn","lat":36.993455,"address":"107 West College Street","librarynam":"Mary Wood Weldon Memorial Public Library","state":"KY"},"type":"Feature","geometry":{"type":"Point","coordinates":[-85.913612,36.993455]}},{"properties":{"lon":-83.760014,"city":"Maysville","zip":null,"librarysys":"Mason County Public Library","phone":6065643286.0,"id":"adm83sjz7lz1","lat":38.644207,"address":"218 East Third Street","librarynam":"Mason County Public Library","state":"KY"},"type":"Feature","geometry":{"type":"Point","coordinates":[-83.760014,38.644207]}},{"properties":{"lon":-88.598761,"city":"Paducah","zip":null,"librarysys":"McCracken County Public Library","phone":2704422510.0,"id":"adm83srrwehd","lat":37.084014,"address":"555 Washington Street","librarynam":"McCracken County Public Library","state":"KY"},"type":"Feature","geometry":{"type":"Point","coordinates":[-88.598761,37.084014]}},{"properties":{"lon":-84.510656,"city":"Whitley City","zip":null,"librarysys":"Mccreary County Public Library","phone":6063768738.0,"id":"adm83shqc31z","lat":36.704781,"address":"North Main Street","librarynam":"Mccreary County Public Library District","state":"KY"},"type":"Feature","geometry":{"type":"Point","coordinates":[-84.510656,36.704781]}},{"properties":{"lon":-82.962859,"city":"South Shore","zip":null,"librarysys":"Greenup County Public Library","phone":6069324478.0,"id":"adm83sjil060","lat":38.723323,"address":"Rt 4","librarynam":"Mckell Branch","state":"KY"},"type":"Feature","geometry":{"type":"Point","coordinates":[-82.962859,38.723323]}},{"properties":{"lon":-86.167511,"city":"Brandenburg","zip":null,"librarysys":"Meade County Public Library","phone":2704222094.0,"id":"adm83ssjj1b6","lat":38.001111,"address":"400 Library Place","librarynam":"Meade County Public Library","state":"KY"},"type":"Feature","geometry":{"type":"Point","coordinates":[-86.167511,38.001111]}},{"properties":{"lon":-83.632652,"city":"Frenchburg","zip":null,"librarysys":"Menifee County Public Library","phone":6067682212.0,"id":"adm83slmn7s4","lat":37.950149,"address":"140 Walnut Street","librarynam":"Menifee County Public","state":"KY"},"type":"Feature","geometry":{"type":"Point","coordinates":[-83.632652,37.950149]}},{"properties":{"lon":-84.843551,"city":"Harrodsburg","zip":null,"librarysys":"Mercer County Public Library","phone":8597343680.0,"id":"adm83sgpljo2","lat":37.762471,"address":"109 West Lexington","librarynam":"Mercer County Public Library","state":"KY"},"type":"Feature","geometry":{"type":"Point","coordinates":[-84.843551,37.762471]}},{"properties":{"lon":-85.612274,"city":"Edmonton","zip":null,"librarysys":"Metcalfe County Public Library","phone":2704324981.0,"id":"adm83serd9jn","lat":36.980431,"address":"202 Main Street","librarynam":"Metcalfe County Public Library","state":"KY"},"type":"Feature","geometry":{"type":"Point","coordinates":[-85.612274,36.980431]}},{"properties":{"lon":-85.526215,"city":"Louisville","zip":null,"librarysys":"Louisville Free Public Library","phone":5022457332.0,"id":"adm83sv2hlbu","lat":38.246551,"address":"200 North Juneau Drive","librarynam":"Middleton Branch","state":"KY"},"type":"Feature","geometry":{"type":"Point","coordinates":[-85.526215,38.246551]}},{"properties":{"lon":-85.541963,"city":"Mount Washington","zip":null,"librarysys":"Bullitt County Public Library","phone":5025387560.0,"id":"adm83sjqvxws","lat":38.049347,"address":"311 Snapp St.","librarynam":"Mount Washington Branch Library","state":"KY"},"type":"Feature","geometry":{"type":"Point","coordinates":[-85.541963,38.049347]}},{"properties":{"lon":-83.945944,"city":"Mt. Sterling","zip":null,"librarysys":"Mount Sterling-Montgomery County Library","phone":8594982404.0,"id":"adm83sn6bx77","lat":38.054404,"address":"241 West Locust Street","librarynam":"Mt. Sterling-Montgomery County Public Library","state":"KY"},"type":"Feature","geometry":{"type":"Point","coordinates":[-83.945944,38.054404]}},{"properties":{"lon":-84.771878,"city":"Nancy","zip":null,"librarysys":"Pulaski County Public Library","phone":6066364241.0,"id":"adm83sp0cn4e","lat":36.974916,"address":"Mills Spring Plaza","librarynam":"Nancy Branch","state":"KY"},"type":"Feature","geometry":{"type":"Point","coordinates":[-84.771878,36.974916]}},{"properties":{"lon":-85.467009,"city":"Bardstown","zip":null,"librarysys":"Nelson County Public Library","phone":5023483714.0,"id":"adm83sssf8wi","lat":37.808852,"address":"90 Court Street","librarynam":"Nelson County Public Library","state":"KY"},"type":"Feature","geometry":{"type":"Point","coordinates":[-85.467009,37.808852]}},{"properties":{"lon":-85.593845,"city":"New Haven","zip":null,"librarysys":"Nelson County Public Library","phone":5025496735.0,"id":"adm83sj2heer","lat":37.657153,"address":"139 South Main Street","librarynam":"New Haven Branch","state":"KY"},"type":"Feature","geometry":{"type":"Point","coordinates":[-85.593845,37.657153]}},{"properties":{"lon":-84.494829,"city":"Newport","zip":null,"librarysys":"Campbell County Public Library","phone":8595725037.0,"id":"adm83snyth6t","lat":39.093,"address":"Fourth And Monmouth","librarynam":"Newport Branch","state":"KY"},"type":"Feature","geometry":{"type":"Point","coordinates":[-84.494829,39.093]}},{"properties":{"lon":-84.027408,"city":"Carlisle","zip":null,"librarysys":"Nicholas County Public Library","phone":8592895595.0,"id":"adm83spsl440","lat":38.312398,"address":"223 Broadway","librarynam":"Nicholas County Public Library","state":"KY"},"type":"Feature","geometry":{"type":"Point","coordinates":[-84.027408,38.312398]}},{"properties":{"lon":-85.948084,"city":"Radcliff","zip":null,"librarysys":"Hardin County Public Library","phone":2703519999.0,"id":"adm83ske2ykk","lat":37.825855,"address":"800 South Logsdon Parkway","librarynam":"North Branch","state":"KY"},"type":"Feature","geometry":{"type":"Point","coordinates":[-85.948084,37.825855]}},{"properties":{"lon":-84.470342,"city":"Lexington","zip":null,"librarysys":"Lexington Public Library","phone":8592315590.0,"id":"adm83slqec0s","lat":38.080743,"address":"1737 Russell Cave Road","librarynam":"Northside Branch","state":"KY"},"type":"Feature","geometry":{"type":"Point","coordinates":[-84.470342,38.080743]}},{"properties":{"lon":-86.90775,"city":"Hartford","zip":null,"librarysys":"Ohio County Public Library","phone":2702983790.0,"id":"adm83srbsv1x","lat":37.45009,"address":"413 Main Street","librarynam":"Ohio County Public Library","state":"KY"},"type":"Feature","geometry":{"type":"Point","coordinates":[-86.90775,37.45009]}},{"properties":{"lon":-85.687402,"city":"Louisville","zip":null,"librarysys":"Louisville Free Public Library","phone":5029643515.0,"id":"adm83sg1ywt2","lat":38.139929,"address":"7709 Preston Highway","librarynam":"Okolona Branch","state":"KY"},"type":"Feature","geometry":{"type":"Point","coordinates":[-85.687402,38.139929]}},{"properties":{"lon":-84.115393,"city":"East Bernstadt","zip":null,"librarysys":"Laurel County Public Library","phone":6068432013.0,"id":"adm83slm6crf","lat":37.193128,"address":"1200 Highway 490","librarynam":"Olde Town Branch","state":"KY"},"type":"Feature","geometry":{"type":"Point","coordinates":[-84.115393,37.193128]}},{"properties":{"lon":-85.378986,"city":"Lagrange","zip":null,"librarysys":"Oldham County Public Library","phone":5022221141.0,"id":"adm83stv0hdl","lat":38.4087,"address":"106 East Jefferson Street","librarynam":"Oldham County Public Library","state":"KY"},"type":"Feature","geometry":{"type":"Point","coordinates":[-85.378986,38.4087]}},{"properties":{"lon":-84.835876,"city":"Owenton","zip":null,"librarysys":"Owen County Public Library District","phone":5024843450.0,"id":"adm83ssts271","lat":38.536991,"address":"118 North Main Street","librarynam":"Owen County Public Library","state":"KY"},"type":"Feature","geometry":{"type":"Point","coordinates":[-84.835876,38.536991]}},{"properties":{"lon":-83.675694,"city":"Booneville","zip":null,"librarysys":"Owsley County Public Library","phone":6065935700.0,"id":"adm83sqw7hev","lat":37.47553,"address":"#2 Medical Plaza","librarynam":"Owsley County Public Library","state":"KY"},"type":"Feature","geometry":{"type":"Point","coordinates":[-83.675694,37.47553]}},{"properties":{"lon":-84.252606,"city":"Paris","zip":null,"librarysys":"Paris-Bourbon County Public Library","phone":8599874419.0,"id":"adm83shstimu","lat":38.210588,"address":"701 High Street","librarynam":"Paris-Bourbon County Public Library","state":"KY"},"type":"Feature","geometry":{"type":"Point","coordinates":[-84.252606,38.210588]}},{"properties":{"lon":-84.878989,"city":"Frankfort","zip":null,"librarysys":"Paul Sawyier Public Library","phone":5022231658.0,"id":"adm83smm439p","lat":38.197387,"address":"305 Wapping Street","librarynam":"Paul Sawyier Public Library","state":"KY"},"type":"Feature","geometry":{"type":"Point","coordinates":[-84.878989,38.197387]}},{"properties":{"lon":-84.329741,"city":"Falmouth","zip":null,"librarysys":"Pendleton County Public Library","phone":8596548535.0,"id":"adm83sjkgyl9","lat":38.677327,"address":"228 Main Street","librarynam":"Pendleton County Public Library","state":"KY"},"type":"Feature","geometry":{"type":"Point","coordinates":[-84.329741,38.677327]}},{"properties":{"lon":-83.195267,"city":"Hazard","zip":null,"librarysys":"Perry County Public Library","phone":6064362475.0,"id":"adm83spb7ep2","lat":37.251479,"address":"479 High Street","librarynam":"Perry County Public Library","state":"KY"},"type":"Feature","geometry":{"type":"Point","coordinates":[-83.195267,37.251479]}},{"properties":{"lon":-82.153431,"city":"Phelps","zip":null,"librarysys":"Pike County Public Library","phone":6064567860.0,"id":"adm83so4z0j0","lat":37.517697,"address":"38575 State Highway 194 E","librarynam":"Phelps Branch","state":"KY"},"type":"Feature","geometry":{"type":"Point","coordinates":[-82.153431,37.517697]}},{"properties":{"lon":-84.466567,"city":"Fort Thomas","zip":null,"librarysys":"Campbell County Public Library","phone":8595725033.0,"id":"adm83snte529","lat":39.072613,"address":"1000 Highland Avenue","librarynam":"Philip N. Carrico Branch","state":"KY"},"type":"Feature","geometry":{"type":"Point","coordinates":[-84.466567,39.072613]}},{"properties":{"lon":-82.519545,"city":"Pikeville","zip":null,"librarysys":"Pike County Public Library","phone":6064329977.0,"id":"adm83stxvgzu","lat":37.476749,"address":"119 College Street, Suite #3","librarynam":"Pike County Public Library","state":"KY"},"type":"Feature","geometry":{"type":"Point","coordinates":[-82.519545,37.476749]}},{"properties":{"lon":-85.801215,"city":"Louisville","zip":null,"librarysys":"Louisville Free Public Library","phone":5025741744.0,"id":"adm83seudfvo","lat":38.275043,"address":"3305 Northwestern Pky.","librarynam":"Portland Branch","state":"KY"},"type":"Feature","geometry":{"type":"Point","coordinates":[-85.801215,38.275043]}},{"properties":{"lon":-83.859949,"city":"Stanton","zip":null,"librarysys":"Powell County Public Library","phone":6066634511.0,"id":"adm83sideznz","lat":37.854926,"address":"725 Breckenridge Street","librarynam":"Powell County Public Library","state":"KY"},"type":"Feature","geometry":{"type":"Point","coordinates":[-83.859949,37.854926]}},{"properties":{"lon":-87.761506,"city":"Providence","zip":null,"librarysys":"Webster County Public Library","phone":2706675658.0,"id":"adm83sq7v2nj","lat":37.399295,"address":"230 North Willow Street","librarynam":"Providence Branch","state":"KY"},"type":"Feature","geometry":{"type":"Point","coordinates":[-87.761506,37.399295]}},{"properties":{"lon":-84.604837,"city":"Somerset","zip":null,"librarysys":"Pulaski County Public Library","phone":6066798401.0,"id":"adm83sj141fd","lat":37.093077,"address":"107 North Main Street","librarynam":"Pulaski County Public Library","state":"KY"},"type":"Feature","geometry":{"type":"Point","coordinates":[-84.604837,37.093077]}},{"properties":{"lon":-82.989076,"city":"Cumberland","zip":null,"librarysys":"Harlan County Public Library","phone":6065892409.0,"id":"adm83sg7lby4","lat":36.977483,"address":"310 West Main Street","librarynam":"Rebecca Caudill Public Library","state":"KY"},"type":"Feature","geometry":{"type":"Point","coordinates":[-82.989076,36.977483]}},{"properties":{"lon":-83.125594,"city":"Sandy Hook","zip":null,"librarysys":"Rhett Brown Memorial Library","phone":6067385796.0,"id":"adm83soyj3hx","lat":38.08664,"address":"Main Street","librarynam":"Rhett Brown Memorial Public Library","state":"KY"},"type":"Feature","geometry":{"type":"Point","coordinates":[-83.125594,38.08664]}},{"properties":{"lon":-85.714819,"city":"Shepherdsville","zip":null,"librarysys":"Bullitt County Public Library","phone":5025437675.0,"id":"adm83sry5zjg","lat":37.98818,"address":"127 North Walnut Street","librarynam":"Ridgway Memorial Library","state":"KY"},"type":"Feature","geometry":{"type":"Point","coordinates":[-85.714819,37.98818]}},{"properties":{"lon":-84.036684,"city":"Mount Olivet","zip":null,"librarysys":"Robertson County Public Library","phone":6067245746.0,"id":"adm83spknh4a","lat":38.531786,"address":"East Walnut Street","librarynam":"Robertson County Public Library","state":"KY"},"type":"Feature","geometry":{"type":"Point","coordinates":[-84.036684,38.531786]}},{"properties":{"lon":-84.336354,"city":"Mt. Vernon","zip":null,"librarysys":"Rockcastle County Public Library","phone":6062562388.0,"id":"adm83smgx3d6","lat":37.349984,"address":"60 Ford Drive","librarynam":"Rockcastle County Public Library","state":"KY"},"type":"Feature","geometry":{"type":"Point","coordinates":[-84.336354,37.349984]}},{"properties":{"lon":-83.433034,"city":"Morehead","zip":null,"librarysys":"Rowan County Public Library","phone":6067847137.0,"id":"adm83sty1m9a","lat":38.18227,"address":"185 East First Street","librarynam":"Rowan County Public Library","state":"KY"},"type":"Feature","geometry":{"type":"Point","coordinates":[-83.433034,38.18227]}},{"properties":{"lon":-82.401301,"city":"Lovely","zip":null,"librarysys":"Martin County Public Library System","phone":6063955809.0,"id":"adm83sfo5gze","lat":37.827426,"address":"P.O. Box 359","librarynam":"Rufus M. Reed Public Library","state":"KY"},"type":"Feature","geometry":{"type":"Point","coordinates":[-82.401301,37.827426]}},{"properties":{"lon":-85.063591,"city":"Jamestown","zip":null,"librarysys":"Russell County Public Library","phone":2703433545.0,"id":"adm83sngr3wk","lat":36.98548,"address":"94 North Main Street","librarynam":"Russell County Public Library","state":"KY"},"type":"Feature","geometry":{"type":"Point","coordinates":[-85.063591,36.98548]}},{"properties":{"lon":-85.094088,"city":"Russell Springs","zip":null,"librarysys":"Russell County Public Library","phone":2708665200.0,"id":"adm83sh3ovjm","lat":37.04942,"address":"512 Main Street","librarynam":"Russell Springs Branch Library","state":"KY"},"type":"Feature","geometry":{"type":"Point","coordinates":[-85.094088,37.04942]}},{"properties":{"lon":-85.650247,"city":"Louisville","zip":null,"librarysys":"Louisville Free Public Library","phone":5025741771.0,"id":"adm83soav8vl","lat":38.249378,"address":"3940 Grandview Avenue","librarynam":"Saint Matthews/Eline Memorial Branch","state":"KY"},"type":"Feature","geometry":{"type":"Point","coordinates":[-85.650247,38.249378]}},{"properties":{"lon":-84.635539,"city":"Science Hill","zip":null,"librarysys":"Pulaski County Public Library","phone":6064234221.0,"id":"adm83stgxz8m","lat":37.17755,"address":"P.O. Box 448","librarynam":"Science Hill Branch","state":"KY"},"type":"Feature","geometry":{"type":"Point","coordinates":[-84.635539,37.17755]}},{"properties":{"lon":-84.563424,"city":"Georgetown","zip":null,"librarysys":"Scott County Public Library","phone":5028633566.0,"id":"adm83sp6g1aj","lat":38.191788,"address":"104 South Bradford Lane","librarynam":"Scott County Public Library","state":"KY"},"type":"Feature","geometry":{"type":"Point","coordinates":[-84.563424,38.191788]}},{"properties":{"lon":-85.816915,"city":"Louisville","zip":null,"librarysys":"Louisville Free Public Library","phone":5025741722.0,"id":"adm83sgri80w","lat":38.25007,"address":"3912 West Broadway","librarynam":"Shawnee Branch","state":"KY"},"type":"Feature","geometry":{"type":"Point","coordinates":[-85.816915,38.25007]}},{"properties":{"lon":-85.22006,"city":"Shelbyville","zip":null,"librarysys":"Shelby County Public Library","phone":5026333803.0,"id":"adm83smd18mx","lat":38.212641,"address":"309 Eighth Street","librarynam":"Shelby County Public Library","state":"KY"},"type":"Feature","geometry":{"type":"Point","coordinates":[-85.22006,38.212641]}},{"properties":{"lon":-85.80648,"city":"Louisville","zip":null,"librarysys":"Louisville Free Public Library","phone":5025741730.0,"id":"adm83slwtkiz","lat":38.194754,"address":"3920 Dixie Highway","librarynam":"Shively/Newman Branch","state":"KY"},"type":"Feature","geometry":{"type":"Point","coordinates":[-85.80648,38.194754]}},{"properties":{"lon":-84.433275,"city":"Somerset","zip":null,"librarysys":"Pulaski County Public Library","phone":6062741671.0,"id":"adm83skhdh25","lat":37.15091,"address":"331 Stab Road","librarynam":"Shopville/Stab Branch Library","state":"KY"},"type":"Feature","geometry":{"type":"Point","coordinates":[-84.433275,37.15091]}},{"properties":{"lon":-86.209028,"city":"Smiths Grove","zip":null,"librarysys":"The Bowling Green Public Library","phone":2705636651.0,"id":"adm83sou0o9z","lat":37.050332,"address":"127 South Main Street","librarynam":"Smiths Grove Branch","state":"KY"},"type":"Feature","geometry":{"type":"Point","coordinates":[-86.209028,37.050332]}},{"properties":{"lon":-84.0981,"city":"Corbin","zip":null,"librarysys":"Laurel County Public Library","phone":6062587000.0,"id":"adm83ssez7u8","lat":36.973182,"address":"727 West Cumberland Gap Parkway","librarynam":"South Branch","state":"KY"},"type":"Feature","geometry":{"type":"Point","coordinates":[-84.0981,36.973182]}},{"properties":{"lon":-85.479039,"city":"Crestwood","zip":null,"librarysys":"Oldham County Public Library","phone":5022411108.0,"id":"adm83sl25ut3","lat":38.31954,"address":"6720 West Highway 146","librarynam":"South Oldham Library","state":"KY"},"type":"Feature","geometry":{"type":"Point","coordinates":[-85.479039,38.31954]}},{"properties":{"lon":-85.868373,"city":"Louisville","zip":null,"librarysys":"Louisville Free Public Library","phone":5029330029.0,"id":"adm83sficbo1","lat":38.104681,"address":"10375 Dixie Highway","librarynam":"Southwest Regional Branch","state":"KY"},"type":"Feature","geometry":{"type":"Point","coordinates":[-85.868373,38.104681]}},{"properties":{"lon":-85.340915,"city":"Taylorsville","zip":null,"librarysys":"Spencer County Public Library","phone":5024778137.0,"id":"adm83sj7zmcq","lat":38.034222,"address":"168 Taylorsville Road","librarynam":"Spencer County Public Library","state":"KY"},"type":"Feature","geometry":{"type":"Point","coordinates":[-85.340915,38.034222]}},{"properties":{"lon":-87.983714,"city":"Sturgis","zip":null,"librarysys":"Union County Public Library District","phone":2703335547.0,"id":"adm83skq8582","lat":37.547693,"address":"111 West Seventh Street","librarynam":"Sturgis Branch","state":"KY"},"type":"Feature","geometry":{"type":"Point","coordinates":[-87.983714,37.547693]}},{"properties":{"lon":-86.442909,"city":"Bowling Green","zip":null,"librarysys":"The Bowling Green Public Library","phone":2707811441.0,"id":"adm83sgtfh91","lat":37.01076,"address":"1347 Kentucky Highway 185","librarynam":"Sugar Maple Branch","state":"KY"},"type":"Feature","geometry":{"type":"Point","coordinates":[-86.442909,37.01076]}},{"properties":{"lon":-82.699953,"city":"Ashland","zip":null,"librarysys":"Boyd County Public Library","phone":6069283366.0,"id":"adm83sfoiy8j","lat":38.432991,"address":"1016 Summit Road","librarynam":"Summit Branch","state":"KY"},"type":"Feature","geometry":{"type":"Point","coordinates":[-82.699953,38.432991]}},{"properties":{"lon":-84.499706,"city":"Lexington","zip":null,"librarysys":"Lexington Public Library","phone":8592315580.0,"id":"adm83st7bde6","lat":37.979495,"address":"3628 Walden Drive","librarynam":"Tates Creek Branch","state":"KY"},"type":"Feature","geometry":{"type":"Point","coordinates":[-84.499706,37.979495]}},{"properties":{"lon":-85.345757,"city":"Campbellsville","zip":null,"librarysys":"Taylor County Public Library","phone":2704652562.0,"id":"adm83skri17q","lat":37.341199,"address":"205 North Columbia Avenue","librarynam":"Taylor County Public Library District","state":"KY"},"type":"Feature","geometry":{"type":"Point","coordinates":[-85.345757,37.341199]}},{"properties":{"lon":-86.445567,"city":"Bowling Green","zip":null,"librarysys":"The Bowling Green Public Library","phone":2707814884.0,"id":"adm83strm4hl","lat":36.989686,"address":"1225 State Street","librarynam":"The Bowling Green Public Library","state":"KY"},"type":"Feature","geometry":{"type":"Point","coordinates":[-86.445567,36.989686]}},{"properties":{"lon":-87.151845,"city":"Elkton","zip":null,"librarysys":"Todd County Public Library","phone":2702659071.0,"id":"adm83spsy1t0","lat":36.809078,"address":"302 East Main Street","librarynam":"Todd County Public Library","state":"KY"},"type":"Feature","geometry":{"type":"Point","coordinates":[-87.151845,36.809078]}},{"properties":{"lon":-87.82367,"city":"Cadiz","zip":null,"librarysys":"Trigg County Public Library","phone":2705226301.0,"id":"adm83sntm0fe","lat":36.866752,"address":"244 Main Street","librarynam":"Trigg County Public Library","state":"KY"},"type":"Feature","geometry":{"type":"Point","coordinates":[-87.82367,36.866752]}},{"properties":{"lon":-85.313727,"city":"Bedford","zip":null,"librarysys":"Trimble County Public Library","phone":5022557362.0,"id":"adm83sjljlld","lat":38.597579,"address":"Main Street","librarynam":"Trimble County Public Library","state":"KY"},"type":"Feature","geometry":{"type":"Point","coordinates":[-85.313727,38.597579]}},{"properties":{"lon":-87.917228,"city":"Morganfield","zip":null,"librarysys":"Union County Public Library District","phone":2703891696.0,"id":"adm83sfejhds","lat":37.683477,"address":"126 South Morgan Street","librarynam":"Union County Public Library","state":"KY"},"type":"Feature","geometry":{"type":"Point","coordinates":[-87.917228,37.683477]}},{"properties":{"lon":-87.936624,"city":"Uniontown","zip":null,"librarysys":"Union County Public Library District","phone":2708224244.0,"id":"adm83shmijgx","lat":37.77219,"address":"520 Second Street","librarynam":"Uniontown Branch","state":"KY"},"type":"Feature","geometry":{"type":"Point","coordinates":[-87.936624,37.77219]}},{"properties":{"lon":-82.609782,"city":"Virgie","zip":null,"librarysys":"Pike County Public Library","phone":6066399839.0,"id":"adm83smky5q2","lat":37.326322,"address":"P.O. Box 548","librarynam":"Vesta Roberts Johnson Memorial Library","state":"KY"},"type":"Feature","geometry":{"type":"Point","coordinates":[-82.609782,37.326322]}},{"properties":{"lon":-84.610401,"city":"Walton","zip":null,"librarysys":"Boone County Public Library","phone":8594856777.0,"id":"adm83ssqa6yl","lat":38.864042,"address":"21 South Main Street","librarynam":"Walton Branch","state":"KY"},"type":"Feature","geometry":{"type":"Point","coordinates":[-84.610401,38.864042]}},{"properties":{"lon":-85.220331,"city":"Springfield","zip":null,"librarysys":"Washington County Public Library","phone":8593367655.0,"id":"adm83snpln7h","lat":37.68442,"address":"210 E. Main Street","librarynam":"Washington County Public Library","state":"KY"},"type":"Feature","geometry":{"type":"Point","coordinates":[-85.220331,37.68442]}},{"properties":{"lon":-84.850835,"city":"Monticello","zip":null,"librarysys":"Wayne County Public Library","phone":6063488565.0,"id":"adm83sqlva08","lat":36.828303,"address":"159 South Main Street","librarynam":"Wayne County Public Library District","state":"KY"},"type":"Feature","geometry":{"type":"Point","coordinates":[-84.850835,36.828303]}},{"properties":{"lon":-87.701136,"city":"Dixon","zip":null,"librarysys":"Webster County Public Library","phone":2706399171.0,"id":"adm83sq0wwk2","lat":37.520584,"address":"101 State Route 132 East","librarynam":"Webster County Public Library","state":"KY"},"type":"Feature","geometry":{"type":"Point","coordinates":[-87.701136,37.520584]}},{"properties":{"lon":-85.76802,"city":"Louisville","zip":null,"librarysys":"Louisville Free Public Library","phone":5025741779.0,"id":"adm83smlavqc","lat":38.249303,"address":"604 South Tenth Street","librarynam":"Western Branch","state":"KY"},"type":"Feature","geometry":{"type":"Point","coordinates":[-85.76802,38.249303]}},{"properties":{"lon":-85.601618,"city":"Louisville","zip":null,"librarysys":"Louisville Free Public Library","phone":5023940379.0,"id":"adm83ssf2j0m","lat":38.276472,"address":"8100 Westport Road - Suite B","librarynam":"Westport Middle School","state":"KY"},"type":"Feature","geometry":{"type":"Point","coordinates":[-85.601618,38.276472]}},{"properties":{"lon":-84.157994,"city":"Williamsburg","zip":null,"librarysys":"Whitley County Public Library","phone":6065490818.0,"id":"adm83suu5kcx","lat":36.741209,"address":"285 South Third Street","librarynam":"Whitley County Public Library","state":"KY"},"type":"Feature","geometry":{"type":"Point","coordinates":[-84.157994,36.741209]}},{"properties":{"lon":-85.694071,"city":"Tompkinsville","zip":null,"librarysys":"Monroe County Public Library","phone":2704875301.0,"id":"adm83sifyol4","lat":36.703998,"address":"500 West Fourth Street","librarynam":"William B. Harlan Memorial Library","state":"KY"},"type":"Feature","geometry":{"type":"Point","coordinates":[-85.694071,36.703998]}},{"properties":{"lon":-84.547271,"city":"Independence","zip":null,"librarysys":"Kenton County Public Library","phone":8599624030.0,"id":"adm83sq0q8ag","lat":38.906242,"address":"1992 Walton-Nicholson Road","librarynam":"William E. Durr Branch","state":"KY"},"type":"Feature","geometry":{"type":"Point","coordinates":[-84.547271,38.906242]}},{"properties":{"lon":-84.575389,"city":"Nicholasville","zip":null,"librarysys":"Jessamine County Public Library","phone":8598853523.0,"id":"adm83sl96vr7","lat":37.873646,"address":"600 South Main Street","librarynam":"Withers Memorial Library","state":"KY"},"type":"Feature","geometry":{"type":"Point","coordinates":[-84.575389,37.873646]}},{"properties":{"lon":-83.552071,"city":"Campton","zip":null,"librarysys":"Wolfe County Public Library","phone":6066686571.0,"id":"adm83suclxpy","lat":37.733121,"address":"Main Street","librarynam":"Wolfe County Public Library","state":"KY"},"type":"Feature","geometry":{"type":"Point","coordinates":[-83.552071,37.733121]}}],"is_temporal":false,"author":{"url":null,"metadata":null,"contact_name":null,"contact_address":null,"source":null,"contact_phone":null},"source":null,"pagination":{"sort":null,"start":0,"total":189,"limit":1000000},"state":"complete","tags":"","published":"2014-08-16T19:16:32-04:00","id":345360}