{"type":"FeatureCollection","data_type":"Dataset Analysis","url_type":null,"permissions":[{"permissions":{"download":true,"view":true},"group_id":"everyone"}],"classification":null,"title":"Relationship between Huc and X Coord from Round Goby Occurances ","count":53,"stream_id":372167,"contributor":{"url":"http://geocommons.com/users/76191","name":"nowick32"},"data_attributes":null,"calculation_params":[{"calculation":"residual","input":{"ds1":"371775","atr_1":"HUC","atr_2":"X_COORD"}}],"icon_link":null,"link":"http://geocommons.com/overlays/372167.json","extent":[-87.0388,41.8903,-82.4143,45.9794],"geometry_types":["point"],"unique_name":null,"name":"Relationship between Huc and X Coord from Round Goby Occurances ","feature_count":53,"description":"Dataset derived by applying Refinement module/residual analysis to 'Round Goby Occurances ' ","next_feature":null,"is_raster":false,"short_classification":"Y","stats":{"x_column":"HUC","HUC":{"max":4100002,"variance":267761229.436139,"mean":4074328.60377359,"pearsons":{"X_COORD":0.409688628041271},"stdev":16363.4113019303,"min":4040800,"median":4080203},"residual_x":{"max":110169.950350485,"variance":1327529623.71424,"mean":-3.33870356937624e-09,"stdev":36435.279931877,"min":-72310.8152963603,"median":-10448.7707989314},"residual_y":{"max":2.00324582612289,"variance":1.01884049415632,"mean":9.33090083186849e-14,"stdev":1.00937628967413,"min":-3.05206755447665,"median":0.28946508769522},"X_COORD":{"max":-82.41428,"variance":1.2243394739513,"mean":-83.5952839622641,"pearsons":{"HUC":0.409688628041271},"stdev":1.1064987455715,"min":-87.03876,"median":-83.40916},"YEAR_DISC":{"max":2003,"variance":1002542.89767779,"mean":868.396226415094,"stdev":1001.27064157389,"min":0,"median":0},"y_column":"X_COORD","Y_COORD":{"max":45.98136,"variance":1411.3868047265,"mean":31.7834081132075,"stdev":37.5684282972618,"min":-84.05477,"median":43.10336},"FIPS":{"max":99994,"variance":103072573.25254,"mean":27478.4528301887,"stdev":10152.4663630342,"min":26007,"median":26063}},"features":[{"properties":{"WATERSHED":"Cheboygan River","HUC":4070004,"ST":"MI","residual_x":27352.7444767221,"residual_y":-0.757760384548689,"X_COORD":-84.47285,"LOCATION":"Cheboygan River at Mouth","YEAR_DISC":2002,"ID":"rg-1","Y_COORD":45.64586,"id":"afaouj0ld9yl","YEAR_MONT":null,"COUNTY":"CHEBOYGAN","FIPS":26031},"type":"Feature","geometry":{"type":"Point","coordinates":[-84.4728630229382,45.6439041251527]}},{"properties":{"WATERSHED":"Lake Huron","HUC":4070003,"ST":"MI","residual_x":-11044.087986561,"residual_y":0.305957318718342,"X_COORD":-83.40916,"LOCATION":"Lake Drainage To Lake Huron","YEAR_DISC":0,"ID":"rg-2","Y_COORD":45.068,"id":"afaouiyhdqj1","YEAR_MONT":null,"COUNTY":"ALPENA","FIPS":26007},"type":"Feature","geometry":{"type":"Point","coordinates":[-83.4091730841136,45.0660473184929]}},{"properties":{"WATERSHED":"Au Sable River","HUC":4070007,"ST":"MI","residual_x":-9948.51997925621,"residual_y":0.275606505650174,"X_COORD":-83.4394,"LOCATION":"Au Sable River at Gage #04137500","YEAR_DISC":2002,"ID":"rg-3","Y_COORD":44.43589,"id":"afaouiv4kuha","YEAR_MONT":null,"COUNTY":"IOSCO","FIPS":26069},"type":"Feature","geometry":{"type":"Point","coordinates":[-83.4394133230027,44.4339389626455]}},{"properties":{"WATERSHED":"Saginaw River","HUC":4080206,"ST":"MI","residual_x":14827.1001500324,"residual_y":-0.410759114903158,"X_COORD":-83.84322,"LOCATION":"Saginaw River at Mouth","YEAR_DISC":1997,"ID":"rg-4","Y_COORD":43.63368,"id":"afaouiybdl5z","YEAR_MONT":null,"COUNTY":"BAY","FIPS":26017},"type":"Feature","geometry":{"type":"Point","coordinates":[-83.8432272685049,43.6317373003373]}},{"properties":{"WATERSHED":"Saginaw River","HUC":4080206,"ST":"MI","residual_x":14737.9409907055,"residual_y":-0.408289114903155,"X_COORD":-83.84075,"LOCATION":"Saginaw River at Mouth","YEAR_DISC":0,"ID":"rg-5","Y_COORD":43.62851,"id":"afaouiw5r3s3","YEAR_MONT":null,"COUNTY":"BAY","FIPS":26017},"type":"Feature","geometry":{"type":"Point","coordinates":[-83.8407629722918,43.6265722563976]}},{"properties":{"WATERSHED":"Saginaw River","HUC":4080206,"ST":"MI","residual_x":16649.9898447702,"residual_y":-0.461259114903157,"X_COORD":-83.89372,"LOCATION":"Saginaw River at Mouth","YEAR_DISC":2003,"ID":"rg-6","Y_COORD":-83.89372,"id":"afaouj4142tm","YEAR_MONT":null,"COUNTY":"BAY","FIPS":26017},"type":"Feature","geometry":{"type":"Point","coordinates":[-83.893732873593,43.5943509292217]}},{"properties":{"WATERSHED":"Saginaw River","HUC":4080206,"ST":"MI","residual_x":17238.0071344194,"residual_y":-0.477549114903155,"X_COORD":-83.91001,"LOCATION":"Saginaw River at Mouth","YEAR_DISC":2002,"ID":"rg-7","Y_COORD":43.46702,"id":"afaouj57pxvb","YEAR_MONT":null,"COUNTY":"SAGINAW","FIPS":26145},"type":"Feature","geometry":{"type":"Point","coordinates":[-83.9100182914231,43.4650817733868]}},{"properties":{"WATERSHED":"Muskegon River","HUC":4060102,"ST":"MI","residual_x":84566.6552909222,"residual_y":-2.3427726343066,"X_COORD":-86.33218,"LOCATION":"Muskegon River at Mouth","YEAR_DISC":0,"ID":"rg-8","Y_COORD":43.23079,"id":"afaouj1z83gf","YEAR_MONT":null,"COUNTY":"MUSKEGON","FIPS":26121},"type":"Feature","geometry":{"type":"Point","coordinates":[-86.3321784336113,43.228854555876]}},{"properties":{"WATERSHED":"Flint River","HUC":4080204,"ST":"MI","residual_x":4477.5841125357,"residual_y":-0.124043708369072,"X_COORD":-83.55656,"LOCATION":"Flint River Above Kearsley Creek","YEAR_DISC":0,"ID":"rg-9","Y_COORD":43.10336,"id":"afaouit8znwd","YEAR_MONT":null,"COUNTY":"GENESEE","FIPS":26049},"type":"Feature","geometry":{"type":"Point","coordinates":[-83.5565755041257,43.1014241765011]}},{"properties":{"WATERSHED":"Flint River","HUC":4080204,"ST":"MI","residual_x":5163.78476792108,"residual_y":-0.143053708369067,"X_COORD":-83.57557,"LOCATION":"Flint River Above Kearsley Creek","YEAR_DISC":0,"ID":"rg-10","Y_COORD":43.10592,"id":"afaouj2dw3ce","YEAR_MONT":null,"COUNTY":"GENESEE","FIPS":26049},"type":"Feature","geometry":{"type":"Point","coordinates":[-83.5755802700575,43.1039799720943]}},{"properties":{"WATERSHED":"Flint River","HUC":4080204,"ST":"MI","residual_x":6375.55520460149,"residual_y":-0.176623708369064,"X_COORD":-83.60914,"LOCATION":"Flint River Above Kearsley Creek","YEAR_DISC":2003,"ID":"rg-11","Y_COORD":-83.60914,"id":"afaouj1oeoo5","YEAR_MONT":null,"COUNTY":"GENESEE","FIPS":26049},"type":"Feature","geometry":{"type":"Point","coordinates":[-83.6091502389315,43.1084486276728]}},{"properties":{"WATERSHED":"Shiawassee River","HUC":4080203,"ST":"MI","residual_x":22460.3836138309,"residual_y":-0.622226005102036,"X_COORD":-84.05477,"LOCATION":"Shiawassee River Above Webb Creek","YEAR_DISC":2003,"ID":"rg-12","Y_COORD":-84.05477,"id":"afaouixgux1b","YEAR_MONT":null,"COUNTY":"SHIAWASSEE","FIPS":26155},"type":"Feature","geometry":{"type":"Point","coordinates":[-84.0547789548968,42.8933070362863]}},{"properties":{"WATERSHED":"Shiawassee River","HUC":4080203,"ST":"MI","residual_x":14714.3658000915,"residual_y":-0.407636005102034,"X_COORD":-83.84018,"LOCATION":"Shiawassee River at Gage #04144000","YEAR_DISC":0,"ID":"rg-13","Y_COORD":42.80936,"id":"afaouj778rwf","YEAR_MONT":null,"COUNTY":"GENESEE","FIPS":26049},"type":"Feature","geometry":{"type":"Point","coordinates":[-83.8401891054713,42.8074323829374]}},{"properties":{"WATERSHED":"Shiawassee River","HUC":4080203,"ST":"MI","residual_x":14693.7906094776,"residual_y":-0.407066005102024,"X_COORD":-83.83961,"LOCATION":"Shiawassee River at Gage #04144000","YEAR_DISC":0,"ID":"rg-14","Y_COORD":42.80977,"id":"afaouis20uzv","YEAR_MONT":null,"COUNTY":"GENESEE","FIPS":26049},"type":"Feature","geometry":{"type":"Point","coordinates":[-83.8396245328181,42.8078405512781]}},{"properties":{"WATERSHED":"Shiawassee River","HUC":4080203,"ST":"MI","residual_x":14525.579402003,"residual_y":-0.402406005102037,"X_COORD":-83.83495,"LOCATION":"Shiawassee River at Gage #04144000","YEAR_DISC":0,"ID":"rg-15","Y_COORD":42.81199,"id":"afaouj02tebi","YEAR_MONT":null,"COUNTY":"GENESEE","FIPS":26049},"type":"Feature","geometry":{"type":"Point","coordinates":[-83.8349553620645,42.81005686898]}},{"properties":{"WATERSHED":"Shiawassee River","HUC":4080203,"ST":"MI","residual_x":14418.7327981135,"residual_y":-0.399446005102035,"X_COORD":-83.83199,"LOCATION":"Shiawassee River at Gage #04144000","YEAR_DISC":0,"ID":"rg-16","Y_COORD":42.81195,"id":"afaouj0z5btj","YEAR_MONT":null,"COUNTY":"GENESEE","FIPS":26049},"type":"Feature","geometry":{"type":"Point","coordinates":[-83.8319951659378,42.8100187256982]}},{"properties":{"WATERSHED":"Shiawassee River","HUC":4080203,"ST":"MI","residual_x":15250.4036608213,"residual_y":-0.42248600510203,"X_COORD":-83.85503,"LOCATION":"Shiawassee River at Gage #04144000","YEAR_DISC":0,"ID":"rg-17","Y_COORD":42.80453,"id":"afaouj0mw9vq","YEAR_MONT":null,"COUNTY":"GENESEE","FIPS":26049},"type":"Feature","geometry":{"type":"Point","coordinates":[-83.8550358522882,42.8025953885362]}},{"properties":{"WATERSHED":"Shiawassee River","HUC":4080203,"ST":"MI","residual_x":16070.1625710693,"residual_y":-0.445196005102034,"X_COORD":-83.87774,"LOCATION":"Shiawassee River at Gage #04144000","YEAR_DISC":0,"ID":"rg-18","Y_COORD":42.80916,"id":"afaouiw96zvr","YEAR_MONT":null,"COUNTY":"GENESEE","FIPS":26049},"type":"Feature","geometry":{"type":"Point","coordinates":[-83.8777484998481,42.8072301656884]}},{"properties":{"WATERSHED":"Shiawassee River","HUC":4080203,"ST":"MI","residual_x":16727.4857659438,"residual_y":-0.46340600510203,"X_COORD":-83.89595,"LOCATION":"Shiawassee River at Gage #04144000","YEAR_DISC":0,"ID":"rg-19","Y_COORD":42.81697,"id":"afaouj3yd4lv","YEAR_MONT":null,"COUNTY":"GENESEE","FIPS":26049},"type":"Feature","geometry":{"type":"Point","coordinates":[-83.895959824505,42.8150387380788]}},{"properties":{"WATERSHED":"River Raisin","HUC":4100002,"ST":"MI","residual_x":17553.9942104141,"residual_y":-0.486302989251001,"X_COORD":-83.37035,"LOCATION":"River Raisin at Mouth","YEAR_DISC":0,"ID":"rg-20","Y_COORD":41.90346,"id":"afaouiurj9nt","YEAR_MONT":null,"COUNTY":"MONROE","FIPS":26115},"type":"Feature","geometry":{"type":"Point","coordinates":[-83.3703550923665,41.9015417114586]}},{"properties":{"WATERSHED":"River Raisin","HUC":4100002,"ST":"MI","residual_x":16321.2876148634,"residual_y":-0.452152989251005,"X_COORD":-83.3362,"LOCATION":null,"YEAR_DISC":0,"ID":"rg-21","Y_COORD":41.89219,"id":"afaouis4tgn4","YEAR_MONT":null,"COUNTY":"MONROE","FIPS":26115},"type":"Feature","geometry":{"type":"Point","coordinates":[-83.3362136105401,41.8902694792285]}},{"properties":{"WATERSHED":"Lake St. Clair","HUC":4090000,"ST":"MI","residual_x":-24926.4856259702,"residual_y":0.690545087695213,"X_COORD":-82.47059,"LOCATION":null,"YEAR_DISC":0,"ID":"rg-22","Y_COORD":42.76311,"id":"afaouj3khbn6","YEAR_MONT":null,"COUNTY":"ST. CLAIR","FIPS":26147},"type":"Feature","geometry":{"type":"Point","coordinates":[-82.470602378351,42.7611815522273]}},{"properties":{"WATERSHED":"Lake St. Clair","HUC":4090000,"ST":"MI","residual_x":-24920.7101338683,"residual_y":0.690385087695219,"X_COORD":-82.47075,"LOCATION":null,"YEAR_DISC":0,"ID":"rg-23","Y_COORD":42.76259,"id":"afaouj31r6ge","YEAR_MONT":null,"COUNTY":"ST. CLAIR","FIPS":26147},"type":"Feature","geometry":{"type":"Point","coordinates":[-82.47076259366,42.7606627594091]}},{"properties":{"WATERSHED":"Lake St. Clair","HUC":4090000,"ST":"MI","residual_x":-24925.0417529447,"residual_y":0.690505087695215,"X_COORD":-82.47063,"LOCATION":null,"YEAR_DISC":0,"ID":"rg-24","Y_COORD":42.76445,"id":"afaouizdxe8y","YEAR_MONT":null,"COUNTY":"ST. CLAIR","FIPS":26147},"type":"Feature","geometry":{"type":"Point","coordinates":[-82.4706405290561,42.7625166801014]}},{"properties":{"WATERSHED":"Lake St. Clair","HUC":4090000,"ST":"MI","residual_x":-24928.2904672525,"residual_y":0.690595087695215,"X_COORD":-82.47054,"LOCATION":null,"YEAR_DISC":0,"ID":"rg-25","Y_COORD":42.76426,"id":"afaouiyci2ks","YEAR_MONT":null,"COUNTY":"ST. CLAIR","FIPS":26147},"type":"Feature","geometry":{"type":"Point","coordinates":[-82.4705566054299,42.7623297623217]}},{"properties":{"WATERSHED":"Lake St. Clair","HUC":4090000,"ST":"MI","residual_x":-24926.846594227,"residual_y":0.690555087695216,"X_COORD":-82.47058,"LOCATION":null,"YEAR_DISC":0,"ID":"rg-26","Y_COORD":42.76408,"id":"afaouj7eon7s","YEAR_MONT":null,"COUNTY":"ST. CLAIR","FIPS":26147},"type":"Feature","geometry":{"type":"Point","coordinates":[-82.4705947517823,42.7621542883049]}},{"properties":{"WATERSHED":"Lake St. Clair","HUC":4090000,"ST":"MI","residual_x":-26959.0978776673,"residual_y":0.746855087695209,"X_COORD":-82.41428,"LOCATION":null,"YEAR_DISC":0,"ID":"rg-27","Y_COORD":42.97614,"id":"afaouirq3vdz","YEAR_MONT":null,"COUNTY":"ST. CLAIR","FIPS":26147},"type":"Feature","geometry":{"type":"Point","coordinates":[-82.4142906095825,42.9742108831586]}},{"properties":{"WATERSHED":"Lake St. Clair","HUC":4090000,"ST":"MI","residual_x":-26955.4881951036,"residual_y":0.74675508769522,"X_COORD":-82.41438,"LOCATION":null,"YEAR_DISC":0,"ID":"rg-28","Y_COORD":42.97562,"id":"afaouivtiq5i","YEAR_MONT":null,"COUNTY":"ST. CLAIR","FIPS":26147},"type":"Feature","geometry":{"type":"Point","coordinates":[-82.4143974192381,42.9736882755541]}},{"properties":{"WATERSHED":"Lake St. Clair","HUC":4090000,"ST":"MI","residual_x":-24446.7588132364,"residual_y":0.677255087695215,"X_COORD":-82.48388,"LOCATION":null,"YEAR_DISC":0,"ID":"rg-29","Y_COORD":42.82727,"id":"afaouivb92y6","YEAR_MONT":null,"COUNTY":"ST. CLAIR","FIPS":26147},"type":"Feature","geometry":{"type":"Point","coordinates":[-82.4838929281746,42.8253439692495]}},{"properties":{"WATERSHED":"Lake St. Clair","HUC":4090000,"ST":"MI","residual_x":-24448.9246227751,"residual_y":0.67731508769522,"X_COORD":-82.48382,"LOCATION":null,"YEAR_DISC":0,"ID":"rg-30","Y_COORD":42.82638,"id":"afaouj1j07a6","YEAR_MONT":null,"COUNTY":"ST. CLAIR","FIPS":26147},"type":"Feature","geometry":{"type":"Point","coordinates":[-82.4838318906248,42.824447526193]}},{"properties":{"WATERSHED":"Lake St. Clair","HUC":4090000,"ST":"MI","residual_x":-24442.7881624158,"residual_y":0.677145087695209,"X_COORD":-82.48399,"LOCATION":null,"YEAR_DISC":0,"ID":"rg-31","Y_COORD":42.82551,"id":"afaouj7ncykc","YEAR_MONT":null,"COUNTY":"ST. CLAIR","FIPS":26147},"type":"Feature","geometry":{"type":"Point","coordinates":[-82.4839997342909,42.8235777853432]}},{"properties":{"WATERSHED":"Lake Michigan","HUC":4060200,"ST":"MI","residual_x":81817.3376845671,"residual_y":-2.26660755447665,"X_COORD":-86.2533,"LOCATION":"Grand Haven","YEAR_DISC":0,"ID":"rg-32","Y_COORD":43.05259,"id":"afaouiztveoy","YEAR_MONT":null,"COUNTY":"OTTAWA","FIPS":26139},"type":"Feature","geometry":{"type":"Point","coordinates":[-86.2533059303477,43.0506530058924]}},{"properties":{"WATERSHED":"Lake Michigan","HUC":4060200,"ST":"MI","residual_x":110169.950350485,"residual_y":-3.05206755447665,"X_COORD":-87.03876,"LOCATION":"Sand Point - Escanaba","YEAR_DISC":1998,"ID":"rg-33","Y_COORD":45.74664,"id":"afaouiv36yqc","YEAR_MONT":null,"COUNTY":"DELTA","FIPS":26041},"type":"Feature","geometry":{"type":"Point","coordinates":[-87.0387647597493,45.7446751263119]}},{"properties":{"WATERSHED":"Lake Huron","HUC":4040800,"ST":"MI","residual_x":89342.6818647436,"residual_y":-2.47508417387711,"X_COORD":-86.99922,"LOCATION":"Gladstone","YEAR_DISC":1998,"ID":"rg-34","Y_COORD":45.84492,"id":"afaouj12n01x","YEAR_MONT":null,"COUNTY":"DELTA","FIPS":26041},"type":"Feature","geometry":{"type":"Point","coordinates":[-86.999221805702,45.8429602014353]}},{"properties":{"WATERSHED":"Lake Huron","HUC":4040800,"ST":"MI","residual_x":-72310.8152963603,"residual_y":2.00324582612289,"X_COORD":-82.52089,"LOCATION":"Port Sanilac","YEAR_DISC":0,"ID":"rg-35","Y_COORD":43.27012,"id":"afaouj1wb190","YEAR_MONT":null,"COUNTY":"SANILAC","FIPS":26151},"type":"Feature","geometry":{"type":"Point","coordinates":[-82.5209042790092,43.2681870206142]}},{"properties":{"WATERSHED":"Lake Huron","HUC":4040800,"ST":"MI","residual_x":-71737.5977052227,"residual_y":1.98736582612288,"X_COORD":-82.53677,"LOCATION":"McKenzie Creek","YEAR_DISC":0,"ID":"rg-36","Y_COORD":43.44628,"id":"afaouj0ob0mj","YEAR_MONT":null,"COUNTY":"SANILAC","FIPS":26151},"type":"Feature","geometry":{"type":"Point","coordinates":[-82.5367891330243,43.4443439802883]}},{"properties":{"WATERSHED":"Lake Huron","HUC":4040800,"ST":"MI","residual_x":-68047.0582519555,"residual_y":1.88512582612289,"X_COORD":-82.63901,"LOCATION":"Harbor Beach","YEAR_DISC":0,"ID":"rg-37","Y_COORD":43.84314,"id":"afaouj5f67xg","YEAR_MONT":null,"COUNTY":"HURON","FIPS":26063},"type":"Feature","geometry":{"type":"Point","coordinates":[-82.6390237925517,43.841201750523]}},{"properties":{"WATERSHED":"Lake Michigan","HUC":4060200,"ST":"MI","residual_x":67794.4428605712,"residual_y":-1.87812755447665,"X_COORD":-85.86482,"LOCATION":"Seul Choix Bay","YEAR_DISC":1998,"ID":"rg-38","Y_COORD":45.96799,"id":"afaouj6q4jwi","YEAR_MONT":null,"COUNTY":"MACKINAC","FIPS":26097},"type":"Feature","geometry":{"type":"Point","coordinates":[-85.8648282366168,45.9660256413946]}},{"properties":{"WATERSHED":"Cheboygan River","HUC":4070004,"ST":"MI","residual_x":-11027.9273197926,"residual_y":0.3055096154513,"X_COORD":-83.40958,"LOCATION":"Cheboygan River at Mouth","YEAR_DISC":2002,"ID":"rg-39","Y_COORD":45.06883,"id":"afaouiyoexus","YEAR_MONT":null,"COUNTY":"CHEBOYGAN","FIPS":26031},"type":"Feature","geometry":{"type":"Point","coordinates":[-83.4096003302842,45.066878915701]}},{"properties":{"WATERSHED":"Cheboygan River","HUC":4070004,"ST":"MI","residual_x":-11055.3609072776,"residual_y":0.306269615451299,"X_COORD":-83.40882,"LOCATION":"Cheboygan River at Mouth","YEAR_DISC":2002,"ID":"rg-40","Y_COORD":45.0686,"id":"afaouixunaji","YEAR_MONT":null,"COUNTY":"CHEBOYGAN","FIPS":26031},"type":"Feature","geometry":{"type":"Point","coordinates":[-83.4088373937209,45.0666462218503]}},{"properties":{"WATERSHED":"Cheboygan River","HUC":4070004,"ST":"MI","residual_x":-11059.3315580981,"residual_y":0.306379615451306,"X_COORD":-83.40871,"LOCATION":"Cheboygan River at Mouth","YEAR_DISC":2002,"ID":"rg-41","Y_COORD":45.06441,"id":"afaouj1dm0n4","YEAR_MONT":null,"COUNTY":"CHEBOYGAN","FIPS":26031},"type":"Feature","geometry":{"type":"Point","coordinates":[-83.4087229432044,45.062461530692]}},{"properties":{"WATERSHED":"Cheboygan River","HUC":4070004,"ST":"MI","residual_x":-11062.5802724054,"residual_y":0.306469615451306,"X_COORD":-83.40862,"LOCATION":"Cheboygan River at Mouth","YEAR_DISC":2002,"ID":"rg-42","Y_COORD":45.06557,"id":"afaouiyq2f1g","YEAR_MONT":null,"COUNTY":"CHEBOYGAN","FIPS":26031},"type":"Feature","geometry":{"type":"Point","coordinates":[-83.4086313936874,45.0636211900106]}},{"properties":{"WATERSHED":"Cheboygan River","HUC":4070004,"ST":"MI","residual_x":-11060.4144628672,"residual_y":0.306409615451301,"X_COORD":-83.40868,"LOCATION":"Cheboygan River at Mouth","YEAR_DISC":2002,"ID":"rg-43","Y_COORD":45.06658,"id":"afaouj6yjeto","YEAR_MONT":null,"COUNTY":"CHEBOYGAN","FIPS":26031},"type":"Feature","geometry":{"type":"Point","coordinates":[-83.408700060353,45.0646244477306]}},{"properties":{"WATERSHED":"Cheboygan River","HUC":4070004,"ST":"MI","residual_x":-11071.9654470715,"residual_y":0.306729615451303,"X_COORD":-83.40836,"LOCATION":"Cheboygan River at Mouth","YEAR_DISC":2002,"ID":"rg-44","Y_COORD":45.06804,"id":"afaouiwzuxpb","YEAR_MONT":null,"COUNTY":"CHEBOYGAN","FIPS":26031},"type":"Feature","geometry":{"type":"Point","coordinates":[-83.4083796307738,45.0660892808094]}},{"properties":{"WATERSHED":"Cheboygan River","HUC":4070004,"ST":"MI","residual_x":-11059.3315580981,"residual_y":0.306379615451306,"X_COORD":-83.40871,"LOCATION":"Cheboygan River at Mouth","YEAR_DISC":2002,"ID":"rg-45","Y_COORD":45.06599,"id":"afaouj1twc6w","YEAR_MONT":null,"COUNTY":"CHEBOYGAN","FIPS":26031},"type":"Feature","geometry":{"type":"Point","coordinates":[-83.4087305763729,45.0640369887514]}},{"properties":{"WATERSHED":"Cheboygan River","HUC":4070004,"ST":"MI","residual_x":-11060.4144628672,"residual_y":0.306409615451301,"X_COORD":-83.40868,"LOCATION":"Cheboygan River at Mouth","YEAR_DISC":2002,"ID":"rg-46","Y_COORD":45.06491,"id":"afaouj7iqozh","YEAR_MONT":null,"COUNTY":"CHEBOYGAN","FIPS":26031},"type":"Feature","geometry":{"type":"Point","coordinates":[-83.4086924269723,45.0629612522951]}},{"properties":{"WATERSHED":"Cheboygan River","HUC":4070004,"ST":"MI","residual_x":-11058.248653329,"residual_y":0.30634961545131,"X_COORD":-83.40874,"LOCATION":"Cheboygan River at Mouth","YEAR_DISC":2002,"ID":"rg-47","Y_COORD":45.06695,"id":"afaouiys4vgt","YEAR_MONT":null,"COUNTY":"CHEBOYGAN","FIPS":26031},"type":"Feature","geometry":{"type":"Point","coordinates":[-83.4087534667676,45.0649944705062]}},{"properties":{"WATERSHED":"Lake Huron","HUC":4040800,"ST":"MI","residual_x":-36097.3969111731,"residual_y":1.00001582612289,"X_COORD":-83.52412,"LOCATION":"Presque Isle Harbor","YEAR_DISC":0,"ID":"rg-48","Y_COORD":44.25695,"id":"afaouj1cirza","YEAR_MONT":null,"COUNTY":"Iosco","FIPS":26069},"type":"Feature","geometry":{"type":"Point","coordinates":[-83.5241304020685,44.2550035314715]}},{"properties":{"WATERSHED":"Lake Huron","HUC":4040800,"ST":"MI","residual_x":-37535.8554128627,"residual_y":1.03986582612289,"X_COORD":-83.48427,"LOCATION":"Presque Isle Harbor","YEAR_DISC":0,"ID":"rg-49","Y_COORD":45.33416,"id":"afaouiucuas7","YEAR_MONT":null,"COUNTY":"PRESQUE ISLE","FIPS":26141},"type":"Feature","geometry":{"type":"Point","coordinates":[-83.4842847654086,45.332204346197]}},{"properties":{"WATERSHED":"Lake St. Clair","HUC":4090000,"ST":"MI","residual_x":-15208.8591958634,"residual_y":0.421335087695212,"X_COORD":-82.7398,"LOCATION":"Lake St. Clair","YEAR_DISC":1993,"ID":"rg-50","Y_COORD":42.44136,"id":"afaouj261dd2","YEAR_MONT":null,"COUNTY":"Lake St. Clair","FIPS":99994},"type":"Feature","geometry":{"type":"Point","coordinates":[-82.7398139029679,42.4394385407183]}},{"properties":{"WATERSHED":"Lake Huron","HUC":4040800,"ST":"MI","residual_x":-9084.33744469518,"residual_y":0.251665826122888,"X_COORD":-84.27247,"LOCATION":"Port Dolomite","YEAR_DISC":2002,"ID":"rg-51","Y_COORD":45.98136,"id":"afaouj0nj9z0","YEAR_MONT":null,"COUNTY":"MACKINAC","FIPS":26097},"type":"Feature","geometry":{"type":"Point","coordinates":[-84.272488619564,45.9794001415924]}},{"properties":{"WATERSHED":"Lake St. Clair","HUC":4090000,"ST":"MI","residual_x":-10448.7707989314,"residual_y":0.28946508769522,"X_COORD":-82.87167,"LOCATION":"Grosse Pt. Shores","YEAR_DISC":2003,"ID":"rg-52","Y_COORD":-82.87167,"id":"afaouit13wjp","YEAR_MONT":null,"COUNTY":"WAYNE","FIPS":26163},"type":"Feature","geometry":{"type":"Point","coordinates":[-82.8716846283777,42.4346120870382]}},{"properties":{"WATERSHED":"Lake St. Clair","HUC":4090000,"ST":"MI","residual_x":-10390.6549096536,"residual_y":0.28785508769522,"X_COORD":-82.87328,"LOCATION":"Grosse Pt. Shores","YEAR_DISC":2003,"ID":"rg-53","Y_COORD":-82.87328,"id":"afaouit5e0y5","YEAR_MONT":null,"COUNTY":"WAYNE","FIPS":26163},"type":"Feature","geometry":{"type":"Point","coordinates":[-82.8732885019073,42.430344162787]}}],"is_temporal":false,"author":{"url":null,"metadata":null,"contact_name":null,"contact_address":null,"source":null,"contact_phone":null},"source":null,"pagination":{"sort":null,"start":0,"total":53,"limit":1000000},"state":"complete","tags":"","published":"2014-08-16T16:14:13-04:00","id":372167}