{"type":"FeatureCollection","data_type":"Dataset","url_type":null,"permissions":[{"permissions":{"download":true,"view":true},"group_id":"everyone"}],"classification":null,"title":"Total Clients 98-2010 North Shore","count":14,"stream_id":37962,"contributor":{"url":"http://geocommons.com/users/12488","name":"perrinc"},"data_attributes":null,"calculation_params":null,"icon_link":null,"link":"http://geocommons.com/overlays/37962.json","extent":[-123.253,49.2856,-122.952,49.3522],"geometry_types":["point"],"unique_name":null,"name":"Total Clients 98-2010 North Shore","feature_count":14,"description":"","next_feature":null,"is_raster":false,"short_classification":"Y","stats":{"latitude":{"max":49.352194,"mean":49.3303194857143,"variance":0.000297546100599794,"stdev":0.017249524648517,"min":49.2855668,"median":49.3352079},"total":{"max":16633,"mean":16633.0,"variance":0.0,"stdev":0.0,"min":16633,"median":16633},"region total":{"max":4257,"mean":1187.78571428571,"variance":1088414.33516484,"stdev":1043.27097878012,"min":258,"median":878},"longitude":{"max":-122.9521818,"mean":-123.091992964286,"variance":0.00572911837559636,"stdev":0.0756909398514536,"min":-123.2528051,"median":-123.081516},"percentage":{"max":25.59369927,"mean":7.14113938685714,"variance":39.3416959797328,"stdev":6.27229590977122,"min":1.551133289,"median":5.278662899}},"features":[{"properties":{"latitude":49.341683,"total":16633,"region total":858,"postal code":"V7K","percentage":5.158420008,"longitude":-123.0424732,"id":"a67v6pr727uo","school":"Arygle"},"type":"Feature","geometry":{"type":"Point","coordinates":[-123.0424732,49.341683]}},{"properties":{"latitude":49.3358287,"total":16633,"region total":1138,"postal code":"V7N","percentage":6.841820477,"longitude":-123.0719829,"id":"a67v6pnfwjmx","school":"CG2"},"type":"Feature","geometry":{"type":"Point","coordinates":[-123.0719829,49.3358287]}},{"properties":{"latitude":49.3239143,"total":16633,"region total":893,"postal code":"V7P","percentage":5.368845067,"longitude":-123.1097101,"id":"a67v6pw1nkjv","school":"CG3"},"type":"Feature","geometry":{"type":"Point","coordinates":[-123.1097101,49.3239143]}},{"properties":{"latitude":49.3288278,"total":16633,"region total":2005,"postal code":"V7M","percentage":12.05434979,"longitude":-123.081516,"id":"a67v6pkpec9h","school":"Carson Graham"},"type":"Feature","geometry":{"type":"Point","coordinates":[-123.081516,49.3288278]}},{"properties":{"latitude":49.352194,"total":16633,"region total":824,"postal code":"V7R","percentage":4.954007094,"longitude":-123.100369,"id":"a67v6pmm9tbb","school":"Handsworth"},"type":"Feature","geometry":{"type":"Point","coordinates":[-123.100369,49.352194]}},{"properties":{"latitude":49.2855668,"total":16633,"region total":4257,"postal code":"ROP","percentage":25.59369927,"longitude":-123.1173958,"id":"a67v6pswlpcx","school":"Outside NS"},"type":"Feature","geometry":{"type":"Point","coordinates":[-123.1173958,49.2855668]}},{"properties":{"latitude":49.350513,"total":16633,"region total":258,"postal code":"V7W","percentage":1.551133289,"longitude":-123.2528051,"id":"a67v6pqllz06","school":"Rockridge"},"type":"Feature","geometry":{"type":"Point","coordinates":[-123.2528051,49.350513]}},{"properties":{"latitude":49.3465081,"total":16633,"region total":467,"postal code":"V7S","percentage":2.807671496,"longitude":-123.150428,"id":"a67v6ppjm8ee","school":"Sentinel"},"type":"Feature","geometry":{"type":"Point","coordinates":[-123.150428,49.3465081]}},{"properties":{"latitude":49.3178099,"total":16633,"region total":827,"postal code":"V7G","percentage":4.972043528,"longitude":-122.9521818,"id":"a67v6pvgn2di","school":"Seycove"},"type":"Feature","geometry":{"type":"Point","coordinates":[-122.9521818,49.3178099]}},{"properties":{"latitude":49.3352079,"total":16633,"region total":1118,"postal code":"V7J","percentage":6.721577587,"longitude":-123.0415547,"id":"a67v6pn18mmg","school":"Split"},"type":"Feature","geometry":{"type":"Point","coordinates":[-123.0415547,49.3352079]}},{"properties":{"latitude":49.3256438,"total":16633,"region total":2201,"postal code":"V7L","percentage":13.23273011,"longitude":-123.0546156,"id":"a67v6pn0q3jv","school":"Sutherland"},"type":"Feature","geometry":{"type":"Point","coordinates":[-123.0546156,49.3256438]}},{"properties":{"latitude":49.3381774,"total":16633,"region total":516,"postal code":"V7V","percentage":3.102266578,"longitude":-123.1615754,"id":"a67v6pnz7409","school":"West Van"},"type":"Feature","geometry":{"type":"Point","coordinates":[-123.1615754,49.3381774]}},{"properties":{"latitude":49.327913,"total":16633,"region total":389,"postal code":"V7T","percentage":2.338724223,"longitude":-123.1542194,"id":"a67v6pok9p87","school":"West Van2"},"type":"Feature","geometry":{"type":"Point","coordinates":[-123.1542194,49.327913]}},{"properties":{"latitude":49.3146851,"total":16633,"region total":878,"postal code":"V7H","percentage":5.278662899,"longitude":-122.9970745,"id":"a67v6px5cez0","school":"Windsor"},"type":"Feature","geometry":{"type":"Point","coordinates":[-122.9970745,49.3146851]}}],"is_temporal":false,"author":{"url":"","metadata":"","contact_name":"","contact_address":"","source":"","contact_phone":""},"source":"","pagination":{"sort":null,"start":0,"total":14,"limit":1000000},"state":"complete","tags":"erc,highschool,northvancouver,postalcode","published":"2014-08-10T18:45:20-04:00","id":37962}