{"type":"FeatureCollection","data_type":"Dataset","url_type":null,"permissions":[{"permissions":{"download":true,"view":true},"group_id":"everyone"}],"classification":null,"title":"\nsimonaghan's places\n","count":27,"stream_id":38359,"contributor":{"url":"http://geocommons.com/users/11444","name":"platial"},"data_attributes":null,"calculation_params":null,"icon_link":null,"link":"http://geocommons.com/overlays/38359.json","extent":[-0.26266,51.4831,-0.08128,51.5276],"geometry_types":["point"],"unique_name":null,"name":"\nsimonaghan's places\n","feature_count":27,"description":"\nA Map by Simonaghan\n\n\n","next_feature":null,"is_raster":false,"short_classification":"Y","stats":{},"features":[{"properties":{"name":"Arbutus","description":"Posted by Simonaghan<a title=\"Built for Community Mapping\" href=\"http://www.platial.com\"><img src=\"http://media.geocommons.com/platial/images/logotype_small.jpg\"></a>","id":"a6g3arto3hh3"},"type":"Feature","geometry":{"type":"Point","coordinates":[-0.13214,51.51408]}},{"properties":{"name":"Baker and Spice","description":"Posted by Simonaghan<a title=\"Built for Community Mapping\" href=\"http://www.platial.com\"><img src=\"http://media.geocommons.com/platial/images/logotype_small.jpg\"></a>","id":"a6g3arugv33h"},"type":"Feature","geometry":{"type":"Point","coordinates":[-0.16505,51.49314]}},{"properties":{"name":"Bentley's Oyster Bar","description":"Posted by Simonaghan<a title=\"Built for Community Mapping\" href=\"http://www.platial.com\"><img src=\"http://media.geocommons.com/platial/images/logotype_small.jpg\"></a>","id":"a6g3aribw9se"},"type":"Feature","geometry":{"type":"Point","coordinates":[-0.13776,51.50944]}},{"properties":{"name":"Borough Market","description":"Posted by Simonaghan<a title=\"Built for Community Mapping\" href=\"http://www.platial.com\"><img src=\"http://media.geocommons.com/platial/images/logotype_small.jpg\"></a>","id":"a6g3ariz9fdv"},"type":"Feature","geometry":{"type":"Point","coordinates":[-0.09038,51.50519]}},{"properties":{"name":"Brompton Quarter Cafe","description":"Posted by Simonaghan<img src=\"http://media.geocommons.com/platial/images/categories/ICON_coffee_verD.gif\"> <a title=\"Built for Community Mapping\" href=\"http://www.platial.com\"><img src=\"http://media.geocommons.com/platial/images/logotype_small.jpg\"></a>","id":"a6g3aruyl4ck"},"type":"Feature","geometry":{"type":"Point","coordinates":[-0.16179,51.50049]}},{"properties":{"name":"Busabai Eathai","description":"Posted by Simonaghan<a title=\"Built for Community Mapping\" href=\"http://www.platial.com\"><img src=\"http://media.geocommons.com/platial/images/logotype_small.jpg\"></a>","id":"a6g3arfd4v88"},"type":"Feature","geometry":{"type":"Point","coordinates":[-0.1339,51.51355]}},{"properties":{"name":"Chelsea Bun","description":"Posted by Simonaghan<a title=\"Built for Community Mapping\" href=\"http://www.platial.com\"><img src=\"http://media.geocommons.com/platial/images/logotype_small.jpg\"></a>","id":"a6g3art6gvdu"},"type":"Feature","geometry":{"type":"Point","coordinates":[-0.17776,51.48309]}},{"properties":{"name":"E &amp; O","description":"Posted by Simonaghan<a title=\"Built for Community Mapping\" href=\"http://www.platial.com\"><img src=\"http://media.geocommons.com/platial/images/logotype_small.jpg\"></a>","id":"a6g3arkdgs59"},"type":"Feature","geometry":{"type":"Point","coordinates":[-0.20586,51.51577]}},{"properties":{"name":"Flaneur","description":"Posted by Simonaghan<a title=\"Built for Community Mapping\" href=\"http://www.platial.com\"><img src=\"http://media.geocommons.com/platial/images/logotype_small.jpg\"></a>","id":"a6g3ark0lsob"},"type":"Feature","geometry":{"type":"Point","coordinates":[-0.10634,51.5206]}},{"properties":{"name":"L'Atelier de Joel Robuchon","description":"Posted by Simonaghan<a title=\"Built for Community Mapping\" href=\"http://www.platial.com\"><img src=\"http://media.geocommons.com/platial/images/logotype_small.jpg\"></a>","id":"a6g3arg0w7xv"},"type":"Feature","geometry":{"type":"Point","coordinates":[-0.12827,51.51318]}},{"properties":{"name":"La Fromagerie","description":"Posted by Simonaghan<a title=\"Built for Community Mapping\" href=\"http://www.platial.com\"><img src=\"http://media.geocommons.com/platial/images/logotype_small.jpg\"></a>","id":"a6g3arq8o7ex"},"type":"Feature","geometry":{"type":"Point","coordinates":[-0.15248,51.51991]}},{"properties":{"name":"Macondo","description":"Posted by Simonaghan<a title=\"Built for Community Mapping\" href=\"http://www.platial.com\"><img src=\"http://media.geocommons.com/platial/images/logotype_small.jpg\"></a>","id":"a6g3argyv76z"},"type":"Feature","geometry":{"type":"Point","coordinates":[-0.08128,51.5276]}},{"properties":{"name":"Negozio Classico","description":"Posted by Simonaghan<a title=\"Built for Community Mapping\" href=\"http://www.platial.com\"><img src=\"http://media.geocommons.com/platial/images/logotype_small.jpg\"></a>","id":"a6g3arhsyqfa"},"type":"Feature","geometry":{"type":"Point","coordinates":[-0.19183,51.51554]}},{"properties":{"name":"Ottolenghi","description":"Posted by Simonaghan<a title=\"Built for Community Mapping\" href=\"http://www.platial.com\"><img src=\"http://media.geocommons.com/platial/images/logotype_small.jpg\"></a>","id":"a6g3arl55s3g"},"type":"Feature","geometry":{"type":"Point","coordinates":[-0.1996,51.51467]}},{"properties":{"name":"Priory House","description":"Posted by Simonaghan<a title=\"Built for Community Mapping\" href=\"http://www.platial.com\"><img src=\"http://media.geocommons.com/platial/images/logotype_small.jpg\"></a>","id":"a6g3ariz7lmx"},"type":"Feature","geometry":{"type":"Point","coordinates":[-0.21629,51.49998]}},{"properties":{"name":"Randall and Aubin (Soho)","description":"Posted by Simonaghan<a title=\"Built for Community Mapping\" href=\"http://www.platial.com\"><img src=\"http://media.geocommons.com/platial/images/logotype_small.jpg\"></a>","id":"a6g3arh25x7j"},"type":"Feature","geometry":{"type":"Point","coordinates":[-0.13411,51.51232]}},{"properties":{"name":"Ronnie Scotts","description":"Posted by Simonaghan<a title=\"Built for Community Mapping\" href=\"http://www.platial.com\"><img src=\"http://media.geocommons.com/platial/images/logotype_small.jpg\"></a>","id":"a6g3arlwp2os"},"type":"Feature","geometry":{"type":"Point","coordinates":[-0.13179,51.51344]}},{"properties":{"name":"Sam's Brasserie and Bar","description":"Posted by Simonaghan<a title=\"Built for Community Mapping\" href=\"http://www.platial.com\"><img src=\"http://media.geocommons.com/platial/images/logotype_small.jpg\"></a>","id":"a6g3arr0wkvv"},"type":"Feature","geometry":{"type":"Point","coordinates":[-0.26266,51.49164]}},{"properties":{"name":"Sanderson Hotel Long Bar","description":"Posted by Simonaghan<img src=\"http://media.geocommons.com/platial/images/categories/ICON_lodging_verD.gif\"> <a title=\"Built for Community Mapping\" href=\"http://www.platial.com\"><img src=\"http://media.geocommons.com/platial/images/logotype_small.jpg\"></a>","id":"a6g3arpw7xud"},"type":"Feature","geometry":{"type":"Point","coordinates":[-0.1366,51.51722]}},{"properties":{"name":"Tate Modern Restaurant","description":"Posted by Simonaghan<img src=\"http://media.geocommons.com/platial/images/categories/ICON_food_verD.gif\"> <a title=\"Built for Community Mapping\" href=\"http://www.platial.com\"><img src=\"http://media.geocommons.com/platial/images/logotype_small.jpg\"></a>","id":"a6g3arnhkiq0"},"type":"Feature","geometry":{"type":"Point","coordinates":[-0.09815,51.50807]}},{"properties":{"name":"The Lanesborough","description":"Posted by Simonaghan<a title=\"Built for Community Mapping\" href=\"http://www.platial.com\"><img src=\"http://media.geocommons.com/platial/images/logotype_small.jpg\"></a>","id":"a6g3arnbslv2"},"type":"Feature","geometry":{"type":"Point","coordinates":[-0.15261,51.50247]}},{"properties":{"name":"The Providores Tapa Room","description":"Posted by Simonaghan<a title=\"Built for Community Mapping\" href=\"http://www.platial.com\"><img src=\"http://media.geocommons.com/platial/images/logotype_small.jpg\"></a>","id":"a6g3arn0au65"},"type":"Feature","geometry":{"type":"Point","coordinates":[-0.1519,51.51936]}},{"properties":{"name":"The Wallace Restaurant","description":"Posted by Simonaghan<img src=\"http://media.geocommons.com/platial/images/categories/ICON_food_verD.gif\"> <a title=\"Built for Community Mapping\" href=\"http://www.platial.com\"><img src=\"http://media.geocommons.com/platial/images/logotype_small.jpg\"></a>","id":"a6g3arhoygzx"},"type":"Feature","geometry":{"type":"Point","coordinates":[-0.1531,51.51756]}},{"properties":{"name":"Volupte","description":"Posted by Simonaghan<a title=\"Built for Community Mapping\" href=\"http://www.platial.com\"><img src=\"http://media.geocommons.com/platial/images/logotype_small.jpg\"></a>","id":"a6g3arfyg5rw"},"type":"Feature","geometry":{"type":"Point","coordinates":[-0.10984,51.51692]}},{"properties":{"name":"Wright Brothers Oyster &amp; Porter House","description":"Posted by Simonaghan<a title=\"Built for Community Mapping\" href=\"http://www.platial.com\"><img src=\"http://media.geocommons.com/platial/images/logotype_small.jpg\"></a>","id":"a6g3aru7sp7g"},"type":"Feature","geometry":{"type":"Point","coordinates":[-0.09124,51.50511]}},{"properties":{"name":"Yan Baru","description":"Posted by Simonaghan<a title=\"Built for Community Mapping\" href=\"http://www.platial.com\"><img src=\"http://media.geocommons.com/platial/images/logotype_small.jpg\"></a>","id":"a6g3arlnfyxc"},"type":"Feature","geometry":{"type":"Point","coordinates":[-0.16469,51.52003]}},{"properties":{"name":"zetter","description":"Posted by Simonaghan<a title=\"Built for Community Mapping\" href=\"http://www.platial.com\"><img src=\"http://media.geocommons.com/platial/images/logotype_small.jpg\"></a>","id":"a6g3arqdtjss"},"type":"Feature","geometry":{"type":"Point","coordinates":[-0.0939,51.5253]}}],"is_temporal":false,"author":{"url":"http://www.platial.com/map/237013","metadata":null,"contact_name":"simonaghan","contact_address":null,"source":"platial:simonaghan","contact_phone":null},"source":"http://www.platial.com/map/237013","pagination":{"sort":null,"start":0,"total":27,"limit":1000000},"state":"complete","tags":"platial,platial:id=237013,platial:user=simonaghan","published":"2010-04-23T16:00:00Z","id":38359}