{"type":"FeatureCollection","data_type":"Dataset","url_type":null,"permissions":[{"permissions":{"download":true,"view":true},"group_id":"everyone"}],"classification":null,"title":"\neidnarb's places\n","count":26,"stream_id":38439,"contributor":{"url":"http://geocommons.com/users/11444","name":"platial"},"data_attributes":null,"calculation_params":null,"icon_link":null,"link":"http://geocommons.com/overlays/38439.json","extent":[-84.5937,26.0714,-80.1014,39.9612],"geometry_types":["point"],"unique_name":null,"name":"\neidnarb's places\n","feature_count":26,"description":"\nA Map by Eidnarb\n\n\n","next_feature":null,"is_raster":false,"short_classification":"Y","stats":{},"features":[{"properties":{"name":"A Stitch Above","description":"Posted by Eidnarb7754 Camargo Rd, Cincinnati, OH 45243 <a title=\"Built for Community Mapping\" href=\"http://www.platial.com\"><img src=\"http://media.geocommons.com/platial/images/logotype_small.jpg\"></a>","id":"a65rat2l4m8q"},"type":"Feature","geometry":{"type":"Point","coordinates":[-84.361202,39.187541]}},{"properties":{"name":"Armleder Park","description":"Posted by Eidnarb<img src=\"http://media.geocommons.com/platial/images/categories/ICON_recreation_verD.gif\"> <img src=\"http://media.geocommons.com/platial/images/categories/ICON_nature_verD.gif\"> Wooster Pike Cincinnati OHnew for 2006<a title=\"Built for Community Mapping\" href=\"http://www.platial.com\"><img src=\"http://media.geocommons.com/platial/images/logotype_small.jpg\"></a>","id":"a65rasrk5ltf"},"type":"Feature","geometry":{"type":"Point","coordinates":[-84.404912,39.120372]}},{"properties":{"name":"Bahia Cabana Bar","description":"Posted by Eidnarb3001 Harbor Drive FORT LAUDERDALE<a title=\"Built for Community Mapping\" href=\"http://www.platial.com\"><img src=\"http://media.geocommons.com/platial/images/logotype_small.jpg\"></a>","id":"a65rat3czws2"},"type":"Feature","geometry":{"type":"Point","coordinates":[-80.106203,26.110036]}},{"properties":{"name":"Beach Hostel","description":"Posted by Eidnarb<img src=\"http://media.geocommons.com/platial/images/categories/ICON_recreation_verD.gif\"> <img src=\"http://media.geocommons.com/platial/images/categories/ICON_nature_verD.gif\"> 2115 North Ocean Blvd fort lauderdale<a title=\"Built for Community Mapping\" href=\"http://www.platial.com\"><img src=\"http://media.geocommons.com/platial/images/logotype_small.jpg\"></a>","id":"a65rasya4gqh"},"type":"Feature","geometry":{"type":"Point","coordinates":[-80.101391,26.155617]}},{"properties":{"name":"CAPA","description":"Posted by Eidnarb55 east state st, columbus ohTQMW location<a title=\"Built for Community Mapping\" href=\"http://www.platial.com\"><img src=\"http://media.geocommons.com/platial/images/logotype_small.jpg\"></a>","id":"a65rat1z8x8w"},"type":"Feature","geometry":{"type":"Point","coordinates":[-82.998463,39.960261]}},{"properties":{"name":"FLL","description":"Posted by Eidnarbfort lauderdale<a title=\"Built for Community Mapping\" href=\"http://www.platial.com\"><img src=\"http://media.geocommons.com/platial/images/logotype_small.jpg\"></a>","id":"a65rat2bizn2"},"type":"Feature","geometry":{"type":"Point","coordinates":[-80.145178,26.071432]}},{"properties":{"name":"Fiber Naturell","description":"Posted by Eidnarb9424 Shelly Lane, Cincinnati, OH 45242 <a title=\"Built for Community Mapping\" href=\"http://www.platial.com\"><img src=\"http://media.geocommons.com/platial/images/logotype_small.jpg\"></a>","id":"a65rat07pq2x"},"type":"Feature","geometry":{"type":"Point","coordinates":[-84.355301,39.227366]}},{"properties":{"name":"Fort Ancient","description":"Posted by Eidnarb6123 St Rt. 350  Oregonia, Ohio 45054 <a title=\"Built for Community Mapping\" href=\"http://www.platial.com\"><img src=\"http://media.geocommons.com/platial/images/logotype_small.jpg\"></a>","id":"a65rastnihdq"},"type":"Feature","geometry":{"type":"Point","coordinates":[-84.088969,39.40808]}},{"properties":{"name":"Fort Thomas Dog Park","description":"Posted by Eidnarb<img src=\"http://www.ftthomas.org/Recreation/graphics/dogparkbro.gif\"><img src=\"http://media.geocommons.com/platial/images/categories/ICON_recreation_verD.gif\"> <img src=\"http://media.geocommons.com/platial/images/categories/ICON_nature_verD.gif\"> \"ft thomas ky\"@ Highland Hills Park<a title=\"Built for Community Mapping\" href=\"http://www.platial.com\"><img src=\"http://media.geocommons.com/platial/images/logotype_small.jpg\"></a>","id":"a65rasvc4294"},"type":"Feature","geometry":{"type":"Point","coordinates":[-84.456646,39.082306]}},{"properties":{"name":"Kellogg Dog Field","description":"Posted by Eidnarb<img src=\"http://www.andersonparks.com/dogparklogo2.gif\"><img src=\"http://media.geocommons.com/platial/images/categories/ICON_recreation_verD.gif\"> <img src=\"http://media.geocommons.com/platial/images/categories/ICON_nature_verD.gif\">  6701 Kellogg cincinnati oh<a title=\"Built for Community Mapping\" href=\"http://www.platial.com\"><img src=\"http://media.geocommons.com/platial/images/logotype_small.jpg\"></a>","id":"a65rasym4or0"},"type":"Feature","geometry":{"type":"Point","coordinates":[-84.398878,39.050621]}},{"properties":{"name":"Kenton Paw Park","description":"Posted by Eidnarb<img src=\"http://www.kentonpawpark.com/fkpplogo.JPG\"><img src=\"http://media.geocommons.com/platial/images/categories/ICON_recreation_verD.gif\"> <img src=\"http://media.geocommons.com/platial/images/categories/ICON_nature_verD.gif\"> 3950 Madison Pike Covington, KY<a title=\"Built for Community Mapping\" href=\"http://www.platial.com\"><img src=\"http://media.geocommons.com/platial/images/logotype_small.jpg\"></a>","id":"a65rasvunmpv"},"type":"Feature","geometry":{"type":"Point","coordinates":[-84.536134,39.00406]}},{"properties":{"name":"Knit Happens","description":"Posted by Eidnarb3215 Madison Rd Cincinnati OH<a title=\"Built for Community Mapping\" href=\"http://www.platial.com\"><img src=\"http://media.geocommons.com/platial/images/logotype_small.jpg\"></a>","id":"a65rasucr2bb"},"type":"Feature","geometry":{"type":"Point","coordinates":[-84.427429,39.154599]}},{"properties":{"name":"Kuliga Dog Training Club","description":"Posted by Eidnarb898 Kieley Place, Cincinnati OH 45217<a title=\"Built for Community Mapping\" href=\"http://www.platial.com\"><img src=\"http://media.geocommons.com/platial/images/logotype_small.jpg\"></a>","id":"a65raswhspzv"},"type":"Feature","geometry":{"type":"Point","coordinates":[-84.487723,39.171826]}},{"properties":{"name":"Mt. Airy Dog Park","description":"Posted by Eidnarb<img src=\"http://media.geocommons.com/platial/images/categories/ICON_recreation_verD.gif\"> <img src=\"http://media.geocommons.com/platial/images/categories/ICON_nature_verD.gif\"> Westwood Northern Blvd cincinnati oh<a title=\"Built for Community Mapping\" href=\"http://www.platial.com\"><img src=\"http://media.geocommons.com/platial/images/logotype_small.jpg\"></a>","id":"a65rasw30q9g"},"type":"Feature","geometry":{"type":"Point","coordinates":[-84.59373,39.1557]}},{"properties":{"name":"One More Stitch","description":"Posted by Eidnarb2030 Madison Rd cincinnati OH<a title=\"Built for Community Mapping\" href=\"http://www.platial.com\"><img src=\"http://media.geocommons.com/platial/images/logotype_small.jpg\"></a>","id":"a65rasrw9c34"},"type":"Feature","geometry":{"type":"Point","coordinates":[-84.461789,39.132383]}},{"properties":{"name":"Ron Jon Surf Shop","description":"Posted by Eidnarb<img src=\"http://media.geocommons.com/platial/images/categories/ICON_shopping_verD.gif\"> 2610 Sawgrass Mills Cir STE 1415 SUNRISE FL<a title=\"Built for Community Mapping\" href=\"http://www.platial.com\"><img src=\"http://media.geocommons.com/platial/images/logotype_small.jpg\"></a>","id":"a65rat12tm4a"},"type":"Feature","geometry":{"type":"Point","coordinates":[-80.316888,26.156224]}},{"properties":{"name":"Serpent Mound","description":"Posted by Eidnarb3850 State Route 73, Peebles OH 45660<a title=\"Built for Community Mapping\" href=\"http://www.platial.com\"><img src=\"http://media.geocommons.com/platial/images/logotype_small.jpg\"></a>","id":"a65rasswepcq"},"type":"Feature","geometry":{"type":"Point","coordinates":[-83.430853,39.019201]}},{"properties":{"name":"Sheraton Yankee Clipper Hotel","description":"Posted by Eidnarb<img src=\"http://media.geocommons.com/platial/images/categories/ICON_lodging_verD.gif\"> 1140 Seabreeze Blvd FORT LAUDERDALE<a title=\"Built for Community Mapping\" href=\"http://www.platial.com\"><img src=\"http://media.geocommons.com/platial/images/logotype_small.jpg\"></a>","id":"a65raswqi5g8"},"type":"Feature","geometry":{"type":"Point","coordinates":[-80.106794,26.108621]}},{"properties":{"name":"Shooters Waterfront Cafe","description":"Posted by Eidnarb<img src=\"http://media.geocommons.com/platial/images/categories/ICON_coffee_verD.gif\"> 3033 NE 32nd Ave FT LAUDERDALE<a title=\"Built for Community Mapping\" href=\"http://www.platial.com\"><img src=\"http://media.geocommons.com/platial/images/logotype_small.jpg\"></a>","id":"a65rat6e67gu"},"type":"Feature","geometry":{"type":"Point","coordinates":[-80.103503,26.166365]}},{"properties":{"name":"Spirit of the Tribes","description":"Posted by Eidnarb800 NE 8TH. STREET - FT. LAUDERDALE, FLORIDA 33304 <a title=\"Built for Community Mapping\" href=\"http://www.platial.com\"><img src=\"http://media.geocommons.com/platial/images/logotype_small.jpg\"></a>","id":"a65rat2nf5yd"},"type":"Feature","geometry":{"type":"Point","coordinates":[-80.13475,26.13341]}},{"properties":{"name":"Swap Shop Flea Market","description":"Posted by Eidnarb<img src=\"http://media.geocommons.com/platial/images/categories/ICON_shopping_verD.gif\"> 3291 W Sunrise Blvd Fort Lauderdale FL<a title=\"Built for Community Mapping\" href=\"http://www.platial.com\"><img src=\"http://media.geocommons.com/platial/images/logotype_small.jpg\"></a>","id":"a65rasrvpmrs"},"type":"Feature","geometry":{"type":"Point","coordinates":[-80.190478,26.136418]}},{"properties":{"name":"Symmes Park","description":"Posted by Eidnarb<img src=\"http://media.geocommons.com/platial/images/categories/ICON_recreation_verD.gif\"> <img src=\"http://media.geocommons.com/platial/images/categories/ICON_nature_verD.gif\"> 11600 Lebanon Road cincinnati oh<a title=\"Built for Community Mapping\" href=\"http://www.platial.com\"><img src=\"http://media.geocommons.com/platial/images/logotype_small.jpg\"></a>","id":"a65rasyvlv9d"},"type":"Feature","geometry":{"type":"Point","coordinates":[-84.401683,39.282901]}},{"properties":{"name":"TQNW","description":"Posted by Eidnarb175 east state st, columbus ohTQNW LOCATION<a title=\"Built for Community Mapping\" href=\"http://www.platial.com\"><img src=\"http://media.geocommons.com/platial/images/logotype_small.jpg\"></a>","id":"a65rat0rrn6l"},"type":"Feature","geometry":{"type":"Point","coordinates":[-82.995423,39.960731]}},{"properties":{"name":"WYCA","description":"Posted by Eidnarb65 SOUTH FOURTH ST, COLUMBUS OHTQMW LOCATION<a title=\"Built for Community Mapping\" href=\"http://www.platial.com\"><img src=\"http://media.geocommons.com/platial/images/logotype_small.jpg\"></a>","id":"a65rat2t7jeb"},"type":"Feature","geometry":{"type":"Point","coordinates":[-82.995997,39.961229]}},{"properties":{"name":"Water Taxi","description":"Posted by Eidnarb1850 SE 17th Street FORT LAUDERDALE<a title=\"Built for Community Mapping\" href=\"http://www.platial.com\"><img src=\"http://media.geocommons.com/platial/images/logotype_small.jpg\"></a>","id":"a65rat0mloco"},"type":"Feature","geometry":{"type":"Point","coordinates":[-80.122342,26.100193]}},{"properties":{"name":"Wiggly Field","description":"Posted by Eidnarb<img src=\"http://media.geocommons.com/platial/images/categories/ICON_recreation_verD.gif\"> <img src=\"http://media.geocommons.com/platial/images/categories/ICON_nature_verD.gif\">  8070 Tylersville Road West Chester OH<a title=\"Built for Community Mapping\" href=\"http://www.platial.com\"><img src=\"http://media.geocommons.com/platial/images/logotype_small.jpg\"></a>","id":"a65rass1ciyt"},"type":"Feature","geometry":{"type":"Point","coordinates":[-84.357683,39.352558]}}],"is_temporal":false,"author":{"url":"http://www.platial.com/map/222360","metadata":null,"contact_name":"eidnarb","contact_address":null,"source":"platial:eidnarb","contact_phone":null},"source":"http://www.platial.com/map/222360","pagination":{"sort":null,"start":0,"total":26,"limit":1000000},"state":"complete","tags":"platial,platial:id=222360,platial:user=eidnarb","published":"2010-04-23T16:00:00Z","id":38439}