{"type":"FeatureCollection","data_type":"Dataset","url_type":null,"permissions":[{"permissions":{"download":true,"view":true},"group_id":"everyone"}],"classification":null,"title":"\nPlaces We've Been\n","count":23,"stream_id":39062,"contributor":{"url":"http://geocommons.com/users/11444","name":"platial"},"data_attributes":null,"calculation_params":null,"icon_link":null,"link":"http://geocommons.com/overlays/39062.json","extent":[-122.418,16.789,17.5774,57.296],"geometry_types":["point"],"unique_name":null,"name":"\nPlaces We've Been\n","feature_count":23,"description":"\nA Map by Katknit\n\n\n","next_feature":null,"is_raster":false,"short_classification":"Y","stats":{},"features":[{"properties":{"name":"Acapulco Princess, Mexico","description":"Posted by <a title=\"http://danceswithwools.wordpress.com\" href=\"http://danceswithwools.wordpress.com\">Katknit</a><a title=\"Built for Community Mapping\" href=\"http://www.platial.com\"><img src=\"http://media.geocommons.com/platial/images/logotype_small.jpg\"></a>","id":"a6x3692yed2p"},"type":"Feature","geometry":{"type":"Point","coordinates":[-99.8145568371,16.7890111756]}},{"properties":{"name":"Amalfi","description":"Posted by <a title=\"http://danceswithwools.wordpress.com\" href=\"http://danceswithwools.wordpress.com\">Katknit</a>Amalfi<a title=\"Built for Community Mapping\" href=\"http://www.platial.com\"><img src=\"http://media.geocommons.com/platial/images/logotype_small.jpg\"></a>","id":"a6x368s6ptog"},"type":"Feature","geometry":{"type":"Point","coordinates":[14.602571,40.634362]}},{"properties":{"name":"Charleston","description":"Posted by <a title=\"http://danceswithwools.wordpress.com\" href=\"http://danceswithwools.wordpress.com\">Katknit</a><a title=\"Built for Community Mapping\" href=\"http://www.platial.com\"><img src=\"http://media.geocommons.com/platial/images/logotype_small.jpg\"></a>","id":"a6x368uwzkp5"},"type":"Feature","geometry":{"type":"Point","coordinates":[-79.9145507812,32.7688004849]}},{"properties":{"name":"Colisseum","description":"Posted by <a title=\"http://danceswithwools.wordpress.com\" href=\"http://danceswithwools.wordpress.com\">Katknit</a>Rome<a title=\"Built for Community Mapping\" href=\"http://www.platial.com\"><img src=\"http://media.geocommons.com/platial/images/logotype_small.jpg\"></a>","id":"a6x368py3yp4"},"type":"Feature","geometry":{"type":"Point","coordinates":[12.482323,41.895466]}},{"properties":{"name":"Duck, Outer Banks, NC","description":"Posted by <a title=\"http://danceswithwools.wordpress.com\" href=\"http://danceswithwools.wordpress.com\">Katknit</a>duck nc<a title=\"Built for Community Mapping\" href=\"http://www.platial.com\"><img src=\"http://media.geocommons.com/platial/images/logotype_small.jpg\"></a>","id":"a6x36919i8jl"},"type":"Feature","geometry":{"type":"Point","coordinates":[-75.725373,36.100694]}},{"properties":{"name":"Edinburgh","description":"Posted by <a title=\"http://danceswithwools.wordpress.com\" href=\"http://danceswithwools.wordpress.com\">Katknit</a>Edinburgh<a title=\"Built for Community Mapping\" href=\"http://www.platial.com\"><img src=\"http://media.geocommons.com/platial/images/logotype_small.jpg\"></a>","id":"a6x368zydfme"},"type":"Feature","geometry":{"type":"Point","coordinates":[-3.18753,55.950152]}},{"properties":{"name":"Eiffel Tower","description":"Posted by <a title=\"http://danceswithwools.wordpress.com\" href=\"http://danceswithwools.wordpress.com\">Katknit</a><a title=\"Built for Community Mapping\" href=\"http://www.platial.com\"><img src=\"http://media.geocommons.com/platial/images/logotype_small.jpg\"></a>","id":"a6x3691aq18s"},"type":"Feature","geometry":{"type":"Point","coordinates":[2.29436159134,48.8582775896]}},{"properties":{"name":"Empire State Building (5th Ave &amp; 34th St.)","description":"Posted by <a title=\"http://danceswithwools.wordpress.com\" href=\"http://danceswithwools.wordpress.com\">Katknit</a><a title=\"Built for Community Mapping\" href=\"http://www.platial.com\"><img src=\"http://media.geocommons.com/platial/images/logotype_small.jpg\"></a>","id":"a6x3692rxu7d"},"type":"Feature","geometry":{"type":"Point","coordinates":[-73.985238,40.748232]}},{"properties":{"name":"Grand Canyon, USA","description":"Posted by <a title=\"http://danceswithwools.wordpress.com\" href=\"http://danceswithwools.wordpress.com\">Katknit</a>grand canyon<a title=\"Built for Community Mapping\" href=\"http://www.platial.com\"><img src=\"http://media.geocommons.com/platial/images/logotype_small.jpg\"></a>","id":"a6x368ytn5e0"},"type":"Feature","geometry":{"type":"Point","coordinates":[-111.939697,36.004673]}},{"properties":{"name":"Hamilton,   Bermuda","description":"Posted by <a title=\"http://danceswithwools.wordpress.com\" href=\"http://danceswithwools.wordpress.com\">Katknit</a>Bermuda<a title=\"Built for Community Mapping\" href=\"http://www.platial.com\"><img src=\"http://media.geocommons.com/platial/images/logotype_small.jpg\"></a>","id":"a6x3691x7v2b"},"type":"Feature","geometry":{"type":"Point","coordinates":[-64.75737,32.321384]}},{"properties":{"name":"Leaning Tower of Pisa","description":"Posted by <a title=\"http://danceswithwools.wordpress.com\" href=\"http://danceswithwools.wordpress.com\">Katknit</a>Pisa, Italy<a title=\"Built for Community Mapping\" href=\"http://www.platial.com\"><img src=\"http://media.geocommons.com/platial/images/logotype_small.jpg\"></a>","id":"a6x369336y24"},"type":"Feature","geometry":{"type":"Point","coordinates":[10.39525509,43.72316475]}},{"properties":{"name":"Loch Ness","description":"Posted by <a title=\"http://danceswithwools.wordpress.com\" href=\"http://danceswithwools.wordpress.com\">Katknit</a>Loch Ness<a title=\"Built for Community Mapping\" href=\"http://www.platial.com\"><img src=\"http://media.geocommons.com/platial/images/logotype_small.jpg\"></a>","id":"a6x368oehmoo"},"type":"Feature","geometry":{"type":"Point","coordinates":[-4.662,57.296002]}},{"properties":{"name":"London","description":"Posted by <a title=\"http://danceswithwools.wordpress.com\" href=\"http://danceswithwools.wordpress.com\">Katknit</a>London England<a title=\"Built for Community Mapping\" href=\"http://www.platial.com\"><img src=\"http://media.geocommons.com/platial/images/logotype_small.jpg\"></a>","id":"a6x368qr13p1"},"type":"Feature","geometry":{"type":"Point","coordinates":[-0.126197,51.500197]}},{"properties":{"name":"Miami Beach","description":"Posted by <a title=\"http://danceswithwools.wordpress.com\" href=\"http://danceswithwools.wordpress.com\">Katknit</a><img src=\"http://media.geocommons.com/platial/images/categories/ICON_recreation_verD.gif\"> <img src=\"http://media.geocommons.com/platial/images/categories/ICON_nature_verD.gif\"> Miami Beach, FL<a title=\"Built for Community Mapping\" href=\"http://www.platial.com\"><img src=\"http://media.geocommons.com/platial/images/logotype_small.jpg\"></a>","id":"a6x368q1sr8c"},"type":"Feature","geometry":{"type":"Point","coordinates":[-80.130278,25.790278]}},{"properties":{"name":"Milan","description":"Posted by <a title=\"http://danceswithwools.wordpress.com\" href=\"http://danceswithwools.wordpress.com\">Katknit</a>Milan<a title=\"Built for Community Mapping\" href=\"http://www.platial.com\"><img src=\"http://media.geocommons.com/platial/images/logotype_small.jpg\"></a>","id":"a6x368vxw76e"},"type":"Feature","geometry":{"type":"Point","coordinates":[9.188199,45.463668]}},{"properties":{"name":"Ostuni, Italy","description":"Posted by <a title=\"http://danceswithwools.wordpress.com\" href=\"http://danceswithwools.wordpress.com\">Katknit</a>Ostuni, Italy<a title=\"Built for Community Mapping\" href=\"http://www.platial.com\"><img src=\"http://media.geocommons.com/platial/images/logotype_small.jpg\"></a>","id":"a6x36913o148"},"type":"Feature","geometry":{"type":"Point","coordinates":[17.57737,40.728777]}},{"properties":{"name":"Piazza San Marco","description":"Posted by <a title=\"http://danceswithwools.wordpress.com\" href=\"http://danceswithwools.wordpress.com\">Katknit</a><a title=\"Built for Community Mapping\" href=\"http://www.platial.com\"><img src=\"http://media.geocommons.com/platial/images/logotype_small.jpg\"></a>","id":"a6x368rt2jju"},"type":"Feature","geometry":{"type":"Point","coordinates":[12.337614,45.434057]}},{"properties":{"name":"Rennes le Chateau","description":"Posted by <a title=\"http://danceswithwools.wordpress.com\" href=\"http://danceswithwools.wordpress.com\">Katknit</a>Rennes le Chateau<a title=\"Built for Community Mapping\" href=\"http://www.platial.com\"><img src=\"http://media.geocommons.com/platial/images/logotype_small.jpg\"></a>","id":"a6x368qylyni"},"type":"Feature","geometry":{"type":"Point","coordinates":[2.264399,42.92745]}},{"properties":{"name":"San Francisco","description":"Posted by <a title=\"http://danceswithwools.wordpress.com\" href=\"http://danceswithwools.wordpress.com\">Katknit</a>San Francisco<a title=\"Built for Community Mapping\" href=\"http://www.platial.com\"><img src=\"http://media.geocommons.com/platial/images/logotype_small.jpg\"></a>","id":"a6x368rtwi7q"},"type":"Feature","geometry":{"type":"Point","coordinates":[-122.418333,37.775]}},{"properties":{"name":"Savannah","description":"Posted by <a title=\"http://danceswithwools.wordpress.com\" href=\"http://danceswithwools.wordpress.com\">Katknit</a><a title=\"Built for Community Mapping\" href=\"http://www.platial.com\"><img src=\"http://media.geocommons.com/platial/images/logotype_small.jpg\"></a>","id":"a6x3690gpz48"},"type":"Feature","geometry":{"type":"Point","coordinates":[-81.0900878906,32.073265551]}},{"properties":{"name":"St Winifreds Well, Wales","description":"Posted by <a title=\"http://danceswithwools.wordpress.com\" href=\"http://danceswithwools.wordpress.com\">Katknit</a>Wales<a title=\"Built for Community Mapping\" href=\"http://www.platial.com\"><img src=\"http://media.geocommons.com/platial/images/logotype_small.jpg\"></a>","id":"a6x368phao7l"},"type":"Feature","geometry":{"type":"Point","coordinates":[-3.694412,52.214963]}},{"properties":{"name":"Traverse City","description":"Posted by <a title=\"http://danceswithwools.wordpress.com\" href=\"http://danceswithwools.wordpress.com\">Katknit</a><a title=\"Built for Community Mapping\" href=\"http://www.platial.com\"><img src=\"http://media.geocommons.com/platial/images/logotype_small.jpg\"></a>","id":"a6x368w5wsrd"},"type":"Feature","geometry":{"type":"Point","coordinates":[-85.5395507812,44.5748174047]}},{"properties":{"name":"Washington","description":"Posted by <a title=\"http://danceswithwools.wordpress.com\" href=\"http://danceswithwools.wordpress.com\">Katknit</a><a title=\"Built for Community Mapping\" href=\"http://www.platial.com\"><img src=\"http://media.geocommons.com/platial/images/logotype_small.jpg\"></a>","id":"a6x368ygc5uf"},"type":"Feature","geometry":{"type":"Point","coordinates":[-77.0361328125,38.8225909762]}}],"is_temporal":false,"author":{"url":"http://www.platial.com/map/55024","metadata":null,"contact_name":"katknit","contact_address":null,"source":"platial:katknit","contact_phone":null},"source":"http://www.platial.com/map/55024","pagination":{"sort":null,"start":0,"total":23,"limit":1000000},"state":"complete","tags":"platial,platial:id=55024,platial:user=katknit","published":"2010-04-24T16:00:00Z","id":39062}