{"type":"FeatureCollection","data_type":"Dataset","url_type":null,"permissions":[{"permissions":{"download":true,"view":true},"group_id":"everyone"}],"classification":null,"title":"TechVoc Map 176","count":175,"stream_id":391220,"contributor":{"url":"http://geocommons.com/users/78315","name":"marianiban"},"data_attributes":null,"calculation_params":null,"icon_link":null,"link":"http://geocommons.com/overlays/391220.json","extent":[119.882,5.93888,126.537,20.7848],"geometry_types":["point"],"unique_name":null,"name":"TechVoc Map 176","feature_count":175,"description":"","next_feature":null,"is_raster":false,"short_classification":"Y","stats":{"fisheries":{"max":1,"variance":0.150279146141216,"mean":0.182857142857143,"stdev":0.387658543232592,"min":0,"median":0},"latitude":{"max":20.784843,"variance":11.1912640180052,"mean":12.1854843085714,"stdev":3.34533466457471,"min":5.93888,"median":11.703333},"techvoctype1":{"max":3,"variance":0.615632183908044,"mean":1.56,"stdev":0.784622319277271,"min":1,"median":1},"arts and trade":{"max":1,"variance":0.236256157635468,"mean":0.622857142857143,"stdev":0.486061886631186,"min":0,"median":1},"total tech voc":{"max":1,"variance":0.0,"mean":1.0,"stdev":0.0,"min":1,"median":1},"agriculture":{"max":1,"variance":0.15743842364532,"mean":0.194285714285714,"stdev":0.396785110160802,"min":0,"median":0},"sch.id":{"max":313509,"variance":4938019.92039409,"mean":303112.817142857,"stdev":2222.16559247822,"min":300175,"median":303320},"longitude":{"max":126.537278,"variance":3.47182299510197,"mean":123.00448388,"stdev":1.86328285429292,"min":119.882349,"median":122.964142}},"features":[{"properties":{"fisheries":0,"school name":"Gov. Bado Dangwa Agro-Industrial School","latitude":16.634222,"region":"CAR","muni":"KAPANGAN","techvoctype1":1,"techvoctype":"Arts and Trade","arts and trade":1,"sch.id":305143,"division":"Benguet","agriculture":0,"total tech voc":1,"longitude":120.629264,"id":"agxnjnswxivx","province":"BENGUET"},"type":"Feature","geometry":{"type":"Point","coordinates":[120.629264,16.634222]}},{"properties":{"fisheries":0,"school name":"Tublay Sch. of Home Industries","latitude":16.470503,"region":"CAR","muni":"TUBLAY","techvoctype1":1,"techvoctype":"Arts and Trade","arts and trade":1,"sch.id":305162,"division":"Benguet","agriculture":0,"total tech voc":1,"longitude":120.633486,"id":"agxnjnocdi0k","province":"BENGUET"},"type":"Feature","geometry":{"type":"Point","coordinates":[120.633486,16.470503]}},{"properties":{"fisheries":0,"school name":"Eastern Bontoc NAVHS","latitude":17.057277,"region":"CAR","muni":"BARLIG","techvoctype1":2,"techvoctype":"Agri","arts and trade":0,"sch.id":305242,"division":"Mt. Province","agriculture":1,"total tech voc":1,"longitude":121.08397,"id":"agxnjny6n8t0","province":"MOUNTAIN PROVINCE"},"type":"Feature","geometry":{"type":"Point","coordinates":[121.08397,17.057277]}},{"properties":{"fisheries":0,"school name":"Tadian School of Arts &amp; Trades","latitude":17.000209,"region":"CAR","muni":"TADIAN","techvoctype1":1,"techvoctype":"Arts and Trade","arts and trade":1,"sch.id":305267,"division":"Mt. Province","agriculture":0,"total tech voc":1,"longitude":120.815598,"id":"agxnjnzcdmwy","province":"MOUNTAIN PROVINCE"},"type":"Feature","geometry":{"type":"Point","coordinates":[120.815598,17.000209]}},{"properties":{"fisheries":0,"school name":"Agusan Pequeno NHS","latitude":8.972931,"region":"CARAGA","muni":"BUTUAN CITY (Capital)","techvoctype1":2,"techvoctype":"Agri","arts and trade":0,"sch.id":304757,"division":"Butuan City","agriculture":1,"total tech voc":1,"longitude":125.52636,"id":"agxnjnpqhuwf","province":"AGUSAN DEL NORTE"},"type":"Feature","geometry":{"type":"Point","coordinates":[125.52636,8.972931]}},{"properties":{"fisheries":0,"school name":"Butuan City Sch. of Arts &amp; Trades","latitude":8.9475,"region":"CARAGA","muni":"BUTUAN CITY (Capital)","techvoctype1":1,"techvoctype":"Arts and Trade","arts and trade":1,"sch.id":304762,"division":"Butuan City","agriculture":0,"total tech voc":1,"longitude":125.531389,"id":"agxnjnwc0alg","province":"AGUSAN DEL NORTE"},"type":"Feature","geometry":{"type":"Point","coordinates":[125.531389,8.9475]}},{"properties":{"fisheries":0,"school name":"Patin-ay HS","latitude":8.54958,"region":"CARAGA","muni":"PROSPERIDAD (Capital)","techvoctype1":1,"techvoctype":"Arts and Trade","arts and trade":1,"sch.id":304730,"division":"Agusan del Sur","agriculture":0,"total tech voc":1,"longitude":125.938583,"id":"agxnjo4j9z0r","province":"AGUSAN DEL SUR"},"type":"Feature","geometry":{"type":"Point","coordinates":[125.938583,8.54958]}},{"properties":{"fisheries":0,"school name":"SIBAGAT NATIONAL HIGH SCHOOL OF HOME INDUSTRIES","latitude":8.824723,"region":"CARAGA","muni":"SIBAGAT","techvoctype1":1,"techvoctype":"Arts and Trade","arts and trade":1,"sch.id":304740,"division":"Agusan del Sur","agriculture":0,"total tech voc":1,"longitude":125.689802,"id":"agxnjo04so5x","province":"AGUSAN DEL SUR"},"type":"Feature","geometry":{"type":"Point","coordinates":[125.689802,8.824723]}},{"properties":{"fisheries":1,"school name":"Dinagat School of Fisheries","latitude":9.961369,"region":"CARAGA","muni":"DINAGAT","techvoctype1":3,"techvoctype":"Fisheries","arts and trade":0,"sch.id":304822,"division":"Dinagat Island","agriculture":0,"total tech voc":1,"longitude":125.591499,"id":"agxnjnzh609y","province":"DINAGAT ISLANDS"},"type":"Feature","geometry":{"type":"Point","coordinates":[125.591499,9.961369]}},{"properties":{"fisheries":0,"school name":"Bacuag Nat'L Agro-Indust'L Sch.","latitude":9.609146,"region":"CARAGA","muni":"BACUAG","techvoctype1":2,"techvoctype":"Agri","arts and trade":0,"sch.id":304813,"division":"Surigao del Norte","agriculture":1,"total tech voc":1,"longitude":125.636715,"id":"agxnjo09a6ak","province":"SURIGAO DEL NORTE"},"type":"Feature","geometry":{"type":"Point","coordinates":[125.636715,9.609146]}},{"properties":{"fisheries":0,"school name":"Gigaquit Nat'l. Sch. of Home Industries","latitude":9.594117,"region":"CARAGA","muni":"GIGAQUIT","techvoctype1":1,"techvoctype":"Arts and Trade","arts and trade":1,"sch.id":304826,"division":"Surigao del Norte","agriculture":0,"total tech voc":1,"longitude":125.69561,"id":"agxnjnwmbytn","province":"SURIGAO DEL NORTE"},"type":"Feature","geometry":{"type":"Point","coordinates":[125.69561,9.594117]}},{"properties":{"fisheries":0,"school name":"Tabon M. Estrella NHS","latitude":8.181629,"region":"CARAGA","muni":"CITY OF BISLIG","techvoctype1":1,"techvoctype":"Arts and Trade","arts and trade":1,"sch.id":304917,"division":"Bislig City","agriculture":0,"total tech voc":1,"longitude":126.362112,"id":"agxnjo41366q","province":"SURIGAO DEL SUR"},"type":"Feature","geometry":{"type":"Point","coordinates":[126.362112,8.181629]}},{"properties":{"fisheries":0,"school name":"BAROBO NHS","latitude":8.528712,"region":"CARAGA","muni":"BAROBO","techvoctype1":1,"techvoctype":"Arts and Trade","arts and trade":1,"sch.id":304861,"division":"Surigao del Sur","agriculture":0,"total tech voc":1,"longitude":126.120957,"id":"agxnjnrnde2w","province":"SURIGAO DEL SUR"},"type":"Feature","geometry":{"type":"Point","coordinates":[126.120957,8.528712]}},{"properties":{"fisheries":0,"school name":"Carmen Nat'l. Agr'l. HS","latitude":9.217209,"region":"CARAGA","muni":"CARMEN","techvoctype1":2,"techvoctype":"Agri","arts and trade":0,"sch.id":304875,"division":"Surigao del Sur","agriculture":1,"total tech voc":1,"longitude":126.018515,"id":"agxnjntz1oc3","province":"SURIGAO DEL SUR"},"type":"Feature","geometry":{"type":"Point","coordinates":[126.018515,9.217209]}},{"properties":{"fisheries":1,"school name":"St. Christine NHS","latitude":8.668588,"region":"CARAGA","muni":"LIANGA","techvoctype1":3,"techvoctype":"Fisheries","arts and trade":0,"sch.id":304915,"division":"Surigao del Sur","agriculture":0,"total tech voc":1,"longitude":126.127007,"id":"agxnjnx2s1z3","province":"SURIGAO DEL SUR"},"type":"Feature","geometry":{"type":"Point","coordinates":[126.127007,8.668588]}},{"properties":{"fisheries":0,"school name":"Antonio J. Villegas Vocational High School","latitude":14.623502,"region":"NCR","muni":"TONDO","techvoctype1":1,"techvoctype":"Arts and Trade","arts and trade":1,"sch.id":305292,"division":"Manila","agriculture":0,"total tech voc":1,"longitude":120.961279,"id":"agxnjo2eud4s","province":"MANILA, NCR, FIRST DISTRICT"},"type":"Feature","geometry":{"type":"Point","coordinates":[120.961279,14.623502]}},{"properties":{"fisheries":0,"school name":"Elpidio Quirino High School","latitude":14.58968,"region":"NCR","muni":"SANTA ANA","techvoctype1":1,"techvoctype":"Arts and Trade","arts and trade":1,"sch.id":305317,"division":"Manila","agriculture":0,"total tech voc":1,"longitude":121.017486,"id":"agxnjnrpwijn","province":"MANILA, NCR, FIRST DISTRICT"},"type":"Feature","geometry":{"type":"Point","coordinates":[121.017486,14.58968]}},{"properties":{"fisheries":0,"school name":"Eulogio Rodriguez Vocational High School","latitude":14.598126,"region":"NCR","muni":"CITY OF MANILA","techvoctype1":1,"techvoctype":"Arts and Trade","arts and trade":1,"sch.id":305319,"division":"Manila","agriculture":0,"total tech voc":1,"longitude":121.001653,"id":"agxnjnp5quzf","province":"MANILA, NCR, FIRST DISTRICT"},"type":"Feature","geometry":{"type":"Point","coordinates":[121.001653,14.598126]}},{"properties":{"fisheries":0,"school name":"Benigno \"Ninoy\" S. Aquino HS","latitude":14.549638,"region":"NCR","muni":"CITY OF MAKATI","techvoctype1":1,"techvoctype":"Arts and Trade","arts and trade":1,"sch.id":305412,"division":"Makati City","agriculture":0,"total tech voc":1,"longitude":121.065079,"id":"agxnjnrfi6al","province":"NCR FOURTH DISTRICT"},"type":"Feature","geometry":{"type":"Point","coordinates":[121.065079,14.549638]}},{"properties":{"fisheries":0,"school name":"Pedro E. Diaz HS","latitude":14.41254,"region":"NCR","muni":"CITY OF MUNTINLUPA","techvoctype1":1,"techvoctype":"Arts and Trade","arts and trade":1,"sch.id":305470,"division":"Muntinlupa City","agriculture":0,"total tech voc":1,"longitude":121.043037,"id":"agxnjnpdjjlp","province":"NCR FOURTH DISTRICT"},"type":"Feature","geometry":{"type":"Point","coordinates":[121.043037,14.41254]}},{"properties":{"fisheries":0,"school name":"Muntinlupa Business High School - Main","latitude":14.441614,"region":"NCR","muni":"CITY OF MUNTINLUPA","techvoctype1":1,"techvoctype":"Arts and Trade","arts and trade":1,"sch.id":305471,"division":"Muntinlupa City","agriculture":0,"total tech voc":1,"longitude":121.049939,"id":"agxnjo0eygls","province":"NCR FOURTH DISTRICT"},"type":"Feature","geometry":{"type":"Point","coordinates":[121.049939,14.441614]}},{"properties":{"fisheries":0,"school name":"Malanday NHS","latitude":14.646842,"region":"NCR","muni":"CITY OF MARIKINA","techvoctype1":1,"techvoctype":"Arts and Trade","arts and trade":1,"sch.id":305402,"division":"Marikina City","agriculture":0,"total tech voc":1,"longitude":121.090446,"id":"agxnjnu6g1yq","province":"NCR SECOND DISTRICT"},"type":"Feature","geometry":{"type":"Point","coordinates":[121.090446,14.646842]}},{"properties":{"fisheries":0,"school name":"Rizal Exp. Sta. And Pilot SCI (RESPSCI)","latitude":14.57821,"region":"NCR","muni":"CITY OF PASIG","techvoctype1":1,"techvoctype":"Arts and Trade","arts and trade":1,"sch.id":305422,"division":"Pasig City","agriculture":0,"total tech voc":1,"longitude":121.094261,"id":"agxnjnu5j41y","province":"NCR SECOND DISTRICT"},"type":"Feature","geometry":{"type":"Point","coordinates":[121.094261,14.57821]}},{"properties":{"fisheries":0,"school name":"Don Alejandro Roces, Sr. Sci. &amp; Tech. HS","latitude":14.630269,"region":"NCR","muni":"QUEZON CITY","techvoctype1":1,"techvoctype":"Arts and Trade","arts and trade":1,"sch.id":305360,"division":"Quezon City","agriculture":0,"total tech voc":1,"longitude":121.030014,"id":"agxnjnr2tzkc","province":"NCR SECOND DISTRICT"},"type":"Feature","geometry":{"type":"Point","coordinates":[121.030014,14.630269]}},{"properties":{"fisheries":0,"school name":"Ilocos Norte College of Arts &amp; Trades","latitude":18.204021,"region":"Region I","muni":"LAOAG CITY (Capital)","techvoctype1":1,"techvoctype":"Arts and Trade","arts and trade":1,"sch.id":300373,"division":"Laoag City","agriculture":0,"total tech voc":1,"longitude":120.593322,"id":"agxnjnp3q5j8","province":"ILOCOS NORTE"},"type":"Feature","geometry":{"type":"Point","coordinates":[120.593322,18.204021]}},{"properties":{"fisheries":1,"school name":"Ilocos Norte Regional School of Fisheries","latitude":18.204709,"region":"Region I","muni":"LAOAG CITY (Capital)","techvoctype1":3,"techvoctype":"Fisheries","arts and trade":0,"sch.id":300375,"division":"Laoag City","agriculture":0,"total tech voc":1,"longitude":120.531293,"id":"agxnjo0emqpf","province":"ILOCOS NORTE"},"type":"Feature","geometry":{"type":"Point","coordinates":[120.531293,18.204709]}},{"properties":{"fisheries":1,"school name":"Bolinao SOF","latitude":16.392298,"region":"Region I","muni":"BOLINAO","techvoctype1":3,"techvoctype":"Fisheries","arts and trade":0,"sch.id":300175,"division":"Pangasinan I, Lingayen","agriculture":0,"total tech voc":1,"longitude":119.882349,"id":"agxnjnobwbwr","province":"PANGASINAN"},"type":"Feature","geometry":{"type":"Point","coordinates":[119.882349,16.392298]}},{"properties":{"fisheries":1,"school name":"Binmaley SOF (Pangasinan COF)","latitude":16.04,"region":"Region I","muni":"BINMALEY","techvoctype1":3,"techvoctype":"Fisheries","arts and trade":0,"sch.id":300232,"division":"Pangasinan I, Lingayen","agriculture":0,"total tech voc":1,"longitude":120.269444,"id":"agxnjny9yh18","province":"PANGASINAN"},"type":"Feature","geometry":{"type":"Point","coordinates":[120.269444,16.04]}},{"properties":{"fisheries":0,"school name":"Luciano Millan National HS","latitude":16.004742,"region":"Region I","muni":"ASINGAN","techvoctype1":1,"techvoctype":"Arts and Trade","arts and trade":1,"sch.id":300322,"division":"Pangasinan II, Binalonan","agriculture":0,"total tech voc":1,"longitude":120.665948,"id":"agxnjnw1357y","province":"PANGASINAN"},"type":"Feature","geometry":{"type":"Point","coordinates":[120.665948,16.004742]}},{"properties":{"fisheries":0,"school name":"Speaker Eugenio Perez Nat;l. Agr'l. Sch.","latitude":15.933289,"region":"Region I","muni":"SAN CARLOS CITY","techvoctype1":2,"techvoctype":"Agri","arts and trade":0,"sch.id":300388,"division":"San Carlos City (Reg. I)","agriculture":1,"total tech voc":1,"longitude":120.342469,"id":"agxnjnqmzs58","province":"PANGASINAN"},"type":"Feature","geometry":{"type":"Point","coordinates":[120.342469,15.933289]}},{"properties":{"fisheries":0,"school name":"Itbayat NAHS","latitude":20.784843,"region":"Region II","muni":"ITBAYAT","techvoctype1":2,"techvoctype":"Agri","arts and trade":0,"sch.id":300414,"division":"Batanes","agriculture":1,"total tech voc":1,"longitude":121.839233,"id":"agxnjnxt5ek6","province":"BATANES"},"type":"Feature","geometry":{"type":"Point","coordinates":[121.839233,20.784843]}},{"properties":{"fisheries":1,"school name":"Sabtang NSF","latitude":20.331469,"region":"Region II","muni":"SABTANG","techvoctype1":3,"techvoctype":"Fisheries","arts and trade":0,"sch.id":300417,"division":"Batanes","agriculture":0,"total tech voc":1,"longitude":121.874214,"id":"agxnjo2ix1qj","province":"BATANES"},"type":"Feature","geometry":{"type":"Point","coordinates":[121.874214,20.331469]}},{"properties":{"fisheries":0,"school name":"Abulug NRVHS","latitude":18.410749,"region":"Region II","muni":"ABULUG","techvoctype1":2,"techvoctype":"Agri","arts and trade":0,"sch.id":300418,"division":"Cagayan","agriculture":1,"total tech voc":1,"longitude":121.447088,"id":"agxnjo1jt0lz","province":"CAGAYAN"},"type":"Feature","geometry":{"type":"Point","coordinates":[121.447088,18.410749]}},{"properties":{"fisheries":1,"school name":"Abulug SOF","latitude":18.442041,"region":"Region II","muni":"ABULUG","techvoctype1":3,"techvoctype":"Fisheries","arts and trade":0,"sch.id":300419,"division":"Cagayan","agriculture":0,"total tech voc":1,"longitude":121.453165,"id":"agxnjnrpyllq","province":"CAGAYAN"},"type":"Feature","geometry":{"type":"Point","coordinates":[121.453165,18.442041]}},{"properties":{"fisheries":0,"school name":"Allacapan VHS","latitude":18.225986,"region":"Region II","muni":"ALLACAPAN","techvoctype1":1,"techvoctype":"Arts and Trade","arts and trade":1,"sch.id":300424,"division":"Cagayan","agriculture":0,"total tech voc":1,"longitude":121.553308,"id":"agxnjo03k74s","province":"CAGAYAN"},"type":"Feature","geometry":{"type":"Point","coordinates":[121.553308,18.225986]}},{"properties":{"fisheries":0,"school name":"Aparri SAT","latitude":18.354672,"region":"Region II","muni":"APARRI","techvoctype1":1,"techvoctype":"Arts and Trade","arts and trade":1,"sch.id":300428,"division":"Cagayan","agriculture":0,"total tech voc":1,"longitude":121.646176,"id":"agxnjo2ck87u","province":"CAGAYAN"},"type":"Feature","geometry":{"type":"Point","coordinates":[121.646176,18.354672]}},{"properties":{"fisheries":0,"school name":"Enrile Vocational High School","latitude":17.57049,"region":"Region II","muni":"ENRILE","techvoctype1":1,"techvoctype":"Arts and Trade","arts and trade":1,"sch.id":300458,"division":"Cagayan","agriculture":0,"total tech voc":1,"longitude":121.678067,"id":"agxnjnorcp9g","province":"CAGAYAN"},"type":"Feature","geometry":{"type":"Point","coordinates":[121.678067,17.57049]}},{"properties":{"fisheries":0,"school name":"Gattaran NTS","latitude":18.040852,"region":"Region II","muni":"GATTARAN","techvoctype1":1,"techvoctype":"Arts and Trade","arts and trade":1,"sch.id":300462,"division":"Cagayan","agriculture":0,"total tech voc":1,"longitude":121.723827,"id":"agxnjnw4rb32","province":"CAGAYAN"},"type":"Feature","geometry":{"type":"Point","coordinates":[121.723827,18.040852]}},{"properties":{"fisheries":1,"school name":"Pamplona National School of Fisheries","latitude":18.458439,"region":"Region II","muni":"PAMPLONA","techvoctype1":3,"techvoctype":"Fisheries","arts and trade":0,"sch.id":300479,"division":"Cagayan","agriculture":0,"total tech voc":1,"longitude":121.35503,"id":"agxnjnvgcfkm","province":"CAGAYAN"},"type":"Feature","geometry":{"type":"Point","coordinates":[121.35503,18.458439]}},{"properties":{"fisheries":0,"school name":"Western Cagayan SAT","latitude":18.062445,"region":"Region II","muni":"LASAM","techvoctype1":1,"techvoctype":"Arts and Trade","arts and trade":1,"sch.id":300497,"division":"Cagayan","agriculture":0,"total tech voc":1,"longitude":121.59624,"id":"agxnjnt9s3vi","province":"CAGAYAN"},"type":"Feature","geometry":{"type":"Point","coordinates":[121.59624,18.062445]}},{"properties":{"fisheries":0,"school name":"Alicia Vocational School","latitude":16.845184,"region":"Region II","muni":"ALICIA","techvoctype1":1,"techvoctype":"Arts and Trade","arts and trade":1,"sch.id":300499,"division":"Isabela","agriculture":0,"total tech voc":1,"longitude":121.746796,"id":"agxnjnz0svd2","province":"ISABELA"},"type":"Feature","geometry":{"type":"Point","coordinates":[121.746796,16.845184]}},{"properties":{"fisheries":0,"school name":"Isabela NHS - Main","latitude":17.144733,"region":"Region II","muni":"ILAGAN (Capital)","techvoctype1":1,"techvoctype":"Arts and Trade","arts and trade":1,"sch.id":300542,"division":"Isabela","agriculture":0,"total tech voc":1,"longitude":121.886501,"id":"agxnjnoemnrl","province":"ISABELA"},"type":"Feature","geometry":{"type":"Point","coordinates":[121.886501,17.144733]}},{"properties":{"fisheries":1,"school name":"Isabela SF","latitude":17.121686,"region":"Region II","muni":"PALANAN","techvoctype1":3,"techvoctype":"Fisheries","arts and trade":0,"sch.id":300554,"division":"Isabela","agriculture":0,"total tech voc":1,"longitude":122.437346,"id":"agxnjnrshzei","province":"ISABELA"},"type":"Feature","geometry":{"type":"Point","coordinates":[122.437346,17.121686]}},{"properties":{"fisheries":0,"school name":"Reina Mercedes VIS-Main","latitude":16.992374,"region":"Region II","muni":"REINA MERCEDES","techvoctype1":1,"techvoctype":"Arts and Trade","arts and trade":1,"sch.id":300575,"division":"Isabela","agriculture":0,"total tech voc":1,"longitude":121.809921,"id":"agxnjnu56v44","province":"ISABELA"},"type":"Feature","geometry":{"type":"Point","coordinates":[121.809921,16.992374]}},{"properties":{"fisheries":0,"school name":"San Guillermo Voc'l &amp; Ind'l High Sch.","latitude":16.718667,"region":"Region II","muni":"SAN GUILLERMO","techvoctype1":1,"techvoctype":"Arts and Trade","arts and trade":1,"sch.id":300590,"division":"Isabela","agriculture":0,"total tech voc":1,"longitude":121.812431,"id":"agxnjnupv3k9","province":"ISABELA"},"type":"Feature","geometry":{"type":"Point","coordinates":[121.812431,16.718667]}},{"properties":{"fisheries":0,"school name":"San Mateo Voc'l. &amp; Industrial High School-Main","latitude":16.90275,"region":"Region II","muni":"SAN MATEO","techvoctype1":1,"techvoctype":"Arts and Trade","arts and trade":1,"sch.id":300596,"division":"Isabela","agriculture":0,"total tech voc":1,"longitude":121.612722,"id":"agxnjns5dygc","province":"ISABELA"},"type":"Feature","geometry":{"type":"Point","coordinates":[121.612722,16.90275]}},{"properties":{"fisheries":1,"school name":"Bataan School of Fisheries","latitude":14.619381,"region":"Region III","muni":"ORION","techvoctype1":3,"techvoctype":"Fisheries","arts and trade":0,"sch.id":300703,"division":"Bataan","agriculture":0,"total tech voc":1,"longitude":120.586211,"id":"agxnjnuxsaes","province":"BATAAN"},"type":"Feature","geometry":{"type":"Point","coordinates":[120.586211,14.619381]}},{"properties":{"fisheries":0,"school name":"Balagtas National Agricultural HS","latitude":14.822868,"region":"Region III","muni":"BALAGTAS (BIGAA)","techvoctype1":2,"techvoctype":"Agri","arts and trade":0,"sch.id":300721,"division":"Bulacan","agriculture":1,"total tech voc":1,"longitude":120.902344,"id":"agxnjo3lusxu","province":"BULACAN"},"type":"Feature","geometry":{"type":"Point","coordinates":[120.902344,14.822868]}},{"properties":{"fisheries":0,"school name":"F. F. Halili Nat'l. Agr'l. School","latitude":14.833193,"region":"Region III","muni":"SANTA MARIA","techvoctype1":2,"techvoctype":"Agri","arts and trade":0,"sch.id":300739,"division":"Bulacan","agriculture":1,"total tech voc":1,"longitude":120.978968,"id":"agxnjo2dji11","province":"BULACAN"},"type":"Feature","geometry":{"type":"Point","coordinates":[120.978968,14.833193]}},{"properties":{"fisheries":0,"school name":"ASSEMBLYWOMAN FELICITA G. BERNARDINO MEMORIAL TRADE SCHOOL","latitude":14.759604,"region":"Region III","muni":"MARILAO","techvoctype1":1,"techvoctype":"Arts and Trade","arts and trade":1,"sch.id":300740,"division":"Bulacan","agriculture":0,"total tech voc":1,"longitude":120.963089,"id":"agxnjnslkob2","province":"BULACAN"},"type":"Feature","geometry":{"type":"Point","coordinates":[120.963089,14.759604]}},{"properties":{"fisheries":0,"school name":"Guiguinto Nat'l Voc'l. School","latitude":14.826892,"region":"Region III","muni":"GUIGUINTO","techvoctype1":1,"techvoctype":"Arts and Trade","arts and trade":1,"sch.id":300742,"division":"Bulacan","agriculture":0,"total tech voc":1,"longitude":120.878387,"id":"agxnjnvjv0a8","province":"BULACAN"},"type":"Feature","geometry":{"type":"Point","coordinates":[120.878387,14.826892]}},{"properties":{"fisheries":1,"school name":"Obando School of Fisheries","latitude":14.744947,"region":"Region III","muni":"OBANDO","techvoctype1":3,"techvoctype":"Fisheries","arts and trade":0,"sch.id":300764,"division":"Bulacan","agriculture":0,"total tech voc":1,"longitude":120.911856,"id":"agxnjo0gm6tm","province":"BULACAN"},"type":"Feature","geometry":{"type":"Point","coordinates":[120.911856,14.744947]}},{"properties":{"fisheries":0,"school name":"San Rafael Nat'l Trade School","latitude":14.979847,"region":"Region III","muni":"SAN RAFAEL","techvoctype1":1,"techvoctype":"Arts and Trade","arts and trade":1,"sch.id":300773,"division":"Bulacan","agriculture":0,"total tech voc":1,"longitude":120.945748,"id":"agxnjnoeivib","province":"BULACAN"},"type":"Feature","geometry":{"type":"Point","coordinates":[120.945748,14.979847]}},{"properties":{"fisheries":1,"school name":"Malolos Marine Fishery School &amp; Laboratory","latitude":14.822826,"region":"Region III","muni":"CITY OF MALOLOS (Capital)","techvoctype1":3,"techvoctype":"Fisheries","arts and trade":0,"sch.id":300750,"division":"Malolos City","agriculture":0,"total tech voc":1,"longitude":120.836136,"id":"agxnjns60fkz","province":"BULACAN"},"type":"Feature","geometry":{"type":"Point","coordinates":[120.836136,14.822826]}},{"properties":{"fisheries":0,"school name":"San Jose del Monte Nat'l. Trade School","latitude":14.848225,"region":"Region III","muni":"CITY OF SAN JOSE DEL MONTE","techvoctype1":1,"techvoctype":"Arts and Trade","arts and trade":1,"sch.id":301061,"division":"San Jose del Monte City","agriculture":0,"total tech voc":1,"longitude":121.050087,"id":"agxnjnu3zq8t","province":"BULACAN"},"type":"Feature","geometry":{"type":"Point","coordinates":[121.050087,14.848225]}},{"properties":{"fisheries":0,"school name":"Jorge M. Padilla NHS","latitude":15.566578,"region":"Region III","muni":"LAUR","techvoctype1":2,"techvoctype":"Agri","arts and trade":0,"sch.id":300811,"division":"Nueva Ecija","agriculture":1,"total tech voc":1,"longitude":121.154171,"id":"agxnjo0dgdl3","province":"NUEVA ECIJA"},"type":"Feature","geometry":{"type":"Point","coordinates":[121.154171,15.566578]}},{"properties":{"fisheries":0,"school name":"Sto. Domingo NTS","latitude":15.651828,"region":"Region III","muni":"SANTO DOMINGO","techvoctype1":1,"techvoctype":"Arts and Trade","arts and trade":1,"sch.id":300857,"division":"Nueva Ecija","agriculture":0,"total tech voc":1,"longitude":120.883267,"id":"agxnjnxqjofs","province":"NUEVA ECIJA"},"type":"Feature","geometry":{"type":"Point","coordinates":[120.883267,15.651828]}},{"properties":{"fisheries":0,"school name":"Angeles City Nat'l. Trade School","latitude":15.137288,"region":"Region III","muni":"ANGELES CITY","techvoctype1":1,"techvoctype":"Arts and Trade","arts and trade":1,"sch.id":301038,"division":"Angeles City","agriculture":0,"total tech voc":1,"longitude":120.563272,"id":"agxnjnp6ezml","province":"PAMPANGA"},"type":"Feature","geometry":{"type":"Point","coordinates":[120.563272,15.137288]}},{"properties":{"fisheries":0,"school name":"Bro. Andrew Gonzales Tech.HS","latitude":14.953065,"region":"Region III","muni":"APALIT","techvoctype1":1,"techvoctype":"Arts and Trade","arts and trade":1,"sch.id":306903,"division":"Pampanga","agriculture":0,"total tech voc":1,"longitude":120.769387,"id":"agxnjnxx3vy1","province":"PAMPANGA"},"type":"Feature","geometry":{"type":"Point","coordinates":[120.769387,14.953065]}},{"properties":{"fisheries":0,"school name":"Benigno S. Aquino NHS","latitude":15.326125,"region":"Region III","muni":"CONCEPCION","techvoctype1":1,"techvoctype":"Arts and Trade","arts and trade":1,"sch.id":300951,"division":"Tarlac","agriculture":0,"total tech voc":1,"longitude":120.653219,"id":"agxnjo3oc6aw","province":"TARLAC"},"type":"Feature","geometry":{"type":"Point","coordinates":[120.653219,15.326125]}},{"properties":{"fisheries":0,"school name":"La Paz NHS","latitude":15.44218,"region":"Region III","muni":"LA PAZ","techvoctype1":1,"techvoctype":"Arts and Trade","arts and trade":1,"sch.id":300967,"division":"Tarlac","agriculture":0,"total tech voc":1,"longitude":120.734674,"id":"agxnjnxxa773","province":"TARLAC"},"type":"Feature","geometry":{"type":"Point","coordinates":[120.734674,15.44218]}},{"properties":{"fisheries":0,"school name":"Capas High School","latitude":15.357409,"region":"Region III","muni":"CAPAS","techvoctype1":1,"techvoctype":"Arts and Trade","arts and trade":1,"sch.id":300994,"division":"Tarlac","agriculture":0,"total tech voc":1,"longitude":120.592252,"id":"agxnjo19zos0","province":"TARLAC"},"type":"Feature","geometry":{"type":"Point","coordinates":[120.592252,15.357409]}},{"properties":{"fisheries":1,"school name":"Candelaria School of Fisheries","latitude":15.651669,"region":"Region III","muni":"CANDELARIA","techvoctype1":3,"techvoctype":"Fisheries","arts and trade":0,"sch.id":301011,"division":"Zambales","agriculture":0,"total tech voc":1,"longitude":119.926491,"id":"agxnjnu034z7","province":"ZAMBALES"},"type":"Feature","geometry":{"type":"Point","coordinates":[119.926491,15.651669]}},{"properties":{"fisheries":0,"school name":"Bauan Mun. Agric'l &amp; Voc. HS","latitude":13.7925,"region":"Region IV-A","muni":"BAUAN","techvoctype1":1,"techvoctype":"Arts and Trade","arts and trade":1,"sch.id":301079,"division":"Batangas","agriculture":0,"total tech voc":1,"longitude":121.0025,"id":"agxnjnr33xnt","province":"BATANGAS"},"type":"Feature","geometry":{"type":"Point","coordinates":[121.0025,13.7925]}},{"properties":{"fisheries":0,"school name":"Bauan Technical HS","latitude":13.7925,"region":"Region IV-A","muni":"BAUAN","techvoctype1":1,"techvoctype":"Arts and Trade","arts and trade":1,"sch.id":301080,"division":"Batangas","agriculture":0,"total tech voc":1,"longitude":121.0025,"id":"agxnjo0z20h7","province":"BATANGAS"},"type":"Feature","geometry":{"type":"Point","coordinates":[121.0025,13.7925]}},{"properties":{"fisheries":0,"school name":"Malvar National High School","latitude":14.043094,"region":"Region IV-A","muni":"MALVAR","techvoctype1":1,"techvoctype":"Arts and Trade","arts and trade":1,"sch.id":301122,"division":"Batangas","agriculture":0,"total tech voc":1,"longitude":121.156052,"id":"agxnjnz3ox7b","province":"BATANGAS"},"type":"Feature","geometry":{"type":"Point","coordinates":[121.156052,14.043094]}},{"properties":{"fisheries":1,"school name":"Tanuan School of Fisheries","latitude":14.087281,"region":"Region IV-A","muni":"CITY OF TANAUAN","techvoctype1":3,"techvoctype":"Fisheries","arts and trade":0,"sch.id":301154,"division":"Tanauan City","agriculture":0,"total tech voc":1,"longitude":121.064263,"id":"agxnjo37oca7","province":"BATANGAS"},"type":"Feature","geometry":{"type":"Point","coordinates":[121.064263,14.087281]}},{"properties":{"fisheries":0,"school name":"Amaya Sch. of Home Industries","latitude":14.369436,"region":"Region IV-A","muni":"TANZA","techvoctype1":1,"techvoctype":"Arts and Trade","arts and trade":1,"sch.id":301167,"division":"Cavite","agriculture":0,"total tech voc":1,"longitude":120.825008,"id":"agxnjo03vtob","province":"CAVITE"},"type":"Feature","geometry":{"type":"Point","coordinates":[120.825008,14.369436]}},{"properties":{"fisheries":0,"school name":"Gen. Mariano Alvarez Tech. HS","latitude":14.298409,"region":"Region IV-A","muni":"GEN. MARIANO ALVAREZ","techvoctype1":1,"techvoctype":"Arts and Trade","arts and trade":1,"sch.id":301192,"division":"Cavite","agriculture":0,"total tech voc":1,"longitude":121.008359,"id":"agxnjo00ktog","province":"CAVITE"},"type":"Feature","geometry":{"type":"Point","coordinates":[121.008359,14.298409]}},{"properties":{"fisheries":0,"school name":"Tanza NTS","latitude":14.318531,"region":"Region IV-A","muni":"TANZA","techvoctype1":1,"techvoctype":"Arts and Trade","arts and trade":1,"sch.id":301219,"division":"Cavite","agriculture":0,"total tech voc":1,"longitude":120.860706,"id":"agxnjo3w7jhr","province":"CAVITE"},"type":"Feature","geometry":{"type":"Point","coordinates":[120.860706,14.318531]}},{"properties":{"fisheries":0,"school name":"Calamba Bayside National High School","latitude":14.215666,"region":"Region IV-A","muni":"CITY OF CALAMBA","techvoctype1":1,"techvoctype":"Arts and Trade","arts and trade":1,"sch.id":301514,"division":"Calamba City","agriculture":0,"total tech voc":1,"longitude":121.186096,"id":"agxnjnp12juy","province":"LAGUNA"},"type":"Feature","geometry":{"type":"Point","coordinates":[121.186096,14.215666]}},{"properties":{"fisheries":0,"school name":"Siniloan NHS","latitude":14.413918,"region":"Region IV-A","muni":"SINILOAN","techvoctype1":2,"techvoctype":"Agri","arts and trade":0,"sch.id":301273,"division":"Laguna","agriculture":1,"total tech voc":1,"longitude":121.448133,"id":"agxnjnrj7zpp","province":"LAGUNA"},"type":"Feature","geometry":{"type":"Point","coordinates":[121.448133,14.413918]}},{"properties":{"fisheries":0,"school name":"San Pedro Relocation Comm. HS (San Pedro Relocation Center NHS, Langgam Campus)","latitude":14.327646,"region":"Region IV-A","muni":"SAN PEDRO","techvoctype1":1,"techvoctype":"Arts and Trade","arts and trade":1,"sch.id":307907,"division":"Laguna","agriculture":0,"total tech voc":1,"longitude":121.019501,"id":"agxnjntk5b09","province":"LAGUNA"},"type":"Feature","geometry":{"type":"Point","coordinates":[121.019501,14.327646]}},{"properties":{"fisheries":0,"school name":"Godofredo M. Tan Mem. SAT (San Narciso Voc. HS)","latitude":13.567831,"region":"Region IV-A","muni":"SAN NARCISO","techvoctype1":1,"techvoctype":"Arts and Trade","arts and trade":1,"sch.id":301399,"division":"Quezon","agriculture":0,"total tech voc":1,"longitude":122.554083,"id":"agxnjnphbetf","province":"QUEZON"},"type":"Feature","geometry":{"type":"Point","coordinates":[122.554083,13.567831]}},{"properties":{"fisheries":1,"school name":"Looc National School Of Fisheries","latitude":13.751292,"region":"Region IV-B","muni":"LOOC","techvoctype1":3,"techvoctype":"Fisheries","arts and trade":0,"sch.id":301583,"division":"Occidental Mindoro","agriculture":0,"total tech voc":1,"longitude":120.265739,"id":"agxnjnulpau1","province":"OCCIDENTAL MINDORO"},"type":"Feature","geometry":{"type":"Point","coordinates":[120.265739,13.751292]}},{"properties":{"fisheries":0,"school name":"Lubang VHS","latitude":13.858919,"region":"Region IV-B","muni":"LUBANG","techvoctype1":1,"techvoctype":"Arts and Trade","arts and trade":1,"sch.id":301586,"division":"Occidental Mindoro","agriculture":0,"total tech voc":1,"longitude":120.110085,"id":"agxnjnyhhxo8","province":"OCCIDENTAL MINDORO"},"type":"Feature","geometry":{"type":"Point","coordinates":[120.110085,13.858919]}},{"properties":{"fisheries":0,"school name":"San Jose National Agricultural and Industrial High School","latitude":12.457904,"region":"Region IV-B","muni":"SAN JOSE","techvoctype1":2,"techvoctype":"Agri","arts and trade":0,"sch.id":308901,"division":"Occidental Mindoro","agriculture":1,"total tech voc":1,"longitude":121.119209,"id":"agxnjo1ucapd","province":"OCCIDENTAL MINDORO"},"type":"Feature","geometry":{"type":"Point","coordinates":[121.119209,12.457904]}},{"properties":{"fisheries":0,"school name":"Marcelo I. Cabrera Vocational High School","latitude":12.599842,"region":"Region IV-B","muni":"ROXAS","techvoctype1":1,"techvoctype":"Arts and Trade","arts and trade":1,"sch.id":301639,"division":"Oriental Mindoro","agriculture":0,"total tech voc":1,"longitude":121.483333,"id":"agxnjnr9f1hj","province":"ORIENTAL MINDORO"},"type":"Feature","geometry":{"type":"Point","coordinates":[121.483333,12.599842]}},{"properties":{"fisheries":1,"school name":"Coron SOF","latitude":11.999143,"region":"Region IV-B","muni":"CORON","techvoctype1":3,"techvoctype":"Fisheries","arts and trade":0,"sch.id":301684,"division":"Palawan","agriculture":0,"total tech voc":1,"longitude":120.213162,"id":"agxnjnxugdn6","province":"PALAWAN"},"type":"Feature","geometry":{"type":"Point","coordinates":[120.213162,11.999143]}},{"properties":{"fisheries":0,"school name":"San Jose Agricultural HS","latitude":12.060222,"region":"Region IV-B","muni":"SAN JOSE","techvoctype1":2,"techvoctype":"Agri","arts and trade":0,"sch.id":301772,"division":"Romblon","agriculture":1,"total tech voc":1,"longitude":121.956741,"id":"agxnjo24eacq","province":"ROMBLON"},"type":"Feature","geometry":{"type":"Point","coordinates":[121.956741,12.060222]}},{"properties":{"fisheries":1,"school name":"Alberto Q. Ubay Mem. Agro-Tech'l. Sci. HS","latitude":8.5413,"region":"Region IX","muni":"DIPOLOG CITY (Capital)","techvoctype1":3,"techvoctype":"Fisheries","arts and trade":0,"sch.id":303885,"division":"Dipolog City","agriculture":0,"total tech voc":1,"longitude":123.320351,"id":"agxnjnspkl43","province":"ZAMBOANGA DEL NORTE"},"type":"Feature","geometry":{"type":"Point","coordinates":[123.320351,8.5413]}},{"properties":{"fisheries":0,"school name":"Pamansalan Eco. Tech. HS","latitude":8.503111,"region":"Region IX","muni":"DIPOLOG CITY (Capital)","techvoctype1":1,"techvoctype":"Arts and Trade","arts and trade":1,"sch.id":303890,"division":"Dipolog City","agriculture":0,"total tech voc":1,"longitude":123.322945,"id":"agxnjnxjy5rd","province":"ZAMBOANGA DEL NORTE"},"type":"Feature","geometry":{"type":"Point","coordinates":[123.322945,8.503111]}},{"properties":{"fisheries":0,"school name":"Zamboanga Norte NHS","latitude":8.580809,"region":"Region IX","muni":"DIPOLOG CITY (Capital)","techvoctype1":1,"techvoctype":"Arts and Trade","arts and trade":1,"sch.id":303893,"division":"Dipolog City","agriculture":0,"total tech voc":1,"longitude":123.355438,"id":"agxnjo1zitvc","province":"ZAMBOANGA DEL NORTE"},"type":"Feature","geometry":{"type":"Point","coordinates":[123.355438,8.580809]}},{"properties":{"fisheries":0,"school name":"Sindangan NAS","latitude":8.230726,"region":"Region IX","muni":"SINDANGAN","techvoctype1":2,"techvoctype":"Agri","arts and trade":0,"sch.id":303738,"division":"Zamboanga del Norte","agriculture":1,"total tech voc":1,"longitude":123.003688,"id":"agxnjo1cqnou","province":"ZAMBOANGA DEL NORTE"},"type":"Feature","geometry":{"type":"Point","coordinates":[123.003688,8.230726]}},{"properties":{"fisheries":0,"school name":"Zamboanga del Sur SAT","latitude":7.82463,"region":"Region IX","muni":"PAGADIAN CITY (Capital)","techvoctype1":1,"techvoctype":"Arts and Trade","arts and trade":1,"sch.id":303913,"division":"Pagadian City","agriculture":0,"total tech voc":1,"longitude":123.452187,"id":"agxnjo0444go","province":"ZAMBOANGA DEL SUR"},"type":"Feature","geometry":{"type":"Point","coordinates":[123.452187,7.82463]}},{"properties":{"fisheries":0,"school name":"Molave Vocational Technical School","latitude":8.096078,"region":"Region IX","muni":"MOLAVE","techvoctype1":1,"techvoctype":"Arts and Trade","arts and trade":1,"sch.id":303797,"division":"Zamboanga del Sur","agriculture":0,"total tech voc":1,"longitude":123.491314,"id":"agxnjny71t2w","province":"ZAMBOANGA DEL SUR"},"type":"Feature","geometry":{"type":"Point","coordinates":[123.491314,8.096078]}},{"properties":{"fisheries":0,"school name":"Rebokon AVHS","latitude":7.755959,"region":"Region IX","muni":"DUMALINAO","techvoctype1":2,"techvoctype":"Agri","arts and trade":0,"sch.id":303808,"division":"Zamboanga del Sur","agriculture":1,"total tech voc":1,"longitude":123.416359,"id":"agxnjnurajpf","province":"ZAMBOANGA DEL SUR"},"type":"Feature","geometry":{"type":"Point","coordinates":[123.416359,7.755959]}},{"properties":{"fisheries":0,"school name":"SUBANEN AGRICULTURAL NHS","latitude":7.964931,"region":"Region IX","muni":"SOMINOT (DON MARIANO MARCOS)","techvoctype1":2,"techvoctype":"Agri","arts and trade":0,"sch.id":303818,"division":"Zamboanga del Sur","agriculture":1,"total tech voc":1,"longitude":123.333026,"id":"agxnjo1fz3oz","province":"ZAMBOANGA DEL SUR"},"type":"Feature","geometry":{"type":"Point","coordinates":[123.333026,7.964931]}},{"properties":{"fisheries":0,"school name":"Libon Agro-Industrial HS","latitude":13.296725,"region":"Region V","muni":"LIBON","techvoctype1":2,"techvoctype":"Agri","arts and trade":0,"sch.id":301833,"division":"Albay","agriculture":1,"total tech voc":1,"longitude":123.443517,"id":"agxnjnwhn5xm","province":"ALBAY"},"type":"Feature","geometry":{"type":"Point","coordinates":[123.443517,13.296725]}},{"properties":{"fisheries":1,"school name":"Mercedes HS","latitude":14.110154,"region":"Region V","muni":"MERCEDES","techvoctype1":3,"techvoctype":"Fisheries","arts and trade":0,"sch.id":301905,"division":"Camarines Norte","agriculture":0,"total tech voc":1,"longitude":122.990416,"id":"agxnjnys62zt","province":"CAMARINES NORTE"},"type":"Feature","geometry":{"type":"Point","coordinates":[122.990416,14.110154]}},{"properties":{"fisheries":0,"school name":"Rinconada National Technical Vocational School","latitude":13.419844,"region":"Region V","muni":"IRIGA CITY","techvoctype1":1,"techvoctype":"Arts and Trade","arts and trade":1,"sch.id":302251,"division":"Iriga City","agriculture":0,"total tech voc":1,"longitude":123.431302,"id":"agxnjno6vx29","province":"CAMARINES SUR"},"type":"Feature","geometry":{"type":"Point","coordinates":[123.431302,13.419844]}},{"properties":{"fisheries":0,"school name":"Camarines Sur NHS","latitude":13.630094,"region":"Region V","muni":"NAGA CITY","techvoctype1":2,"techvoctype":"Agri","arts and trade":0,"sch.id":302264,"division":"Naga City","agriculture":1,"total tech voc":1,"longitude":123.190598,"id":"agxnjnqfegzg","province":"CAMARINES SUR"},"type":"Feature","geometry":{"type":"Point","coordinates":[123.190598,13.630094]}},{"properties":{"fisheries":0,"school name":"Pandan SAT","latitude":11.722388,"region":"Region V","muni":"PANDAN","techvoctype1":1,"techvoctype":"Arts and Trade","arts and trade":1,"sch.id":302094,"division":"Catanduanes","agriculture":0,"total tech voc":1,"longitude":122.097502,"id":"agxnjo2j7e8p","province":"CATANDUANES"},"type":"Feature","geometry":{"type":"Point","coordinates":[122.097502,11.722388]}},{"properties":{"fisheries":0,"school name":"San Andres VS","latitude":13.6,"region":"Region V","muni":"SAN ANDRES (CALOLBON)","techvoctype1":1,"techvoctype":"Arts and Trade","arts and trade":1,"sch.id":302096,"division":"Catanduanes","agriculture":0,"total tech voc":1,"longitude":124.099998,"id":"agxnjnrtlh1u","province":"CATANDUANES"},"type":"Feature","geometry":{"type":"Point","coordinates":[124.099998,13.6]}},{"properties":{"fisheries":0,"school name":"Tito R. Espinosa Mem. Nat'l Agric'l. HS","latitude":12.894098,"region":"Region V","muni":"CLAVERIA","techvoctype1":2,"techvoctype":"Agri","arts and trade":0,"sch.id":302126,"division":"Masbate","agriculture":1,"total tech voc":1,"longitude":123.231649,"id":"agxnjnu4vwy6","province":"MASBATE"},"type":"Feature","geometry":{"type":"Point","coordinates":[123.231649,12.894098]}},{"properties":{"fisheries":1,"school name":"Masbate School of Fisheries","latitude":12.246776,"region":"Region V","muni":"MILAGROS","techvoctype1":3,"techvoctype":"Fisheries","arts and trade":0,"sch.id":302147,"division":"Masbate","agriculture":0,"total tech voc":1,"longitude":123.526919,"id":"agxnjntnexkr","province":"MASBATE"},"type":"Feature","geometry":{"type":"Point","coordinates":[123.526919,12.246776]}},{"properties":{"fisheries":0,"school name":"Magallanes National Vocational High School","latitude":12.827778,"region":"Region V","muni":"MAGALLANES (34 BRGYS)","techvoctype1":1,"techvoctype":"Arts and Trade","arts and trade":1,"sch.id":302220,"division":"Sorsogon","agriculture":0,"total tech voc":1,"longitude":123.835556,"id":"agxnjnwgj9lz","province":"SORSOGON"},"type":"Feature","geometry":{"type":"Point","coordinates":[123.835556,12.827778]}},{"properties":{"fisheries":0,"school name":"Altavas National School","latitude":11.535008,"region":"Region VI","muni":"ALTAVAS","techvoctype1":1,"techvoctype":"Arts and Trade","arts and trade":1,"sch.id":302286,"division":"Aklan","agriculture":0,"total tech voc":1,"longitude":122.491272,"id":"agxnjnx4mlhm","province":"AKLAN"},"type":"Feature","geometry":{"type":"Point","coordinates":[122.491272,11.535008]}},{"properties":{"fisheries":0,"school name":"Libacao National Forestry Vocational High School","latitude":11.482,"region":"Region VI","muni":"LIBACAO","techvoctype1":2,"techvoctype":"Agri","arts and trade":0,"sch.id":302310,"division":"Aklan","agriculture":1,"total tech voc":1,"longitude":122.304001,"id":"agxnjnzi2n57","province":"AKLAN"},"type":"Feature","geometry":{"type":"Point","coordinates":[122.304001,11.482]}},{"properties":{"fisheries":0,"school name":"Aklan NHS for Arts &amp; Trades","latitude":11.703333,"region":"Region VI","muni":"KALIBO (Capital)","techvoctype1":1,"techvoctype":"Arts and Trade","arts and trade":1,"sch.id":302324,"division":"Aklan","agriculture":0,"total tech voc":1,"longitude":122.378611,"id":"agxnjnwsdmfk","province":"AKLAN"},"type":"Feature","geometry":{"type":"Point","coordinates":[122.378611,11.703333]}},{"properties":{"fisheries":1,"school name":"Numancia National Sch. Of Fisheries","latitude":11.726358,"region":"Region VI","muni":"NUMANCIA","techvoctype1":3,"techvoctype":"Fisheries","arts and trade":0,"sch.id":302327,"division":"Aklan","agriculture":0,"total tech voc":1,"longitude":122.339233,"id":"agxnjnqp2d55","province":"AKLAN"},"type":"Feature","geometry":{"type":"Point","coordinates":[122.339233,11.726358]}},{"properties":{"fisheries":0,"school name":"Antique VS","latitude":11.039036,"region":"Region VI","muni":"BUGASONG","techvoctype1":1,"techvoctype":"Arts and Trade","arts and trade":1,"sch.id":302342,"division":"Antique","agriculture":0,"total tech voc":1,"longitude":122.069602,"id":"agxnjnv11vux","province":"ANTIQUE"},"type":"Feature","geometry":{"type":"Point","coordinates":[122.069602,11.039036]}},{"properties":{"fisheries":0,"school name":"Gov. Julian Fullon Pacificador NS","latitude":10.649759,"region":"Region VI","muni":"HAMTIC","techvoctype1":1,"techvoctype":"Arts and Trade","arts and trade":1,"sch.id":302356,"division":"Antique","agriculture":0,"total tech voc":1,"longitude":121.982228,"id":"agxnjnve1t74","province":"ANTIQUE"},"type":"Feature","geometry":{"type":"Point","coordinates":[121.982228,10.649759]}},{"properties":{"fisheries":0,"school name":"Libertad National Vocational School","latitude":11.768792,"region":"Region VI","muni":"LIBERTAD","techvoctype1":1,"techvoctype":"Arts and Trade","arts and trade":1,"sch.id":302363,"division":"Antique","agriculture":0,"total tech voc":1,"longitude":121.922533,"id":"agxnjnq18use","province":"ANTIQUE"},"type":"Feature","geometry":{"type":"Point","coordinates":[121.922533,11.768792]}},{"properties":{"fisheries":0,"school name":"Northern Antique VS","latitude":11.392331,"region":"Region VI","muni":"CULASI","techvoctype1":1,"techvoctype":"Arts and Trade","arts and trade":1,"sch.id":302367,"division":"Antique","agriculture":0,"total tech voc":1,"longitude":122.056551,"id":"agxnjo3flrvj","province":"ANTIQUE"},"type":"Feature","geometry":{"type":"Point","coordinates":[122.056551,11.392331]}},{"properties":{"fisheries":0,"school name":"Dumalag Central NHS","latitude":11.3,"region":"Region VI","muni":"DUMALAG","techvoctype1":1,"techvoctype":"Arts and Trade","arts and trade":1,"sch.id":310806,"division":"Capiz","agriculture":0,"total tech voc":1,"longitude":122.617,"id":"agxnjnt2iwna","province":"CAPIZ"},"type":"Feature","geometry":{"type":"Point","coordinates":[122.617,11.3]}},{"properties":{"fisheries":0,"school name":"Cong. Ramon A. Arnaldo HS","latitude":11.585532,"region":"Region VI","muni":"ROXAS CITY (Capital)","techvoctype1":1,"techvoctype":"Arts and Trade","arts and trade":1,"sch.id":302757,"division":"Roxas City","agriculture":0,"total tech voc":1,"longitude":122.773093,"id":"agxnjo0za8c7","province":"CAPIZ"},"type":"Feature","geometry":{"type":"Point","coordinates":[122.773093,11.585532]}},{"properties":{"fisheries":0,"school name":"Roxas City School for Philippine Craftsmen","latitude":11.513085,"region":"Region VI","muni":"ROXAS CITY (Capital)","techvoctype1":1,"techvoctype":"Arts and Trade","arts and trade":1,"sch.id":311702,"division":"Roxas City","agriculture":0,"total tech voc":1,"longitude":122.754753,"id":"agxnjnr0r2ac","province":"CAPIZ"},"type":"Feature","geometry":{"type":"Point","coordinates":[122.754753,11.513085]}},{"properties":{"fisheries":0,"school name":"Cabatuan NCHS","latitude":10.88163,"region":"Region VI","muni":"CABATUAN","techvoctype1":1,"techvoctype":"Arts and Trade","arts and trade":1,"sch.id":302473,"division":"Iloilo","agriculture":0,"total tech voc":1,"longitude":122.485787,"id":"agxnjnrphpeb","province":"ILOILO"},"type":"Feature","geometry":{"type":"Point","coordinates":[122.485787,10.88163]}},{"properties":{"fisheries":0,"school name":"Duenas GCHS","latitude":11.07008,"region":"Region VI","muni":"DUEÃ‘AS","techvoctype1":1,"techvoctype":"Arts and Trade","arts and trade":1,"sch.id":302497,"division":"Iloilo","agriculture":0,"total tech voc":1,"longitude":122.616447,"id":"agxnjo0je5y4","province":"ILOILO"},"type":"Feature","geometry":{"type":"Point","coordinates":[122.616447,11.07008]}},{"properties":{"fisheries":0,"school name":"Miagao NHS","latitude":10.646713,"region":"Region VI","muni":"MIAGAO","techvoctype1":1,"techvoctype":"Arts and Trade","arts and trade":1,"sch.id":302531,"division":"Iloilo","agriculture":0,"total tech voc":1,"longitude":122.241636,"id":"agxnjnuc0hou","province":"ILOILO"},"type":"Feature","geometry":{"type":"Point","coordinates":[122.241636,10.646713]}},{"properties":{"fisheries":1,"school name":"SAN JOAQUIN SCHOOL OF FISHERIES","latitude":10.594022,"region":"Region VI","muni":"SAN JOAQUIN","techvoctype1":3,"techvoctype":"Fisheries","arts and trade":0,"sch.id":302566,"division":"Iloilo","agriculture":0,"total tech voc":1,"longitude":122.143025,"id":"agxnjnv19dm6","province":"ILOILO"},"type":"Feature","geometry":{"type":"Point","coordinates":[122.143025,10.594022]}},{"properties":{"fisheries":0,"school name":"Sta. Barbara NCHS","latitude":10.7864,"region":"Region VI","muni":"SANTA BARBARA","techvoctype1":1,"techvoctype":"Arts and Trade","arts and trade":1,"sch.id":302573,"division":"Iloilo","agriculture":0,"total tech voc":1,"longitude":122.587,"id":"agxnjo3iw29s","province":"ILOILO"},"type":"Feature","geometry":{"type":"Point","coordinates":[122.587,10.7864]}},{"properties":{"fisheries":1,"school name":"Inocencio V. Ferrer SOF (TASOF) (under the Reg'l Office)","latitude":10.74376,"region":"Region VI","muni":"CITY OF TALISAY","techvoctype1":3,"techvoctype":"Fisheries","arts and trade":0,"sch.id":302652,"division":"Negros Occidental","agriculture":0,"total tech voc":1,"longitude":122.964142,"id":"agxnjnzro73h","province":"NEGROS OCCIDENTAL"},"type":"Feature","geometry":{"type":"Point","coordinates":[122.964142,10.74376]}},{"properties":{"fisheries":0,"school name":"Negros Occ. NAISHI ( under the Reg'l Office)","latitude":10.235416,"region":"Region VI","muni":"HINIGARAN","techvoctype1":1,"techvoctype":"Arts and Trade","arts and trade":1,"sch.id":302668,"division":"Negros Occidental","agriculture":0,"total tech voc":1,"longitude":122.946121,"id":"agxnjo0e7x8v","province":"NEGROS OCCIDENTAL"},"type":"Feature","geometry":{"type":"Point","coordinates":[122.946121,10.235416]}},{"properties":{"fisheries":0,"school name":"DoÃ±a Montserrat Lopez MHS","latitude":10.805187,"region":"Region VI","muni":"SILAY CITY","techvoctype1":1,"techvoctype":"Arts and Trade","arts and trade":1,"sch.id":302780,"division":"Silay City","agriculture":0,"total tech voc":1,"longitude":122.979687,"id":"agxnjo47u8m9","province":"NEGROS OCCIDENTAL"},"type":"Feature","geometry":{"type":"Point","coordinates":[122.979687,10.805187]}},{"properties":{"fisheries":1,"school name":"Clarin National School of Fisheries","latitude":9.959539,"region":"Region VII","muni":"CLARIN","techvoctype1":3,"techvoctype":"Fisheries","arts and trade":0,"sch.id":302836,"division":"Bohol","agriculture":0,"total tech voc":1,"longitude":124.027069,"id":"agxnjo0m2nkb","province":"BOHOL"},"type":"Feature","geometry":{"type":"Point","coordinates":[124.027069,9.959539]}},{"properties":{"fisheries":0,"school name":"Consolacion NHS - Day Class","latitude":10.376599,"region":"Region VII","muni":"CONSOLACION","techvoctype1":1,"techvoctype":"Arts and Trade","arts and trade":1,"sch.id":302988,"division":"Cebu","agriculture":0,"total tech voc":1,"longitude":123.957313,"id":"agxnjnw2qsuw","province":"CEBU"},"type":"Feature","geometry":{"type":"Point","coordinates":[123.957313,10.376599]}},{"properties":{"fisheries":0,"school name":"Abellana NHS (Day &amp; NIght)","latitude":10.301174,"region":"Region VII","muni":"CEBU CITY (Capital)","techvoctype1":1,"techvoctype":"Arts and Trade","arts and trade":1,"sch.id":303128,"division":"Cebu City","agriculture":0,"total tech voc":1,"longitude":123.896034,"id":"agxnjnv7vkld","province":"CEBU"},"type":"Feature","geometry":{"type":"Point","coordinates":[123.896034,10.301174]}},{"properties":{"fisheries":0,"school name":"Naga NHS","latitude":10.208903,"region":"Region VII","muni":"CITY OF NAGA","techvoctype1":1,"techvoctype":"Arts and Trade","arts and trade":1,"sch.id":303065,"division":"City of Naga, Cebu","agriculture":0,"total tech voc":1,"longitude":123.754696,"id":"agxnjnv4rgdj","province":"CEBU"},"type":"Feature","geometry":{"type":"Point","coordinates":[123.754696,10.208903]}},{"properties":{"fisheries":0,"school name":"Marigondon NHS","latitude":10.277968,"region":"Region VII","muni":"LAPU-LAPU CITY (OPON)","techvoctype1":1,"techvoctype":"Arts and Trade","arts and trade":1,"sch.id":303180,"division":"Lapu-Lapu City","agriculture":0,"total tech voc":1,"longitude":123.972737,"id":"agxnjo1ksuub","province":"CEBU"},"type":"Feature","geometry":{"type":"Point","coordinates":[123.972737,10.277968]}},{"properties":{"fisheries":0,"school name":"Mandaue City Comprehensive NHS","latitude":10.323786,"region":"Region VII","muni":"MANDAUE CITY","techvoctype1":1,"techvoctype":"Arts and Trade","arts and trade":1,"sch.id":303199,"division":"Mandaue City","agriculture":0,"total tech voc":1,"longitude":123.944514,"id":"agxnjny1js9p","province":"CEBU"},"type":"Feature","geometry":{"type":"Point","coordinates":[123.944514,10.323786]}},{"properties":{"fisheries":0,"school name":"Subangdaku Tech-Voc HS (Mandaue City CNHS - Subangdaku NHS Ext.)","latitude":10.3202,"region":"Region VII","muni":"MANDAUE CITY","techvoctype1":1,"techvoctype":"Arts and Trade","arts and trade":1,"sch.id":303202,"division":"Mandaue City","agriculture":0,"total tech voc":1,"longitude":123.928,"id":"agxnjns33b4k","province":"CEBU"},"type":"Feature","geometry":{"type":"Point","coordinates":[123.928,10.3202]}},{"properties":{"fisheries":0,"school name":"GUIHULNGAN NATIONAL AGRICULTURAL SCHOOL","latitude":10.1609,"region":"Region VII","muni":"CITY OF GUIHULNGAN","techvoctype1":2,"techvoctype":"Agri","arts and trade":0,"sch.id":303230,"division":"Guihulngan City","agriculture":1,"total tech voc":1,"longitude":123.154349,"id":"agxnjnrxa88k","province":"NEGROS ORIENTAL"},"type":"Feature","geometry":{"type":"Point","coordinates":[123.154349,10.1609]}},{"properties":{"fisheries":0,"school name":"Biliran NAHS","latitude":11.583315,"region":"Region VIII","muni":"BILIRAN","techvoctype1":2,"techvoctype":"Agri","arts and trade":0,"sch.id":303320,"division":"Biliran","agriculture":1,"total tech voc":1,"longitude":124.464188,"id":"agxnjnz6u5nn","province":"BILIRAN"},"type":"Feature","geometry":{"type":"Point","coordinates":[124.464188,11.583315]}},{"properties":{"fisheries":0,"school name":"Cabucgayan NSAT","latitude":11.47545,"region":"Region VIII","muni":"CABUCGAYAN","techvoctype1":1,"techvoctype":"Arts and Trade","arts and trade":1,"sch.id":303322,"division":"Biliran","agriculture":0,"total tech voc":1,"longitude":124.579314,"id":"agxnjo0k5rh1","province":"BILIRAN"},"type":"Feature","geometry":{"type":"Point","coordinates":[124.579314,11.47545]}},{"properties":{"fisheries":0,"school name":"Culaba NVS","latitude":11.768758,"region":"Region VIII","muni":"CULABA","techvoctype1":2,"techvoctype":"Agri","arts and trade":0,"sch.id":303324,"division":"Biliran","agriculture":1,"total tech voc":1,"longitude":124.340523,"id":"agxnjo07frpc","province":"BILIRAN"},"type":"Feature","geometry":{"type":"Point","coordinates":[124.340523,11.768758]}},{"properties":{"fisheries":0,"school name":"Maripipi NVS","latitude":11.757126,"region":"Region VIII","muni":"MARIPIPI","techvoctype1":1,"techvoctype":"Arts and Trade","arts and trade":1,"sch.id":303329,"division":"Biliran","agriculture":0,"total tech voc":1,"longitude":124.342575,"id":"agxnjnwuu7gh","province":"BILIRAN"},"type":"Feature","geometry":{"type":"Point","coordinates":[124.342575,11.757126]}},{"properties":{"fisheries":1,"school name":"Naval School of Fisheries","latitude":11.551733,"region":"Region VIII","muni":"NAVAL (Capital)","techvoctype1":3,"techvoctype":"Fisheries","arts and trade":0,"sch.id":303331,"division":"Biliran","agriculture":0,"total tech voc":1,"longitude":124.417389,"id":"agxnjnspx6hx","province":"BILIRAN"},"type":"Feature","geometry":{"type":"Point","coordinates":[124.417389,11.551733]}},{"properties":{"fisheries":0,"school name":"Gen. MacArthur NAS","latitude":11.221166,"region":"Region VIII","muni":"GENERAL MACARTHUR","techvoctype1":2,"techvoctype":"Agri","arts and trade":0,"sch.id":303501,"division":"Eastern Samar","agriculture":1,"total tech voc":1,"longitude":125.530555,"id":"agxnjnv9qjd2","province":"EASTERN SAMAR"},"type":"Feature","geometry":{"type":"Point","coordinates":[125.530555,11.221166]}},{"properties":{"fisheries":0,"school name":"Salcedo Vocational HS","latitude":11.147,"region":"Region VIII","muni":"SALCEDO","techvoctype1":2,"techvoctype":"Agri","arts and trade":0,"sch.id":313509,"division":"Eastern Samar","agriculture":1,"total tech voc":1,"longitude":125.665001,"id":"agxnjnvkud5b","province":"EASTERN SAMAR"},"type":"Feature","geometry":{"type":"Point","coordinates":[125.665001,11.147]}},{"properties":{"fisheries":1,"school name":"Bato SOF","latitude":10.321999,"region":"Region VIII","muni":"BATO","techvoctype1":3,"techvoctype":"Fisheries","arts and trade":0,"sch.id":303347,"division":"Leyte","agriculture":0,"total tech voc":1,"longitude":124.792464,"id":"agxnjo14ppzd","province":"LEYTE"},"type":"Feature","geometry":{"type":"Point","coordinates":[124.792464,10.321999]}},{"properties":{"fisheries":0,"school name":"Calubian NHS (Calubian Nat'l. Voc'l. School)","latitude":11.438934,"region":"Region VIII","muni":"CALUBIAN","techvoctype1":2,"techvoctype":"Agri","arts and trade":0,"sch.id":303358,"division":"Leyte","agriculture":1,"total tech voc":1,"longitude":124.431166,"id":"agxnjnzg7a5d","province":"LEYTE"},"type":"Feature","geometry":{"type":"Point","coordinates":[124.431166,11.438934]}},{"properties":{"fisheries":1,"school name":"Carigara School of Fisheries","latitude":11.30258,"region":"Region VIII","muni":"CARIGARA","techvoctype1":3,"techvoctype":"Fisheries","arts and trade":0,"sch.id":303362,"division":"Leyte","agriculture":0,"total tech voc":1,"longitude":124.709043,"id":"agxnjo36k24s","province":"LEYTE"},"type":"Feature","geometry":{"type":"Point","coordinates":[124.709043,11.30258]}},{"properties":{"fisheries":1,"school name":"Dr. Geronimo B. Zaldivar MSOF","latitude":10.913954,"region":"Region VIII","muni":"ALBUERA","techvoctype1":3,"techvoctype":"Fisheries","arts and trade":0,"sch.id":303368,"division":"Leyte","agriculture":0,"total tech voc":1,"longitude":124.695328,"id":"agxnjo3trxob","province":"LEYTE"},"type":"Feature","geometry":{"type":"Point","coordinates":[124.695328,10.913954]}},{"properties":{"fisheries":0,"school name":"Hilongos NVS","latitude":10.368393,"region":"Region VIII","muni":"HILONGOS","techvoctype1":1,"techvoctype":"Arts and Trade","arts and trade":1,"sch.id":303374,"division":"Leyte","agriculture":0,"total tech voc":1,"longitude":124.755529,"id":"agxnjnu6skys","province":"LEYTE"},"type":"Feature","geometry":{"type":"Point","coordinates":[124.755529,10.368393]}},{"properties":{"fisheries":0,"school name":"Leyte Agro-Ind'L Sch.","latitude":11.370945,"region":"Region VIII","muni":"LEYTE","techvoctype1":2,"techvoctype":"Agri","arts and trade":0,"sch.id":303387,"division":"Leyte","agriculture":1,"total tech voc":1,"longitude":124.487238,"id":"agxnjnxcr77n","province":"LEYTE"},"type":"Feature","geometry":{"type":"Point","coordinates":[124.487238,11.370945]}},{"properties":{"fisheries":0,"school name":"Tanauan Sch. Of Craftsmanship &amp; Home Industries (LIT-Tanauan Campus)Campus","latitude":11.10699,"region":"Region VIII","muni":"TANAUAN","techvoctype1":1,"techvoctype":"Arts and Trade","arts and trade":1,"sch.id":303388,"division":"Leyte","agriculture":0,"total tech voc":1,"longitude":125.015144,"id":"agxnjnpsjqj3","province":"LEYTE"},"type":"Feature","geometry":{"type":"Point","coordinates":[125.015144,11.10699]}},{"properties":{"fisheries":1,"school name":"Daniel Z. Romualdez State Comprehensive School of Fisheries","latitude":11.044572,"region":"Region VIII","muni":"TOLOSA","techvoctype1":3,"techvoctype":"Fisheries","arts and trade":0,"sch.id":303391,"division":"Leyte","agriculture":0,"total tech voc":1,"longitude":125.036773,"id":"agxnjnv8wcws","province":"LEYTE"},"type":"Feature","geometry":{"type":"Point","coordinates":[125.036773,11.044572]}},{"properties":{"fisheries":0,"school name":"Marcelino R. Veloso NHS (Marcelino R. Veloso NHS)","latitude":11.302588,"region":"Region VIII","muni":"TABANGO","techvoctype1":1,"techvoctype":"Arts and Trade","arts and trade":1,"sch.id":303403,"division":"Leyte","agriculture":0,"total tech voc":1,"longitude":124.378337,"id":"agxnjntnk4ks","province":"LEYTE"},"type":"Feature","geometry":{"type":"Point","coordinates":[124.378337,11.302588]}},{"properties":{"fisheries":0,"school name":"Merida VS","latitude":10.907674,"region":"Region VIII","muni":"MERIDA","techvoctype1":1,"techvoctype":"Arts and Trade","arts and trade":1,"sch.id":303408,"division":"Leyte","agriculture":0,"total tech voc":1,"longitude":124.537903,"id":"agxnjo468rus","province":"LEYTE"},"type":"Feature","geometry":{"type":"Point","coordinates":[124.537903,10.907674]}},{"properties":{"fisheries":0,"school name":"Allen NHS","latitude":12.502317,"region":"Region VIII","muni":"ALLEN","techvoctype1":1,"techvoctype":"Arts and Trade","arts and trade":1,"sch.id":303531,"division":"Northern Samar","agriculture":0,"total tech voc":1,"longitude":124.286756,"id":"agxnjnwc75lw","province":"NORTHERN SAMAR"},"type":"Feature","geometry":{"type":"Point","coordinates":[124.286756,12.502317]}},{"properties":{"fisheries":0,"school name":"Catubig Valley NHS","latitude":12.409,"region":"Region VIII","muni":"CATUBIG","techvoctype1":2,"techvoctype":"Agri","arts and trade":0,"sch.id":303544,"division":"Northern Samar","agriculture":1,"total tech voc":1,"longitude":125.054001,"id":"agxnjo0gfg7y","province":"NORTHERN SAMAR"},"type":"Feature","geometry":{"type":"Point","coordinates":[125.054001,12.409]}},{"properties":{"fisheries":0,"school name":"San Jose Technical HS","latitude":12.5311,"region":"Region VIII","muni":"SAN JOSE","techvoctype1":1,"techvoctype":"Arts and Trade","arts and trade":1,"sch.id":303580,"division":"Northern Samar","agriculture":0,"total tech voc":1,"longitude":124.487,"id":"agxnjnzqwuth","province":"NORTHERN SAMAR"},"type":"Feature","geometry":{"type":"Point","coordinates":[124.487,12.5311]}},{"properties":{"fisheries":0,"school name":"Maasin NVHS","latitude":10.135236,"region":"Region VIII","muni":"CITY OF MAASIN (Capital)","techvoctype1":1,"techvoctype":"Arts and Trade","arts and trade":1,"sch.id":303467,"division":"Maasin City","agriculture":0,"total tech voc":1,"longitude":124.830048,"id":"agxnjnumyml5","province":"SOUTHERN LEYTE"},"type":"Feature","geometry":{"type":"Point","coordinates":[124.830048,10.135236]}},{"properties":{"fisheries":0,"school name":"Anahawan National Vocational High School","latitude":10.257092,"region":"Region VIII","muni":"ANAHAWAN","techvoctype1":1,"techvoctype":"Arts and Trade","arts and trade":1,"sch.id":303444,"division":"Southern Leyte","agriculture":0,"total tech voc":1,"longitude":125.247625,"id":"agxnjnopxvmi","province":"SOUTHERN LEYTE"},"type":"Feature","geometry":{"type":"Point","coordinates":[125.247625,10.257092]}},{"properties":{"fisheries":0,"school name":"Pintuyan National Vocational High School","latitude":9.942179,"region":"Region VIII","muni":"PINTUYAN","techvoctype1":1,"techvoctype":"Arts and Trade","arts and trade":1,"sch.id":303477,"division":"Southern Leyte","agriculture":0,"total tech voc":1,"longitude":125.251778,"id":"agxnjnrpyzl9","province":"SOUTHERN LEYTE"},"type":"Feature","geometry":{"type":"Point","coordinates":[125.251778,9.942179]}},{"properties":{"fisheries":0,"school name":"Silago NVHS","latitude":10.530598,"region":"Region VIII","muni":"SILAGO","techvoctype1":1,"techvoctype":"Arts and Trade","arts and trade":1,"sch.id":303486,"division":"Southern Leyte","agriculture":0,"total tech voc":1,"longitude":125.161552,"id":"agxnjnogo4sf","province":"SOUTHERN LEYTE"},"type":"Feature","geometry":{"type":"Point","coordinates":[125.161552,10.530598]}},{"properties":{"fisheries":0,"school name":"Villa Jacinta NVHS","latitude":10.040528,"region":"Region VIII","muni":"MACROHON","techvoctype1":1,"techvoctype":"Arts and Trade","arts and trade":1,"sch.id":303492,"division":"Southern Leyte","agriculture":0,"total tech voc":1,"longitude":124.979179,"id":"agxnjo31vpi7","province":"SOUTHERN LEYTE"},"type":"Feature","geometry":{"type":"Point","coordinates":[124.979179,10.040528]}},{"properties":{"fisheries":1,"school name":"Bontoc National High School","latitude":10.467778,"region":"Region VIII","muni":"BONTOC","techvoctype1":3,"techvoctype":"Fisheries","arts and trade":0,"sch.id":313403,"division":"Southern Leyte","agriculture":0,"total tech voc":1,"longitude":124.729167,"id":"agxnjnpre91p","province":"SOUTHERN LEYTE"},"type":"Feature","geometry":{"type":"Point","coordinates":[124.729167,10.467778]}},{"properties":{"fisheries":1,"school name":"R. Lentejas Mem. School Of Fisheries","latitude":12.093962,"region":"Region VIII","muni":"CALBAYOG CITY","techvoctype1":3,"techvoctype":"Fisheries","arts and trade":0,"sch.id":303649,"division":"Calbayog City","agriculture":0,"total tech voc":1,"longitude":124.500504,"id":"agxnjnr2eghu","province":"WESTERN SAMAR"},"type":"Feature","geometry":{"type":"Point","coordinates":[124.500504,12.093962]}},{"properties":{"fisheries":1,"school name":"Clarencio Calagos Mem SOF","latitude":12.035956,"region":"Region VIII","muni":"SANTA MARGARITA","techvoctype1":3,"techvoctype":"Fisheries","arts and trade":0,"sch.id":303599,"division":"Samar (Western Samar)","agriculture":0,"total tech voc":1,"longitude":124.663744,"id":"agxnjnq07azr","province":"WESTERN SAMAR"},"type":"Feature","geometry":{"type":"Point","coordinates":[124.663744,12.035956]}},{"properties":{"fisheries":0,"school name":"Bunawan Agri. HS","latitude":8.300095,"region":"Region X","muni":"ILIGAN CITY","techvoctype1":2,"techvoctype":"Agri","arts and trade":0,"sch.id":304140,"division":"Iligan City","agriculture":1,"total tech voc":1,"longitude":124.30171,"id":"agxnjnxa7nj7","province":"LANAO DEL NORTE"},"type":"Feature","geometry":{"type":"Point","coordinates":[124.30171,8.300095]}},{"properties":{"fisheries":0,"school name":"Aloran Trade HS","latitude":8.41278,"region":"Region X","muni":"ALORAN","techvoctype1":1,"techvoctype":"Arts and Trade","arts and trade":1,"sch.id":304024,"division":"Misamis Occidental","agriculture":0,"total tech voc":1,"longitude":123.823111,"id":"agxnjo1597mm","province":"MISAMIS OCCIDENTAL"},"type":"Feature","geometry":{"type":"Point","coordinates":[123.823111,8.41278]}},{"properties":{"fisheries":0,"school name":"Ozamiz City School of Arts and Trades","latitude":8.163611,"region":"Region X","muni":"OZAMIS CITY","techvoctype1":1,"techvoctype":"Arts and Trade","arts and trade":1,"sch.id":304168,"division":"Ozamis City","agriculture":0,"total tech voc":1,"longitude":123.860833,"id":"agxnjnpq70sd","province":"MISAMIS OCCIDENTAL"},"type":"Feature","geometry":{"type":"Point","coordinates":[123.860833,8.163611]}},{"properties":{"fisheries":0,"school name":"Kinoguitan Nat. Agr'l. HS","latitude":8.990313,"region":"Region X","muni":"KINOGUITAN","techvoctype1":2,"techvoctype":"Agri","arts and trade":0,"sch.id":304077,"division":"Misamis Oriental","agriculture":1,"total tech voc":1,"longitude":124.799157,"id":"agxnjnra0mgv","province":"MISAMIS ORIENTAL"},"type":"Feature","geometry":{"type":"Point","coordinates":[124.799157,8.990313]}},{"properties":{"fisheries":0,"school name":"Opol NSTS","latitude":8.517222,"region":"Region X","muni":"OPOL","techvoctype1":1,"techvoctype":"Arts and Trade","arts and trade":1,"sch.id":304094,"division":"Misamis Oriental","agriculture":0,"total tech voc":1,"longitude":124.575833,"id":"agxnjnw1nlz1","province":"MISAMIS ORIENTAL"},"type":"Feature","geometry":{"type":"Point","coordinates":[124.575833,8.517222]}},{"properties":{"fisheries":0,"school name":"Asuncion NHS","latitude":7.535993,"region":"Region XI","muni":"ASUNCION (SAUG)","techvoctype1":1,"techvoctype":"Arts and Trade","arts and trade":1,"sch.id":304217,"division":"Davao del Norte","agriculture":0,"total tech voc":1,"longitude":125.759001,"id":"agxnjnz9mc8b","province":"DAVAO DEL NORTE"},"type":"Feature","geometry":{"type":"Point","coordinates":[125.759001,7.535993]}},{"properties":{"fisheries":0,"school name":"Carmen NHS","latitude":7.358908,"region":"Region XI","muni":"CARMEN","techvoctype1":1,"techvoctype":"Arts and Trade","arts and trade":1,"sch.id":304222,"division":"Davao del Norte","agriculture":0,"total tech voc":1,"longitude":125.707229,"id":"agxnjo46nbs0","province":"DAVAO DEL NORTE"},"type":"Feature","geometry":{"type":"Point","coordinates":[125.707229,7.358908]}},{"properties":{"fisheries":0,"school name":"Tagum National Trade Sschool","latitude":7.420212,"region":"Region XI","muni":"CITY OF TAGUM (Capital)","techvoctype1":1,"techvoctype":"Arts and Trade","arts and trade":1,"sch.id":304261,"division":"Tagum City","agriculture":0,"total tech voc":1,"longitude":125.826658,"id":"agxnjo1lfqvq","province":"DAVAO DEL NORTE"},"type":"Feature","geometry":{"type":"Point","coordinates":[125.826658,7.420212]}},{"properties":{"fisheries":0,"school name":"Baguio HS Of Agriculture","latitude":7.172938,"region":"Region XI","muni":"DAVAO CITY","techvoctype1":2,"techvoctype":"Agri","arts and trade":0,"sch.id":304342,"division":"Davao City","agriculture":1,"total tech voc":1,"longitude":125.405345,"id":"agxnjnv6i4yh","province":"DAVAO DEL SUR"},"type":"Feature","geometry":{"type":"Point","coordinates":[125.405345,7.172938]}},{"properties":{"fisheries":0,"school name":"Elias P. Dacudao Gumalang School of Home Industries","latitude":7.212247,"region":"Region XI","muni":"DAVAO CITY","techvoctype1":1,"techvoctype":"Arts and Trade","arts and trade":1,"sch.id":304344,"division":"Davao City","agriculture":0,"total tech voc":1,"longitude":125.405073,"id":"agxnjnz0qprz","province":"DAVAO DEL SUR"},"type":"Feature","geometry":{"type":"Point","coordinates":[125.405073,7.212247]}},{"properties":{"fisheries":0,"school name":"Marilog HS Of Agriculture","latitude":7.483796,"region":"Region XI","muni":"DAVAO CITY","techvoctype1":2,"techvoctype":"Agri","arts and trade":0,"sch.id":304381,"division":"Davao City","agriculture":1,"total tech voc":1,"longitude":125.257015,"id":"agxnjo00x51i","province":"DAVAO DEL SUR"},"type":"Feature","geometry":{"type":"Point","coordinates":[125.257015,7.483796]}},{"properties":{"fisheries":0,"school name":"Digos City NHS (Davao Del Sur NHS)","latitude":6.750408,"region":"Region XI","muni":"CITY OF DIGOS (Capital)","techvoctype1":1,"techvoctype":"Arts and Trade","arts and trade":1,"sch.id":304400,"division":"Digos City","agriculture":0,"total tech voc":1,"longitude":125.357255,"id":"agxnjo1sfhjz","province":"DAVAO DEL SUR"},"type":"Feature","geometry":{"type":"Point","coordinates":[125.357255,6.750408]}},{"properties":{"fisheries":0,"school name":"Cateel Voc.HS","latitude":7.789444,"region":"Region XI","muni":"CATEEL","techvoctype1":1,"techvoctype":"Arts and Trade","arts and trade":1,"sch.id":304311,"division":"Davao Oriental","agriculture":0,"total tech voc":1,"longitude":126.445278,"id":"agxnjo23m0uj","province":"DAVAO ORIENTAL"},"type":"Feature","geometry":{"type":"Point","coordinates":[126.445278,7.789444]}},{"properties":{"fisheries":0,"school name":"E. Moralizon NVHS","latitude":7.214229,"region":"Region XI","muni":"MANAY","techvoctype1":1,"techvoctype":"Arts and Trade","arts and trade":1,"sch.id":304315,"division":"Davao Oriental","agriculture":0,"total tech voc":1,"longitude":126.537278,"id":"agxnjnxlign0","province":"DAVAO ORIENTAL"},"type":"Feature","geometry":{"type":"Point","coordinates":[126.537278,7.214229]}},{"properties":{"fisheries":0,"school name":"Lupon Vocational HS","latitude":6.898102,"region":"Region XI","muni":"LUPON","techvoctype1":1,"techvoctype":"Arts and Trade","arts and trade":1,"sch.id":304319,"division":"Mati City","agriculture":0,"total tech voc":1,"longitude":126.008125,"id":"agxnjnsqlmc7","province":"DAVAO ORIENTAL"},"type":"Feature","geometry":{"type":"Point","coordinates":[126.008125,6.898102]}},{"properties":{"fisheries":0,"school name":"Mati School of Arts and Trade","latitude":6.955481,"region":"Region XI","muni":"CITY OF MATI (Capital)","techvoctype1":1,"techvoctype":"Arts and Trade","arts and trade":1,"sch.id":304326,"division":"Mati City","agriculture":0,"total tech voc":1,"longitude":126.222383,"id":"agxnjo36htth","province":"DAVAO ORIENTAL"},"type":"Feature","geometry":{"type":"Point","coordinates":[126.222383,6.955481]}},{"properties":{"fisheries":0,"school name":"Taguibo Agricultural Vocational High School","latitude":6.953055,"region":"Region XI","muni":"CITY OF MATI (Capital)","techvoctype1":2,"techvoctype":"Agri","arts and trade":0,"sch.id":304338,"division":"Mati City","agriculture":1,"total tech voc":1,"longitude":126.21611,"id":"agxnjo1wa181","province":"DAVAO ORIENTAL"},"type":"Feature","geometry":{"type":"Point","coordinates":[126.21611,6.953055]}},{"properties":{"fisheries":0,"school name":"Canizares NHS","latitude":7.214526,"region":"Region XII","muni":"COTABATO CITY","techvoctype1":1,"techvoctype":"Arts and Trade","arts and trade":1,"sch.id":304628,"division":"Cotabato City","agriculture":0,"total tech voc":1,"longitude":124.244979,"id":"agxnjnqkr5rf","province":"CITY OF COTABATO"},"type":"Feature","geometry":{"type":"Point","coordinates":[124.244979,7.214526]}},{"properties":{"fisheries":0,"school name":"Malasila National Vocational and Technological High School","latitude":6.942196,"region":"Region XII","muni":"MAKILALA","techvoctype1":1,"techvoctype":"Arts and Trade","arts and trade":1,"sch.id":304469,"division":"North Cotabato","agriculture":0,"total tech voc":1,"longitude":125.12803,"id":"agxnjo2bgim3","province":"NORTH COTABATO"},"type":"Feature","geometry":{"type":"Point","coordinates":[125.12803,6.942196]}},{"properties":{"fisheries":0,"school name":"Kling National High School","latitude":5.93888,"region":"Region XII","muni":"KIAMBA","techvoctype1":1,"techvoctype":"Arts and Trade","arts and trade":1,"sch.id":304529,"division":"Sarangani","agriculture":0,"total tech voc":1,"longitude":124.721444,"id":"agxnjnsmdi02","province":"SARANGANI"},"type":"Feature","geometry":{"type":"Point","coordinates":[124.721444,5.93888]}},{"properties":{"fisheries":0,"school name":"Malalag NHS","latitude":6.065833,"region":"Region XII","muni":"MAITUM","techvoctype1":2,"techvoctype":"Agri","arts and trade":0,"sch.id":304534,"division":"Sarangani","agriculture":1,"total tech voc":1,"longitude":124.489722,"id":"agxnjo2xb0pm","province":"SARANGANI"},"type":"Feature","geometry":{"type":"Point","coordinates":[124.489722,6.065833]}},{"properties":{"fisheries":1,"school name":"Bula National School of Fisheries","latitude":6.103056,"region":"Region XII","muni":"GENERAL SANTOS CITY (DADIANGAS)","techvoctype1":3,"techvoctype":"Fisheries","arts and trade":0,"sch.id":304639,"division":"General Santos City","agriculture":0,"total tech voc":1,"longitude":125.194722,"id":"agxnjnxcv0tk","province":"SOUTH COTABATO"},"type":"Feature","geometry":{"type":"Point","coordinates":[125.194722,6.103056]}},{"properties":{"fisheries":0,"school name":"GSC Nat'l. Sec. Sch. Of Arts &amp; Trades","latitude":6.13196,"region":"Region XII","muni":"GENERAL SANTOS CITY (DADIANGAS)","techvoctype1":1,"techvoctype":"Arts and Trade","arts and trade":1,"sch.id":304655,"division":"General Santos City","agriculture":0,"total tech voc":1,"longitude":125.182385,"id":"agxnjnof67nw","province":"SOUTH COTABATO"},"type":"Feature","geometry":{"type":"Point","coordinates":[125.182385,6.13196]}}],"is_temporal":false,"author":{"url":null,"metadata":null,"contact_name":null,"contact_address":null,"source":null,"contact_phone":null},"source":null,"pagination":{"sort":null,"start":0,"total":175,"limit":1000000},"state":"complete","tags":"","published":"2014-08-16T14:16:28-04:00","id":391220}