{"type":"FeatureCollection","data_type":"Dataset","url_type":null,"permissions":[{"permissions":{"download":true,"view":true},"group_id":"everyone"}],"classification":null,"title":"\nsmiksa's places\n","count":22,"stream_id":40108,"contributor":{"url":"http://geocommons.com/users/11444","name":"platial"},"data_attributes":null,"calculation_params":null,"icon_link":null,"link":"http://geocommons.com/overlays/40108.json","extent":[-122.331,-45.88,170.48,56.9544],"geometry_types":["point"],"unique_name":null,"name":"\nsmiksa's places\n","feature_count":22,"description":"\nA Map by Smiksa\n\n\n","next_feature":null,"is_raster":false,"short_classification":"Y","stats":{},"features":[{"properties":{"name":"Barbara S.","description":"Posted by Smiksaminneapliswhat a fun idea<a title=\"Built for Community Mapping\" href=\"http://www.platial.com\"><img src=\"http://media.geocommons.com/platial/images/logotype_small.jpg\"></a>","id":"a6g5jpj4d4a5"},"type":"Feature","geometry":{"type":"Point","coordinates":[-93.264351,44.977482]}},{"properties":{"name":"Bernadette","description":"Posted by Smiksa<img src=\"http://media.geocommons.com/platial/img/2009/12/1/tn_BB11.jpg\">adelaideHi<a title=\"Built for Community Mapping\" href=\"http://www.platial.com\"><img src=\"http://media.geocommons.com/platial/images/logotype_small.jpg\"></a>","id":"a6g5jph9vygt"},"type":"Feature","geometry":{"type":"Point","coordinates":[138.600006,-34.93]}},{"properties":{"name":"Bullwinkle","description":"Posted by Smiksalos angeles<a title=\"Built for Community Mapping\" href=\"http://www.platial.com\"><img src=\"http://media.geocommons.com/platial/images/logotype_small.jpg\"></a>","id":"a6g5jpignmcj"},"type":"Feature","geometry":{"type":"Point","coordinates":[-118.242778,34.052222]}},{"properties":{"name":"Cathy","description":"Posted by Smiksaphoenix<a title=\"Built for Community Mapping\" href=\"http://www.platial.com\"><img src=\"http://media.geocommons.com/platial/images/logotype_small.jpg\"></a>","id":"a6g5jpgjvr04"},"type":"Feature","geometry":{"type":"Point","coordinates":[-112.073333,33.448333]}},{"properties":{"name":"Dorte Jakobsen","description":"Posted by Smiksa<img src=\"http://media.geocommons.com/platial/img/2009/12/1/Dorte_profil.jpg\">Thisted<a title=\"Built for Community Mapping\" href=\"http://www.platial.com\"><img src=\"http://media.geocommons.com/platial/images/logotype_small.jpg\"></a>","id":"a6g5jpelft32"},"type":"Feature","geometry":{"type":"Point","coordinates":[8.689602,56.954434]}},{"properties":{"name":"Dorte Jakobsen","description":"Posted by SmiksaThisted<a title=\"Built for Community Mapping\" href=\"http://www.platial.com\"><img src=\"http://media.geocommons.com/platial/images/logotype_small.jpg\"></a>","id":"a6g5jpks5vzt"},"type":"Feature","geometry":{"type":"Point","coordinates":[8.689602,56.954434]}},{"properties":{"name":"Gavin","description":"Posted by Smiksa<img src=\"http://media.geocommons.com/platial/img/2009/12/1/Gav2_0872.jpg\">seattleHi, Kerrie!<a title=\"Built for Community Mapping\" href=\"http://www.platial.com\"><img src=\"http://media.geocommons.com/platial/images/logotype_small.jpg\"></a>","id":"a6g5jpgsmpxu"},"type":"Feature","geometry":{"type":"Point","coordinates":[-122.330833,47.606389]}},{"properties":{"name":"IF THE DEAD RISE NOT, Philip Kerr","description":"Posted by Smiksa<img src=\"http://media.geocommons.com/platial/img/2009/12/1/if_the_dead_rise_not.jpg\">berlinadded by Kerrie<a title=\"Built for Community Mapping\" href=\"http://www.platial.com\"><img src=\"http://media.geocommons.com/platial/images/logotype_small.jpg\"></a>","id":"a6g5jpip24ab"},"type":"Feature","geometry":{"type":"Point","coordinates":[13.411895,52.523781]}},{"properties":{"name":"Jacki","description":"Posted by Smiksa<img src=\"http://media.geocommons.com/platial/img/2009/12/1/me_8_.jpg\">adelaide, South AustraliaHi from your Homestate :)<a title=\"Built for Community Mapping\" href=\"http://www.platial.com\"><img src=\"http://media.geocommons.com/platial/images/logotype_small.jpg\"></a>","id":"a6g5jposnafp"},"type":"Feature","geometry":{"type":"Point","coordinates":[138.613007,-34.918541]}},{"properties":{"name":"Jose I Escribano","description":"Posted by Smiksa<img src=\"http://media.geocommons.com/platial/img/2009/12/1/Jose_Ignacio_Escribano_2_.jpg\">maryd<a title=\"Built for Community Mapping\" href=\"http://www.platial.com\"><img src=\"http://media.geocommons.com/platial/images/logotype_small.jpg\"></a>","id":"a6g5jpjipfet"},"type":"Feature","geometry":{"type":"Point","coordinates":[-3.7032498,40.4167413]}},{"properties":{"name":"Jose I Escribano","description":"Posted by Smiksa<img src=\"http://media.geocommons.com/platial/img/2009/12/1/Jose_Ignacio_Escribano_3_.jpg\">madridHope this time Madrid can be shown correctly<a title=\"Built for Community Mapping\" href=\"http://www.platial.com\"><img src=\"http://media.geocommons.com/platial/images/logotype_small.jpg\"></a>","id":"a6g5jphulpsn"},"type":"Feature","geometry":{"type":"Point","coordinates":[-3.70327,40.416712]}},{"properties":{"name":"Karen M","description":"Posted by SmiksaRedditch<a title=\"Built for Community Mapping\" href=\"http://www.platial.com\"><img src=\"http://media.geocommons.com/platial/images/logotype_small.jpg\"></a>","id":"a6g5jppibzg7"},"type":"Feature","geometry":{"type":"Point","coordinates":[-1.933333,52.299999]}},{"properties":{"name":"Kerrie","description":"Posted by Smiksa<img src=\"http://media.geocommons.com/platial/img/2009/12/1/kerrie2_2_.png\">Paradise, AdelaideParadise is a north eastern suburb of Adelaide<a title=\"Built for Community Mapping\" href=\"http://www.platial.com\"><img src=\"http://media.geocommons.com/platial/images/logotype_small.jpg\"></a>","id":"a6g5jpqtwcwe"},"type":"Feature","geometry":{"type":"Point","coordinates":[138.668901,-34.873609]}},{"properties":{"name":"Lisa O'Donoghue","description":"Posted by SmiksaTownsville, Australia<a title=\"Built for Community Mapping\" href=\"http://www.platial.com\"><img src=\"http://media.geocommons.com/platial/images/logotype_small.jpg\"></a>","id":"a6g5jpics28p"},"type":"Feature","geometry":{"type":"Point","coordinates":[146.779998,-19.26]}},{"properties":{"name":"Margot Kinberg","description":"Posted by Smiksa<img src=\"http://media.geocommons.com/platial/img/2009/12/1/MKinberg1.jpg\">oceanside<a title=\"Built for Community Mapping\" href=\"http://www.platial.com\"><img src=\"http://media.geocommons.com/platial/images/logotype_small.jpg\"></a>","id":"a6g5jpi0ycwx"},"type":"Feature","geometry":{"type":"Point","coordinates":[-117.378611,33.195833]}},{"properties":{"name":"Maria","description":"Posted by Smiksa<img src=\"http://media.geocommons.com/platial/img/2009/12/1/bearorg80x80.jpg\">AustinHi Y\\'all<a title=\"Built for Community Mapping\" href=\"http://www.platial.com\"><img src=\"http://media.geocommons.com/platial/images/logotype_small.jpg\"></a>","id":"a6g5jpscpsur"},"type":"Feature","geometry":{"type":"Point","coordinates":[-97.742778,30.266944]}},{"properties":{"name":"Maxine","description":"Posted by Smiksa<img src=\"http://media.geocommons.com/platial/img/2009/12/1/Lighthouse.jpg\">Kingston, LondonNew computer so none of my images uploaded yet!<a title=\"Built for Community Mapping\" href=\"http://www.platial.com\"><img src=\"http://media.geocommons.com/platial/images/logotype_small.jpg\"></a>","id":"a6g5jpqxi9cm"},"type":"Feature","geometry":{"type":"Point","coordinates":[-0.300442,51.412305]}},{"properties":{"name":"Norman","description":"Posted by Smiksa<img src=\"http://media.geocommons.com/platial/img/2009/12/1/Photo_1_2.jpg\">ExeterI\\'m here.<a title=\"Built for Community Mapping\" href=\"http://www.platial.com\"><img src=\"http://media.geocommons.com/platial/images/logotype_small.jpg\"></a>","id":"a6g5jphgx1x4"},"type":"Feature","geometry":{"type":"Point","coordinates":[-3.533451,50.72192]}},{"properties":{"name":"Philip","description":"Posted by Smiksa<img src=\"http://media.geocommons.com/platial/img/2009/12/1/004_4.JPG\">Abbotsford, BC Canada<a title=\"Built for Community Mapping\" href=\"http://www.platial.com\"><img src=\"http://media.geocommons.com/platial/images/logotype_small.jpg\"></a>","id":"a6g5jpd4cua9"},"type":"Feature","geometry":{"type":"Point","coordinates":[-122.32884,49.05163]}},{"properties":{"name":"R. T.","description":"Posted by SmiksaPensacola Florida<a title=\"Built for Community Mapping\" href=\"http://www.platial.com\"><img src=\"http://media.geocommons.com/platial/images/logotype_small.jpg\"></a>","id":"a6g5jpsa87ry"},"type":"Feature","geometry":{"type":"Point","coordinates":[-87.212261,30.473413]}},{"properties":{"name":"Vanda Symon","description":"Posted by Smiksa<img src=\"http://media.geocommons.com/platial/img/2009/12/2/Vanda_4_Colour.jpg\">Dunedin, New Zealand<a title=\"Built for Community Mapping\" href=\"http://www.platial.com\"><img src=\"http://media.geocommons.com/platial/images/logotype_small.jpg\"></a>","id":"a6g5jpdzk9ku"},"type":"Feature","geometry":{"type":"Point","coordinates":[170.479995,-45.880001]}},{"properties":{"name":"raidergirl3","description":"Posted by Smiksa<img src=\"http://media.geocommons.com/platial/img/2009/12/1/pei_beach_rocks.jpg\">Prince Edward Island Canada<a title=\"Built for Community Mapping\" href=\"http://www.platial.com\"><img src=\"http://media.geocommons.com/platial/images/logotype_small.jpg\"></a>","id":"a6g5jpnbn85z"},"type":"Feature","geometry":{"type":"Point","coordinates":[-62.9158492,46.2190582]}}],"is_temporal":false,"author":{"url":"http://www.platial.com/map/794366","metadata":null,"contact_name":"smiksa","contact_address":null,"source":"platial:smiksa","contact_phone":null},"source":"http://www.platial.com/map/794366","pagination":{"sort":null,"start":0,"total":22,"limit":1000000},"state":"complete","tags":"platial,platial:id=794366,platial:user=smiksa","published":"2010-04-24T16:00:00Z","id":40108}