{"type":"FeatureCollection","data_type":"Dataset","url_type":null,"permissions":[{"permissions":{"download":true,"view":true},"group_id":"everyone"}],"classification":null,"title":"\nmrbimble's places\n","count":21,"stream_id":40591,"contributor":{"url":"http://geocommons.com/users/11444","name":"platial"},"data_attributes":null,"calculation_params":null,"icon_link":null,"link":"http://geocommons.com/overlays/40591.json","extent":[-121.076,38.8967,-72.4918,43.4848],"geometry_types":["point"],"unique_name":null,"name":"\nmrbimble's places\n","feature_count":21,"description":"\nA Map by Mrbimble\n\n\n","next_feature":null,"is_raster":false,"short_classification":"Y","stats":{},"features":[{"properties":{"name":"Bimblers Bash 10k","description":"Posted by MrbimbleStart location<a title=\"Built for Community Mapping\" href=\"http://www.platial.com\"><img src=\"http://media.geocommons.com/platial/images/logotype_small.jpg\"></a>","id":"a6i29msc08et"},"type":"Feature","geometry":{"type":"Point","coordinates":[-72.6969194412,41.2861591304]}},{"properties":{"name":"Bimblers Bash 10k","description":"Posted by Mrbimble<a title=\"Built for Community Mapping\" href=\"http://www.platial.com\"><img src=\"http://media.geocommons.com/platial/images/logotype_small.jpg\"></a>","id":"a6i29n1vmj4s"},"type":"Feature","geometry":{"type":"Point","coordinates":[-72.6969194412,41.2861591304]}},{"properties":{"name":"Bluff 50k #1&amp;5","description":"Posted by MrbimbleAid station 1 &amp; 5<a title=\"Built for Community Mapping\" href=\"http://www.platial.com\"><img src=\"http://media.geocommons.com/platial/images/logotype_small.jpg\"></a>","id":"a6i29my5ww2x"},"type":"Feature","geometry":{"type":"Point","coordinates":[-72.6849782467,41.3532479815]}},{"properties":{"name":"Bluff 50k #3","description":"Posted by MrbimbleAid station 3<a title=\"Built for Community Mapping\" href=\"http://www.platial.com\"><img src=\"http://media.geocommons.com/platial/images/logotype_small.jpg\"></a>","id":"a6i29mwd6vnm"},"type":"Feature","geometry":{"type":"Point","coordinates":[-72.6893234253,41.4194954073]}},{"properties":{"name":"Bluff 50k #4","description":"Posted by MrbimbleAid station 4<a title=\"Built for Community Mapping\" href=\"http://www.platial.com\"><img src=\"http://media.geocommons.com/platial/images/logotype_small.jpg\"></a>","id":"a6i29mmzv42s"},"type":"Feature","geometry":{"type":"Point","coordinates":[-72.6735305786,41.4166633633]}},{"properties":{"name":"Bluff Head","description":"Posted by MrbimbleAid station 2 for Bluff 50k<a title=\"Built for Community Mapping\" href=\"http://www.platial.com\"><img src=\"http://media.geocommons.com/platial/images/logotype_small.jpg\"></a>","id":"a6i29mqw7emd"},"type":"Feature","geometry":{"type":"Point","coordinates":[-72.6960611343,41.408745858]}},{"properties":{"name":"Cockaponset State Forest","description":"Posted by Mrbimble<img src=\"http://media.geocommons.com/platial/images/categories/ICON_nature_verD.gif\">Â R148 Entrance<a title=\"Built for Community Mapping\" href=\"http://www.platial.com\"><img src=\"http://media.geocommons.com/platial/images/logotype_small.jpg\"></a>","id":"a6i29mre60gz"},"type":"Feature","geometry":{"type":"Point","coordinates":[-72.5148081779,41.3915235619]}},{"properties":{"name":"Lake Hammonasset","description":"Posted by MrbimbleGreat circular trail around the lake(RWA permit required)<a title=\"Built for Community Mapping\" href=\"http://www.platial.com\"><img src=\"http://media.geocommons.com/platial/images/logotype_small.jpg\"></a>","id":"a6i29mxzrp5g"},"type":"Feature","geometry":{"type":"Point","coordinates":[-72.6076233387,41.3585389853]}},{"properties":{"name":"Leadville 100","description":"Posted by MrbimbleLeadville, CO<a title=\"Built for Community Mapping\" href=\"http://www.platial.com\"><img src=\"http://media.geocommons.com/platial/images/logotype_small.jpg\"></a>","id":"a6i29mmp4cgk"},"type":"Feature","geometry":{"type":"Point","coordinates":[-106.291944,39.250833]}},{"properties":{"name":"Rockland Preserve","description":"Posted by MrbimbleTrail head parking lot<a title=\"Built for Community Mapping\" href=\"http://www.platial.com\"><img src=\"http://media.geocommons.com/platial/images/logotype_small.jpg\"></a>","id":"a6i29mom1u2t"},"type":"Feature","geometry":{"type":"Point","coordinates":[-72.6518583298,41.4242902911]}},{"properties":{"name":"Saltonstall Preserve","description":"Posted by MrbimbleRWA permit required<a title=\"Built for Community Mapping\" href=\"http://www.platial.com\"><img src=\"http://media.geocommons.com/platial/images/logotype_small.jpg\"></a>","id":"a6i29mztiwee"},"type":"Feature","geometry":{"type":"Point","coordinates":[-72.8266954422,41.3090186731]}},{"properties":{"name":"Supply Pond","description":"Posted by MrbimbleRegular training meeting point<a title=\"Built for Community Mapping\" href=\"http://www.platial.com\"><img src=\"http://media.geocommons.com/platial/images/logotype_small.jpg\"></a>","id":"a6i29mnhs8t9"},"type":"Feature","geometry":{"type":"Point","coordinates":[-72.8045511246,41.2984443093]}},{"properties":{"name":"Title or search term","description":"Posted by MrbimbleLocation<a title=\"Built for Community Mapping\" href=\"http://www.platial.com\"><img src=\"http://media.geocommons.com/platial/images/logotype_small.jpg\"></a>","id":"a6i29mxy5lwh"},"type":"Feature","geometry":{"type":"Point","coordinates":[-79.63722,39.21389]}},{"properties":{"name":"Title or search term","description":"Posted by MrbimbleLocation<a title=\"Built for Community Mapping\" href=\"http://www.platial.com\"><img src=\"http://media.geocommons.com/platial/images/logotype_small.jpg\"></a>","id":"a6i29muurk61"},"type":"Feature","geometry":{"type":"Point","coordinates":[-79.63722,39.21389]}},{"properties":{"name":"Title or search term","description":"Posted by MrbimbleLocation<a title=\"Built for Community Mapping\" href=\"http://www.platial.com\"><img src=\"http://media.geocommons.com/platial/images/logotype_small.jpg\"></a>","id":"a6i29mmyncng"},"type":"Feature","geometry":{"type":"Point","coordinates":[-79.63722,39.21389]}},{"properties":{"name":"Vermont 100","description":"Posted by MrbimbleWest Windsor, VT<a title=\"Built for Community Mapping\" href=\"http://www.platial.com\"><img src=\"http://media.geocommons.com/platial/images/logotype_small.jpg\"></a>","id":"a6i29muy6td3"},"type":"Feature","geometry":{"type":"Point","coordinates":[-72.491789,43.484798]}},{"properties":{"name":"Wasatch 100","description":"Posted by MrbimbleKaysville, UT<a title=\"Built for Community Mapping\" href=\"http://www.platial.com\"><img src=\"http://media.geocommons.com/platial/images/logotype_small.jpg\"></a>","id":"a6i29mq8tgnv"},"type":"Feature","geometry":{"type":"Point","coordinates":[-111.937778,41.035278]}},{"properties":{"name":"Western States 100 Finish","description":"Posted by MrbimbleAuburn, CA<a title=\"Built for Community Mapping\" href=\"http://www.platial.com\"><img src=\"http://media.geocommons.com/platial/images/logotype_small.jpg\"></a>","id":"a6i29mzh1bcu"},"type":"Feature","geometry":{"type":"Point","coordinates":[-121.075833,38.896667]}},{"properties":{"name":"Westwoods","description":"Posted by MrbimbleDunk Rock Road Trail Head<a title=\"Built for Community Mapping\" href=\"http://www.platial.com\"><img src=\"http://media.geocommons.com/platial/images/logotype_small.jpg\"></a>","id":"a6i29mp1emun"},"type":"Feature","geometry":{"type":"Point","coordinates":[-72.7039575577,41.2868040792]}},{"properties":{"name":"Westwoods Woods","description":"Posted by MrbimbleDunk Rock Rd entrance<a title=\"Built for Community Mapping\" href=\"http://www.platial.com\"><img src=\"http://media.geocommons.com/platial/images/logotype_small.jpg\"></a>","id":"a6i29msgn4k9"},"type":"Feature","geometry":{"type":"Point","coordinates":[-72.7040433884,41.2869653154]}},{"properties":{"name":"supply pond","description":"Posted by MrbimbleLocation<a title=\"Built for Community Mapping\" href=\"http://www.platial.com\"><img src=\"http://media.geocommons.com/platial/images/logotype_small.jpg\"></a>","id":"a6i29mnw1sdq"},"type":"Feature","geometry":{"type":"Point","coordinates":[-79.63722,39.21389]}}],"is_temporal":false,"author":{"url":"http://www.platial.com/map/282985","metadata":null,"contact_name":"mrbimble","contact_address":null,"source":"platial:mrbimble","contact_phone":null},"source":"http://www.platial.com/map/282985","pagination":{"sort":null,"start":0,"total":21,"limit":1000000},"state":"complete","tags":"platial,platial:id=282985,platial:user=mrbimble","published":"2010-04-24T16:00:00Z","id":40591}