{"type":"FeatureCollection","data_type":"Dataset","url_type":null,"permissions":[{"permissions":{"download":true,"view":true},"group_id":"everyone"}],"classification":null,"title":"\nAIB fan map\n","count":20,"stream_id":40628,"contributor":{"url":"http://geocommons.com/users/11444","name":"platial"},"data_attributes":null,"calculation_params":null,"icon_link":null,"link":"http://geocommons.com/overlays/40628.json","extent":[-96.8087,25.7739,7.16189,62.3947],"geometry_types":["point"],"unique_name":null,"name":"\nAIB fan map\n","feature_count":20,"description":"\nA Map by Crazyinsomniac\n\n\n","next_feature":null,"is_raster":false,"short_classification":"Y","stats":{},"features":[{"properties":{"name":"AIB","description":"Posted by CrazyinsomniacGreenville, SC<a title=\"Built for Community Mapping\" href=\"http://www.platial.com\"><img src=\"http://media.geocommons.com/platial/images/logotype_small.jpg\"></a>","id":"a6jvr6i2mduk"},"type":"Feature","geometry":{"type":"Point","coordinates":[-82.394167,34.8525]}},{"properties":{"name":"Bree the Impaler","description":"Posted by Crazyinsomniacmiami<a title=\"Built for Community Mapping\" href=\"http://www.platial.com\"><img src=\"http://media.geocommons.com/platial/images/logotype_small.jpg\"></a>","id":"a6jvr693welu"},"type":"Feature","geometry":{"type":"Point","coordinates":[-80.193889,25.773889]}},{"properties":{"name":"Dennis","description":"Posted by Crazyinsomniac<img src=\"http://media.geocommons.com/platial/img/2008/06/2/dennis.jpg\">greenville<a title=\"Built for Community Mapping\" href=\"http://www.platial.com\"><img src=\"http://media.geocommons.com/platial/images/logotype_small.jpg\"></a>","id":"a6jvr686jhuz"},"type":"Feature","geometry":{"type":"Point","coordinates":[-82.394167,34.8525]}},{"properties":{"name":"I heart danny :)","description":"Posted by CrazyinsomniacSault Ste Marie<a title=\"Built for Community Mapping\" href=\"http://www.platial.com\"><img src=\"http://media.geocommons.com/platial/images/logotype_small.jpg\"></a>","id":"a6jvr6n8a6cy"},"type":"Feature","geometry":{"type":"Point","coordinates":[-84.35173,46.4923]}},{"properties":{"name":"Marcoo","description":"Posted by CrazyinsomniacRecklinghausen<a title=\"Built for Community Mapping\" href=\"http://www.platial.com\"><img src=\"http://media.geocommons.com/platial/images/logotype_small.jpg\"></a>","id":"a6jvr6fhmxaz"},"type":"Feature","geometry":{"type":"Point","coordinates":[7.16189,51.584897]}},{"properties":{"name":"Matt","description":"Posted by CrazyinsomniacGreer, SC<a title=\"Built for Community Mapping\" href=\"http://www.platial.com\"><img src=\"http://media.geocommons.com/platial/images/logotype_small.jpg\"></a>","id":"a6jvr67rg5t4"},"type":"Feature","geometry":{"type":"Point","coordinates":[-82.227222,34.938611]}},{"properties":{"name":"Matt Diaz","description":"Posted by CrazyinsomniacGreenville, SC<a title=\"Built for Community Mapping\" href=\"http://www.platial.com\"><img src=\"http://media.geocommons.com/platial/images/logotype_small.jpg\"></a>","id":"a6jvr6m30oho"},"type":"Feature","geometry":{"type":"Point","coordinates":[-82.394167,34.8525]}},{"properties":{"name":"Panama City","description":"Posted by CrazyinsomniacPanama City<a title=\"Built for Community Mapping\" href=\"http://www.platial.com\"><img src=\"http://media.geocommons.com/platial/images/logotype_small.jpg\"></a>","id":"a6jvr6iw24i5"},"type":"Feature","geometry":{"type":"Point","coordinates":[-85.601472,30.206863]}},{"properties":{"name":"Ryan","description":"Posted by Crazyinsomniac4 Brushy Creek Ridge<a title=\"Built for Community Mapping\" href=\"http://www.platial.com\"><img src=\"http://media.geocommons.com/platial/images/logotype_small.jpg\"></a>","id":"a6jvr6j2pmmx"},"type":"Feature","geometry":{"type":"Point","coordinates":[-82.290105,34.896279]}},{"properties":{"name":"Sara","description":"Posted by CrazyinsomniacInman<a title=\"Built for Community Mapping\" href=\"http://www.platial.com\"><img src=\"http://media.geocommons.com/platial/images/logotype_small.jpg\"></a>","id":"a6jvr6aadgqq"},"type":"Feature","geometry":{"type":"Point","coordinates":[-82.090792,35.048617]}},{"properties":{"name":"Simpsonville","description":"Posted by CrazyinsomniacSimpsonville South Carolina<a title=\"Built for Community Mapping\" href=\"http://www.platial.com\"><img src=\"http://media.geocommons.com/platial/images/logotype_small.jpg\"></a>","id":"a6jvr69s7fba"},"type":"Feature","geometry":{"type":"Point","coordinates":[-82.258209,34.729893]}},{"properties":{"name":"Talbert Soundworks","description":"Posted by Crazyinsomniaclexington SC<a title=\"Built for Community Mapping\" href=\"http://www.platial.com\"><img src=\"http://media.geocommons.com/platial/images/logotype_small.jpg\"></a>","id":"a6jvr6n7k3gi"},"type":"Feature","geometry":{"type":"Point","coordinates":[-81.234936,33.986208]}},{"properties":{"name":"Your music rules.","description":"Posted by CrazyinsomniacGreenville, SCCheck out our music on our website or search Seance of The Dead on myspace. Rock on.<a title=\"Built for Community Mapping\" href=\"http://www.platial.com\"><img src=\"http://media.geocommons.com/platial/images/logotype_small.jpg\"></a>","id":"a6jvr6gei9tu"},"type":"Feature","geometry":{"type":"Point","coordinates":[-82.394167,34.8525]}},{"properties":{"name":"Zach Smith","description":"Posted by Crazyinsomniac<img src=\"http://media.geocommons.com/platial/img/2008/12/0/Photo_3.jpg\">clover, SC<a title=\"Built for Community Mapping\" href=\"http://www.platial.com\"><img src=\"http://media.geocommons.com/platial/images/logotype_small.jpg\"></a>","id":"a6jvr6ll4au7"},"type":"Feature","geometry":{"type":"Point","coordinates":[-81.22652,35.11115]}},{"properties":{"name":"atlanta","description":"Posted by CrazyinsomniacAtlanta<a title=\"Built for Community Mapping\" href=\"http://www.platial.com\"><img src=\"http://media.geocommons.com/platial/images/logotype_small.jpg\"></a>","id":"a6jvr68h3eoq"},"type":"Feature","geometry":{"type":"Point","coordinates":[-84.388056,33.748889]}},{"properties":{"name":"dan","description":"Posted by CrazyinsomniacGreer, South Carolina<a title=\"Built for Community Mapping\" href=\"http://www.platial.com\"><img src=\"http://media.geocommons.com/platial/images/logotype_small.jpg\"></a>","id":"a6jvr6hvej0q"},"type":"Feature","geometry":{"type":"Point","coordinates":[-82.22773,34.93824]}},{"properties":{"name":"i love danny :)","description":"Posted by CrazyinsomniacCanada<a title=\"Built for Community Mapping\" href=\"http://www.platial.com\"><img src=\"http://media.geocommons.com/platial/images/logotype_small.jpg\"></a>","id":"a6jvr6j8v7n6"},"type":"Feature","geometry":{"type":"Point","coordinates":[-96.80872,62.394714]}},{"properties":{"name":"johnny","description":"Posted by Crazyinsomniacgreenville<a title=\"Built for Community Mapping\" href=\"http://www.platial.com\"><img src=\"http://media.geocommons.com/platial/images/logotype_small.jpg\"></a>","id":"a6jvr6e79g8v"},"type":"Feature","geometry":{"type":"Point","coordinates":[-82.394167,34.8525]}},{"properties":{"name":"p1 enemy","description":"Posted by Crazyinsomniaceasley<a title=\"Built for Community Mapping\" href=\"http://www.platial.com\"><img src=\"http://media.geocommons.com/platial/images/logotype_small.jpg\"></a>","id":"a6jvr6g0iy3o"},"type":"Feature","geometry":{"type":"Point","coordinates":[-82.604517,34.817477]}},{"properties":{"name":"wgarwr","description":"Posted by CrazyinsomniacLafayette, Laegh<a title=\"Built for Community Mapping\" href=\"http://www.platial.com\"><img src=\"http://media.geocommons.com/platial/images/logotype_small.jpg\"></a>","id":"a6jvr6cvnmqk"},"type":"Feature","geometry":{"type":"Point","coordinates":[-92.019722,30.223889]}}],"is_temporal":false,"author":{"url":"http://www.platial.com/map/194365","metadata":null,"contact_name":"crazyinsomniac","contact_address":null,"source":"platial:crazyinsomniac","contact_phone":null},"source":"http://www.platial.com/map/194365","pagination":{"sort":null,"start":0,"total":20,"limit":1000000},"state":"complete","tags":"platial,platial:id=194365,platial:user=crazyinsomniac","published":"2010-04-24T16:00:00Z","id":40628}