{"type":"FeatureCollection","data_type":"Dataset","url_type":null,"permissions":[{"permissions":{"download":true,"view":true},"group_id":"everyone"}],"classification":null,"title":"\nyarnloopie's places\n","count":18,"stream_id":41581,"contributor":{"url":"http://geocommons.com/users/11444","name":"platial"},"data_attributes":null,"calculation_params":null,"icon_link":null,"link":"http://geocommons.com/overlays/41581.json","extent":[-122.206,-33.87,151.21,52.5665],"geometry_types":["point"],"unique_name":null,"name":"\nyarnloopie's places\n","feature_count":18,"description":"\nA Map by Yarnloopie\n\n\n","next_feature":null,"is_raster":false,"short_classification":"Y","stats":{},"features":[{"properties":{"name":"AJ","description":"Posted by Yarnloopie<img src=\"http://media.geocommons.com/platial/img/2009/05/0/My_First_Sock_038.jpg\">Chicago, IL 60618I\\'m trying to get to it sooner rather than later so I the book can continue its journey!<a title=\"Built for Community Mapping\" href=\"http://www.platial.com\"><img src=\"http://media.geocommons.com/platial/images/logotype_small.jpg\"></a>","id":"a79zrmndpcrx"},"type":"Feature","geometry":{"type":"Point","coordinates":[-87.7074089,41.9464283]}},{"properties":{"name":"Anett Kiefer","description":"Posted by YarnloopieFalkensee<a title=\"Built for Community Mapping\" href=\"http://www.platial.com\"><img src=\"http://media.geocommons.com/platial/images/logotype_small.jpg\"></a>","id":"a79zrmph6nng"},"type":"Feature","geometry":{"type":"Point","coordinates":[13.105119,52.56652]}},{"properties":{"name":"Ann","description":"Posted by Yarnloopie18080http://sheepshots.blogspot.com<a title=\"Built for Community Mapping\" href=\"http://www.platial.com\"><img src=\"http://media.geocommons.com/platial/images/logotype_small.jpg\"></a>","id":"a79zrmzrakhf"},"type":"Feature","geometry":{"type":"Point","coordinates":[-75.632447,40.7289292]}},{"properties":{"name":"Charlene","description":"Posted by YarnloopieFoxborough, Ma<a title=\"Built for Community Mapping\" href=\"http://www.platial.com\"><img src=\"http://media.geocommons.com/platial/images/logotype_small.jpg\"></a>","id":"a79zrn250wm0"},"type":"Feature","geometry":{"type":"Point","coordinates":[-71.25066,42.06294]}},{"properties":{"name":"Diane","description":"Posted by Yarnloopie<img src=\"http://media.geocommons.com/platial/img/2009/02/1/IMG_5404.jpg\">Storrs Mansfield, ConnecticutLove your site!\rCome Visitme at Indigodi at typepad dot com.\rBy the way my son is in Kingston Ontario at Queens Univ.<a title=\"Built for Community Mapping\" href=\"http://www.platial.com\"><img src=\"http://media.geocommons.com/platial/images/logotype_small.jpg\"></a>","id":"a79zrmsd01h9"},"type":"Feature","geometry":{"type":"Point","coordinates":[-72.246672,41.807994]}},{"properties":{"name":"Elke","description":"Posted by Yarnloopieklagenfurt<a title=\"Built for Community Mapping\" href=\"http://www.platial.com\"><img src=\"http://media.geocommons.com/platial/images/logotype_small.jpg\"></a>","id":"a79zrmsc5eaa"},"type":"Feature","geometry":{"type":"Point","coordinates":[14.305278,46.624722]}},{"properties":{"name":"Erika","description":"Posted by Yarnloopie9461<a title=\"Built for Community Mapping\" href=\"http://www.platial.com\"><img src=\"http://media.geocommons.com/platial/images/logotype_small.jpg\"></a>","id":"a79zrmvxli7x"},"type":"Feature","geometry":{"type":"Point","coordinates":[6.1476447,49.9448382]}},{"properties":{"name":"Gaylen","description":"Posted by YarnloopieBothell, WashingtonI just finished the book.  I\\'m ready to pass it along.<a title=\"Built for Community Mapping\" href=\"http://www.platial.com\"><img src=\"http://media.geocommons.com/platial/images/logotype_small.jpg\"></a>","id":"a79zrmv5mtkf"},"type":"Feature","geometry":{"type":"Point","coordinates":[-122.20566,47.76136]}},{"properties":{"name":"Jackie","description":"Posted by Yarnloopie20770<a title=\"Built for Community Mapping\" href=\"http://www.platial.com\"><img src=\"http://media.geocommons.com/platial/images/logotype_small.jpg\"></a>","id":"a79zrmp847sa"},"type":"Feature","geometry":{"type":"Point","coordinates":[-76.883964,38.999559]}},{"properties":{"name":"Leah","description":"Posted by YarnloopieBROOKLYN<a title=\"Built for Community Mapping\" href=\"http://www.platial.com\"><img src=\"http://media.geocommons.com/platial/images/logotype_small.jpg\"></a>","id":"a79zrmxbce2o"},"type":"Feature","geometry":{"type":"Point","coordinates":[-73.95,40.65]}},{"properties":{"name":"Monika","description":"Posted by Yarnloopie<img src=\"http://media.geocommons.com/platial/img/2009/02/1/Jan__18_21.jpg\">Ontario, Canada<a title=\"Built for Community Mapping\" href=\"http://www.platial.com\"><img src=\"http://media.geocommons.com/platial/images/logotype_small.jpg\"></a>","id":"a79zrmpg4fy8"},"type":"Feature","geometry":{"type":"Point","coordinates":[-79.392486,43.723057]}},{"properties":{"name":"Sam","description":"Posted by YarnloopieBahrainWelcome To Gulf Countries<a title=\"Built for Community Mapping\" href=\"http://www.platial.com\"><img src=\"http://media.geocommons.com/platial/images/logotype_small.jpg\"></a>","id":"a79zrmr198vl"},"type":"Feature","geometry":{"type":"Point","coordinates":[50.637772,25.930414]}},{"properties":{"name":"Sue","description":"Posted by YarnloopieSpringfield, Missouri<a title=\"Built for Community Mapping\" href=\"http://www.platial.com\"><img src=\"http://media.geocommons.com/platial/images/logotype_small.jpg\"></a>","id":"a79zrmvlhu3j"},"type":"Feature","geometry":{"type":"Point","coordinates":[-93.298056,37.215278]}},{"properties":{"name":"Yvonne","description":"Posted by Yarnloopie<img src=\"http://media.geocommons.com/platial/img/2009/02/0/100_3502_1.JPG\">Cary, NC 27511<a title=\"Built for Community Mapping\" href=\"http://www.platial.com\"><img src=\"http://media.geocommons.com/platial/images/logotype_small.jpg\"></a>","id":"a79zrmoqdl3n"},"type":"Feature","geometry":{"type":"Point","coordinates":[-78.7816219,35.7698044]}},{"properties":{"name":"dawn","description":"Posted by YarnloopieNASHVILLE GA.<a title=\"Built for Community Mapping\" href=\"http://www.platial.com\"><img src=\"http://media.geocommons.com/platial/images/logotype_small.jpg\"></a>","id":"a79zrn1sh1zw"},"type":"Feature","geometry":{"type":"Point","coordinates":[-83.250368,31.205678]}},{"properties":{"name":"doris","description":"Posted by Yarnloopiesydneymy husband and i have retired this year, my favourite hobby is crotcheting &amp; knitting<a title=\"Built for Community Mapping\" href=\"http://www.platial.com\"><img src=\"http://media.geocommons.com/platial/images/logotype_small.jpg\"></a>","id":"a79zrmqqckxb"},"type":"Feature","geometry":{"type":"Point","coordinates":[151.210006,-33.869998]}},{"properties":{"name":"tidora","description":"Posted by Yarnloopie99086 erfurt<a title=\"Built for Community Mapping\" href=\"http://www.platial.com\"><img src=\"http://media.geocommons.com/platial/images/logotype_small.jpg\"></a>","id":"a79zrmuh46il"},"type":"Feature","geometry":{"type":"Point","coordinates":[11.0342893,50.995767]}},{"properties":{"name":"woolplants","description":"Posted by Yarnloopietucson<a title=\"Built for Community Mapping\" href=\"http://www.platial.com\"><img src=\"http://media.geocommons.com/platial/images/logotype_small.jpg\"></a>","id":"a79zrmlzrvjx"},"type":"Feature","geometry":{"type":"Point","coordinates":[-110.925833,32.221667]}}],"is_temporal":false,"author":{"url":"http://www.platial.com/map/578809","metadata":null,"contact_name":"yarnloopie","contact_address":null,"source":"platial:yarnloopie","contact_phone":null},"source":"http://www.platial.com/map/578809","pagination":{"sort":null,"start":0,"total":18,"limit":1000000},"state":"complete","tags":"platial,platial:id=578809,platial:user=yarnloopie","published":"2010-04-25T16:00:00Z","id":41581}