{"type":"FeatureCollection","data_type":"Dataset","url_type":null,"permissions":[{"permissions":{"download":true,"view":true},"group_id":"everyone"}],"classification":null,"title":"\nacs803's places\n","count":23,"stream_id":42018,"contributor":{"url":"http://geocommons.com/users/11444","name":"platial"},"data_attributes":null,"calculation_params":null,"icon_link":null,"link":"http://geocommons.com/overlays/42018.json","extent":[-118.241,29.7571,-71.0992,42.3466],"geometry_types":["point"],"unique_name":null,"name":"\nacs803's places\n","feature_count":23,"description":"\nA Map by Acs803\n\n\n","next_feature":null,"is_raster":false,"short_classification":"Y","stats":{},"features":[{"properties":{"name":"39.096930, -84.508040","description":"Posted by Acs803<a title=\"Built for Community Mapping\" href=\"http://www.platial.com\"><img src=\"http://media.geocommons.com/platial/images/logotype_small.jpg\"></a>","id":"a6g4452mzzx7"},"type":"Feature","geometry":{"type":"Point","coordinates":[-84.50804,39.09693]}},{"properties":{"name":"Ameriquest Field in Arlington","description":"Posted by Acs803<a title=\"Built for Community Mapping\" href=\"http://www.platial.com\"><img src=\"http://media.geocommons.com/platial/images/logotype_small.jpg\"></a>","id":"a6g4454b96pp"},"type":"Feature","geometry":{"type":"Point","coordinates":[-97.082534,32.751135]}},{"properties":{"name":"Busch Stadium","description":"Posted by Acs803<a title=\"Built for Community Mapping\" href=\"http://www.platial.com\"><img src=\"http://media.geocommons.com/platial/images/logotype_small.jpg\"></a>","id":"a6g4454y00s9"},"type":"Feature","geometry":{"type":"Point","coordinates":[-90.192389,38.623711]}},{"properties":{"name":"Busch Stadium","description":"Posted by Acs803st. louis<a title=\"Built for Community Mapping\" href=\"http://www.platial.com\"><img src=\"http://media.geocommons.com/platial/images/logotype_small.jpg\"></a>","id":"a6g445b7axr6"},"type":"Feature","geometry":{"type":"Point","coordinates":[-90.192626,38.623916]}},{"properties":{"name":"Dodger Stadium","description":"Posted by Acs803<a title=\"Built for Community Mapping\" href=\"http://www.platial.com\"><img src=\"http://media.geocommons.com/platial/images/logotype_small.jpg\"></a>","id":"a6g4456zzscp"},"type":"Feature","geometry":{"type":"Point","coordinates":[-118.241386,34.0736]}},{"properties":{"name":"Fenway Park","description":"Posted by Acs8034 Yawkey Way, Boston, MA, 02215<a title=\"Built for Community Mapping\" href=\"http://www.platial.com\"><img src=\"http://media.geocommons.com/platial/images/logotype_small.jpg\"></a>","id":"a6g445dio0pp"},"type":"Feature","geometry":{"type":"Point","coordinates":[-71.099242,42.346589]}},{"properties":{"name":"Fenway Park","description":"Posted by Acs803<img src=\"http://media.geocommons.com/platial/images/categories/ICON_nature_verD.gif\"> 4 Yawkey Way, Boston, MA, 02215<a title=\"Built for Community Mapping\" href=\"http://www.platial.com\"><img src=\"http://media.geocommons.com/platial/images/logotype_small.jpg\"></a>","id":"a6g444xjab1j"},"type":"Feature","geometry":{"type":"Point","coordinates":[-71.099242,42.346589]}},{"properties":{"name":"Great American Ball Park","description":"Posted by Acs803<a title=\"Built for Community Mapping\" href=\"http://www.platial.com\"><img src=\"http://media.geocommons.com/platial/images/logotype_small.jpg\"></a>","id":"a6g4452nz39e"},"type":"Feature","geometry":{"type":"Point","coordinates":[-84.506836,39.097295]}},{"properties":{"name":"Great American Ball Park","description":"Posted by Acs803<img src=\"http://media.geocommons.com/platial/images/categories/ICON_nature_verD.gif\"> <a title=\"Built for Community Mapping\" href=\"http://www.platial.com\"><img src=\"http://media.geocommons.com/platial/images/logotype_small.jpg\"></a>","id":"a6g44557j9up"},"type":"Feature","geometry":{"type":"Point","coordinates":[-84.506836,39.097295]}},{"properties":{"name":"Minute Maid Park","description":"Posted by Acs803<a title=\"Built for Community Mapping\" href=\"http://www.platial.com\"><img src=\"http://media.geocommons.com/platial/images/logotype_small.jpg\"></a>","id":"a6g4458guk3y"},"type":"Feature","geometry":{"type":"Point","coordinates":[-95.355384,29.757094]}},{"properties":{"name":"Paul Brown Stadium","description":"Posted by Acs8031 Paul Brown Stadium, Cincinnati, OH<a title=\"Built for Community Mapping\" href=\"http://www.platial.com\"><img src=\"http://media.geocommons.com/platial/images/logotype_small.jpg\"></a>","id":"a6g4453kuazv"},"type":"Feature","geometry":{"type":"Point","coordinates":[-84.517676,39.096373]}},{"properties":{"name":"Pringles Park","description":"Posted by Acs8034 Fun Pl, Jackson, TN<a title=\"Built for Community Mapping\" href=\"http://www.platial.com\"><img src=\"http://media.geocommons.com/platial/images/logotype_small.jpg\"></a>","id":"a6g4455ib36x"},"type":"Feature","geometry":{"type":"Point","coordinates":[-88.770126,35.676204]}},{"properties":{"name":"Shea Stadium","description":"Posted by Acs803<a title=\"Built for Community Mapping\" href=\"http://www.platial.com\"><img src=\"http://media.geocommons.com/platial/images/logotype_small.jpg\"></a>","id":"a6g44555qfob"},"type":"Feature","geometry":{"type":"Point","coordinates":[-74.003906,40.84706]}},{"properties":{"name":"Turner Field","description":"Posted by Acs803Atlanta, GA<a title=\"Built for Community Mapping\" href=\"http://www.platial.com\"><img src=\"http://media.geocommons.com/platial/images/logotype_small.jpg\"></a>","id":"a6g444ymgmm2"},"type":"Feature","geometry":{"type":"Point","coordinates":[-84.389634,33.735279]}},{"properties":{"name":"Turner Field","description":"Posted by Acs803Atlanta, GA<a title=\"Built for Community Mapping\" href=\"http://www.platial.com\"><img src=\"http://media.geocommons.com/platial/images/logotype_small.jpg\"></a>","id":"a6g4451cs164"},"type":"Feature","geometry":{"type":"Point","coordinates":[-84.389634,33.735279]}},{"properties":{"name":"US Cellular Field","description":"Posted by Acs803333 W. 35th St., chicago, IL<a title=\"Built for Community Mapping\" href=\"http://www.platial.com\"><img src=\"http://media.geocommons.com/platial/images/logotype_small.jpg\"></a>","id":"a6g445cg0epo"},"type":"Feature","geometry":{"type":"Point","coordinates":[-87.635414,41.83093]}},{"properties":{"name":"US Cellular Field","description":"Posted by Acs803333 W. 35th St., chicago, IL<a title=\"Built for Community Mapping\" href=\"http://www.platial.com\"><img src=\"http://media.geocommons.com/platial/images/logotype_small.jpg\"></a>","id":"a6g445cwmmsi"},"type":"Feature","geometry":{"type":"Point","coordinates":[-87.635414,41.83093]}},{"properties":{"name":"Wrigley Field","description":"Posted by Acs803<a title=\"Built for Community Mapping\" href=\"http://www.platial.com\"><img src=\"http://media.geocommons.com/platial/images/logotype_small.jpg\"></a>","id":"a6g445ag1nse"},"type":"Feature","geometry":{"type":"Point","coordinates":[-87.655835,41.947913]}},{"properties":{"name":"Wrigley Field","description":"Posted by Acs803<a title=\"Built for Community Mapping\" href=\"http://www.platial.com\"><img src=\"http://media.geocommons.com/platial/images/logotype_small.jpg\"></a>","id":"a6g44544k854"},"type":"Feature","geometry":{"type":"Point","coordinates":[-87.655835,41.947913]}},{"properties":{"name":"Yankee Stadium","description":"Posted by Acs803yankee stadium<a title=\"Built for Community Mapping\" href=\"http://www.platial.com\"><img src=\"http://media.geocommons.com/platial/images/logotype_small.jpg\"></a>","id":"a6g445d4toxl"},"type":"Feature","geometry":{"type":"Point","coordinates":[-73.9278,40.8267]}},{"properties":{"name":"Yankee Stadium","description":"Posted by Acs803River Avenue &amp; East 161, New York, NY, 10001<a title=\"Built for Community Mapping\" href=\"http://www.platial.com\"><img src=\"http://media.geocommons.com/platial/images/logotype_small.jpg\"></a>","id":"a6g4455v38qi"},"type":"Feature","geometry":{"type":"Point","coordinates":[-73.993868,40.749071]}},{"properties":{"name":"Yankee Stadium","description":"Posted by Acs803yankee stadium<a title=\"Built for Community Mapping\" href=\"http://www.platial.com\"><img src=\"http://media.geocommons.com/platial/images/logotype_small.jpg\"></a>","id":"a6g44582f3mm"},"type":"Feature","geometry":{"type":"Point","coordinates":[-73.9278,40.8267]}},{"properties":{"name":"great american ballpark","description":"Posted by Acs803cincinnati, oh<a title=\"Built for Community Mapping\" href=\"http://www.platial.com\"><img src=\"http://media.geocommons.com/platial/images/logotype_small.jpg\"></a>","id":"a6g4450kwuev"},"type":"Feature","geometry":{"type":"Point","coordinates":[-84.456944,39.161944]}}],"is_temporal":false,"author":{"url":"http://www.platial.com/map/245157","metadata":null,"contact_name":"acs803","contact_address":null,"source":"platial:acs803","contact_phone":null},"source":"http://www.platial.com/map/245157","pagination":{"sort":null,"start":0,"total":23,"limit":1000000},"state":"complete","tags":"platial,platial:id=245157,platial:user=acs803","published":"2010-04-25T16:00:00Z","id":42018}