{"type":"FeatureCollection","data_type":"Dataset","url_type":null,"permissions":[{"permissions":{"download":true,"view":true},"group_id":"everyone"}],"classification":null,"title":"\ncrazyinsomniac's places\n","count":20,"stream_id":42125,"contributor":{"url":"http://geocommons.com/users/11444","name":"platial"},"data_attributes":null,"calculation_params":null,"icon_link":null,"link":"http://geocommons.com/overlays/42125.json","extent":[-96.8087,25.7739,7.16189,62.3947],"geometry_types":["point"],"unique_name":null,"name":"\ncrazyinsomniac's places\n","feature_count":20,"description":"\nA Map by Crazyinsomniac\n\n\n","next_feature":null,"is_raster":false,"short_classification":"Y","stats":{},"features":[{"properties":{"name":"AIB","description":"Posted by CrazyinsomniacGreenville, SC<a title=\"Built for Community Mapping\" href=\"http://www.platial.com\"><img src=\"http://media.geocommons.com/platial/images/logotype_small.jpg\"></a>","id":"a6kn3uw4yfl0"},"type":"Feature","geometry":{"type":"Point","coordinates":[-82.394167,34.8525]}},{"properties":{"name":"Bree the Impaler","description":"Posted by Crazyinsomniacmiami<a title=\"Built for Community Mapping\" href=\"http://www.platial.com\"><img src=\"http://media.geocommons.com/platial/images/logotype_small.jpg\"></a>","id":"a6kn3v6w99fi"},"type":"Feature","geometry":{"type":"Point","coordinates":[-80.193889,25.773889]}},{"properties":{"name":"Dennis","description":"Posted by Crazyinsomniac<img src=\"http://media.geocommons.com/platial/img/2008/06/2/dennis.jpg\">greenville<a title=\"Built for Community Mapping\" href=\"http://www.platial.com\"><img src=\"http://media.geocommons.com/platial/images/logotype_small.jpg\"></a>","id":"a6kn3v0582vh"},"type":"Feature","geometry":{"type":"Point","coordinates":[-82.394167,34.8525]}},{"properties":{"name":"I heart danny :)","description":"Posted by CrazyinsomniacSault Ste Marie<a title=\"Built for Community Mapping\" href=\"http://www.platial.com\"><img src=\"http://media.geocommons.com/platial/images/logotype_small.jpg\"></a>","id":"a6kn3v4e2731"},"type":"Feature","geometry":{"type":"Point","coordinates":[-84.35173,46.4923]}},{"properties":{"name":"Marcoo","description":"Posted by CrazyinsomniacRecklinghausen<a title=\"Built for Community Mapping\" href=\"http://www.platial.com\"><img src=\"http://media.geocommons.com/platial/images/logotype_small.jpg\"></a>","id":"a6kn3v5j5sd2"},"type":"Feature","geometry":{"type":"Point","coordinates":[7.16189,51.584897]}},{"properties":{"name":"Matt","description":"Posted by CrazyinsomniacGreer, SC<a title=\"Built for Community Mapping\" href=\"http://www.platial.com\"><img src=\"http://media.geocommons.com/platial/images/logotype_small.jpg\"></a>","id":"a6kn3v37g0sp"},"type":"Feature","geometry":{"type":"Point","coordinates":[-82.227222,34.938611]}},{"properties":{"name":"Matt Diaz","description":"Posted by CrazyinsomniacGreenville, SC<a title=\"Built for Community Mapping\" href=\"http://www.platial.com\"><img src=\"http://media.geocommons.com/platial/images/logotype_small.jpg\"></a>","id":"a6kn3v78ux68"},"type":"Feature","geometry":{"type":"Point","coordinates":[-82.394167,34.8525]}},{"properties":{"name":"Panama City","description":"Posted by CrazyinsomniacPanama City<a title=\"Built for Community Mapping\" href=\"http://www.platial.com\"><img src=\"http://media.geocommons.com/platial/images/logotype_small.jpg\"></a>","id":"a6kn3val4opo"},"type":"Feature","geometry":{"type":"Point","coordinates":[-85.601472,30.206863]}},{"properties":{"name":"Ryan","description":"Posted by Crazyinsomniac4 Brushy Creek Ridge<a title=\"Built for Community Mapping\" href=\"http://www.platial.com\"><img src=\"http://media.geocommons.com/platial/images/logotype_small.jpg\"></a>","id":"a6kn3v0iulky"},"type":"Feature","geometry":{"type":"Point","coordinates":[-82.290105,34.896279]}},{"properties":{"name":"Sara","description":"Posted by CrazyinsomniacInman<a title=\"Built for Community Mapping\" href=\"http://www.platial.com\"><img src=\"http://media.geocommons.com/platial/images/logotype_small.jpg\"></a>","id":"a6kn3va68ekh"},"type":"Feature","geometry":{"type":"Point","coordinates":[-82.090792,35.048617]}},{"properties":{"name":"Simpsonville","description":"Posted by CrazyinsomniacSimpsonville South Carolina<a title=\"Built for Community Mapping\" href=\"http://www.platial.com\"><img src=\"http://media.geocommons.com/platial/images/logotype_small.jpg\"></a>","id":"a6kn3v58wpha"},"type":"Feature","geometry":{"type":"Point","coordinates":[-82.258209,34.729893]}},{"properties":{"name":"Talbert Soundworks","description":"Posted by Crazyinsomniaclexington SC<a title=\"Built for Community Mapping\" href=\"http://www.platial.com\"><img src=\"http://media.geocommons.com/platial/images/logotype_small.jpg\"></a>","id":"a6kn3v5s7b8m"},"type":"Feature","geometry":{"type":"Point","coordinates":[-81.234936,33.986208]}},{"properties":{"name":"Your music rules.","description":"Posted by CrazyinsomniacGreenville, SCCheck out our music on our website or search Seance of The Dead on myspace. Rock on.<a title=\"Built for Community Mapping\" href=\"http://www.platial.com\"><img src=\"http://media.geocommons.com/platial/images/logotype_small.jpg\"></a>","id":"a6kn3v1dxzfe"},"type":"Feature","geometry":{"type":"Point","coordinates":[-82.394167,34.8525]}},{"properties":{"name":"Zach Smith","description":"Posted by Crazyinsomniac<img src=\"http://media.geocommons.com/platial/img/2008/12/0/Photo_3.jpg\">clover, SC<a title=\"Built for Community Mapping\" href=\"http://www.platial.com\"><img src=\"http://media.geocommons.com/platial/images/logotype_small.jpg\"></a>","id":"a6kn3v67ip2w"},"type":"Feature","geometry":{"type":"Point","coordinates":[-81.22652,35.11115]}},{"properties":{"name":"atlanta","description":"Posted by CrazyinsomniacAtlanta<a title=\"Built for Community Mapping\" href=\"http://www.platial.com\"><img src=\"http://media.geocommons.com/platial/images/logotype_small.jpg\"></a>","id":"a6kn3v06c9b6"},"type":"Feature","geometry":{"type":"Point","coordinates":[-84.388056,33.748889]}},{"properties":{"name":"dan","description":"Posted by CrazyinsomniacGreer, South Carolina<a title=\"Built for Community Mapping\" href=\"http://www.platial.com\"><img src=\"http://media.geocommons.com/platial/images/logotype_small.jpg\"></a>","id":"a6kn3vb54sg9"},"type":"Feature","geometry":{"type":"Point","coordinates":[-82.22773,34.93824]}},{"properties":{"name":"i love danny :)","description":"Posted by CrazyinsomniacCanada<a title=\"Built for Community Mapping\" href=\"http://www.platial.com\"><img src=\"http://media.geocommons.com/platial/images/logotype_small.jpg\"></a>","id":"a6kn3uv8l0et"},"type":"Feature","geometry":{"type":"Point","coordinates":[-96.80872,62.394714]}},{"properties":{"name":"johnny","description":"Posted by Crazyinsomniacgreenville<a title=\"Built for Community Mapping\" href=\"http://www.platial.com\"><img src=\"http://media.geocommons.com/platial/images/logotype_small.jpg\"></a>","id":"a6kn3v3vn9cv"},"type":"Feature","geometry":{"type":"Point","coordinates":[-82.394167,34.8525]}},{"properties":{"name":"p1 enemy","description":"Posted by Crazyinsomniaceasley<a title=\"Built for Community Mapping\" href=\"http://www.platial.com\"><img src=\"http://media.geocommons.com/platial/images/logotype_small.jpg\"></a>","id":"a6kn3v6wgfmt"},"type":"Feature","geometry":{"type":"Point","coordinates":[-82.604517,34.817477]}},{"properties":{"name":"wgarwr","description":"Posted by CrazyinsomniacLafayette, Laegh<a title=\"Built for Community Mapping\" href=\"http://www.platial.com\"><img src=\"http://media.geocommons.com/platial/images/logotype_small.jpg\"></a>","id":"a6kn3v6djep5"},"type":"Feature","geometry":{"type":"Point","coordinates":[-92.019722,30.223889]}}],"is_temporal":false,"author":{"url":"http://www.platial.com/map/298366","metadata":null,"contact_name":"crazyinsomniac","contact_address":null,"source":"platial:crazyinsomniac","contact_phone":null},"source":"http://www.platial.com/map/298366","pagination":{"sort":null,"start":0,"total":20,"limit":1000000},"state":"complete","tags":"platial,platial:id=298366,platial:user=crazyinsomniac","published":"2010-04-25T16:00:00Z","id":42125}