{"type":"FeatureCollection","data_type":"Dataset","url_type":null,"permissions":[{"permissions":{"download":true,"view":true},"group_id":"everyone"}],"classification":null,"title":"\nfutboldecalle's places\n","count":16,"stream_id":42460,"contributor":{"url":"http://geocommons.com/users/11444","name":"platial"},"data_attributes":null,"calculation_params":null,"icon_link":null,"link":"http://geocommons.com/overlays/42460.json","extent":[2.16371,41.3741,2.19173,41.4441],"geometry_types":["point"],"unique_name":null,"name":"\nfutboldecalle's places\n","feature_count":16,"description":"\nA Map by Futboldecalle\n\n\n","next_feature":null,"is_raster":false,"short_classification":"Y","stats":{},"features":[{"properties":{"name":"campo municipal de barceloneta","description":"Posted by Futboldecalle<a title=\"Built for Community Mapping\" href=\"http://www.platial.com\"><img src=\"http://media.geocommons.com/platial/images/logotype_small.jpg\"></a>","id":"a65bvpblv0ok"},"type":"Feature","geometry":{"type":"Point","coordinates":[2.191579,41.383152]}},{"properties":{"name":"can dragó","description":"Posted by Futboldecalle<a title=\"Built for Community Mapping\" href=\"http://www.platial.com\"><img src=\"http://media.geocommons.com/platial/images/logotype_small.jpg\"></a>","id":"a65bvpfpdou8"},"type":"Feature","geometry":{"type":"Point","coordinates":[2.181473,41.432849]}},{"properties":{"name":"espai esportiu cotxeres de borbo","description":"Posted by Futboldecalle<a title=\"Built for Community Mapping\" href=\"http://www.platial.com\"><img src=\"http://media.geocommons.com/platial/images/logotype_small.jpg\"></a>","id":"a65bvpg62xzv"},"type":"Feature","geometry":{"type":"Point","coordinates":[2.176516,41.426398]}},{"properties":{"name":"furat","description":"Posted by Futboldecalle<a title=\"Built for Community Mapping\" href=\"http://www.platial.com\"><img src=\"http://media.geocommons.com/platial/images/logotype_small.jpg\"></a>","id":"a65bvpetjx8p"},"type":"Feature","geometry":{"type":"Point","coordinates":[2.179284,41.387692]}},{"properties":{"name":"parc 3 chamineas","description":"Posted by Futboldecallebarcelona<a title=\"Built for Community Mapping\" href=\"http://www.platial.com\"><img src=\"http://media.geocommons.com/platial/images/logotype_small.jpg\"></a>","id":"a65bvpe5wgdo"},"type":"Feature","geometry":{"type":"Point","coordinates":[2.171602,41.374071]}},{"properties":{"name":"parc ciudadella","description":"Posted by Futboldecalle<img src=\"http://media.geocommons.com/platial/img/2006/11/2/ciudadela_2_.jpg\"><a title=\"Built for Community Mapping\" href=\"http://www.platial.com\"><img src=\"http://media.geocommons.com/platial/images/logotype_small.jpg\"></a>","id":"a65bvp6h3ka7"},"type":"Feature","geometry":{"type":"Point","coordinates":[2.186708,41.38539]}},{"properties":{"name":"parc pegaso","description":"Posted by Futboldecalle<a title=\"Built for Community Mapping\" href=\"http://www.platial.com\"><img src=\"http://media.geocommons.com/platial/images/logotype_small.jpg\"></a>","id":"a65bvp8y5ga7"},"type":"Feature","geometry":{"type":"Point","coordinates":[2.188876,41.427347]}},{"properties":{"name":"playa barceloneta","description":"Posted by Futboldecalle<a title=\"Built for Community Mapping\" href=\"http://www.platial.com\"><img src=\"http://media.geocommons.com/platial/images/logotype_small.jpg\"></a>","id":"a65bvphkyz5t"},"type":"Feature","geometry":{"type":"Point","coordinates":[2.19173,41.377453]}},{"properties":{"name":"plaza bacardi","description":"Posted by Futboldecalle<a title=\"Built for Community Mapping\" href=\"http://www.platial.com\"><img src=\"http://media.geocommons.com/platial/images/logotype_small.jpg\"></a>","id":"a65bvpaplmhx"},"type":"Feature","geometry":{"type":"Point","coordinates":[2.163706,41.429877]}},{"properties":{"name":"plaza carmelles","description":"Posted by Futboldecalle<a title=\"Built for Community Mapping\" href=\"http://www.platial.com\"><img src=\"http://media.geocommons.com/platial/images/logotype_small.jpg\"></a>","id":"a65bvpds0ra0"},"type":"Feature","geometry":{"type":"Point","coordinates":[2.167525,41.382122]}},{"properties":{"name":"plaza de les angels","description":"Posted by Futboldecalle<a title=\"Built for Community Mapping\" href=\"http://www.platial.com\"><img src=\"http://media.geocommons.com/platial/images/logotype_small.jpg\"></a>","id":"a65bvp95wg2h"},"type":"Feature","geometry":{"type":"Point","coordinates":[2.167118,41.382879]}},{"properties":{"name":"plaza del carmen","description":"Posted by Futboldecalleplaza del carmen<a title=\"Built for Community Mapping\" href=\"http://www.platial.com\"><img src=\"http://media.geocommons.com/platial/images/logotype_small.jpg\"></a>","id":"a65bvpggs5vl"},"type":"Feature","geometry":{"type":"Point","coordinates":[2.179445,41.379272]}},{"properties":{"name":"plaza del jardins d'els","description":"Posted by Futboldecalle<a title=\"Built for Community Mapping\" href=\"http://www.platial.com\"><img src=\"http://media.geocommons.com/platial/images/logotype_small.jpg\"></a>","id":"a65bvp47i1hv"},"type":"Feature","geometry":{"type":"Point","coordinates":[2.187889,41.423269]}},{"properties":{"name":"plaza folch i torres","description":"Posted by Futboldecalle<a title=\"Built for Community Mapping\" href=\"http://www.platial.com\"><img src=\"http://media.geocommons.com/platial/images/logotype_small.jpg\"></a>","id":"a65bvp9qqoyn"},"type":"Feature","geometry":{"type":"Point","coordinates":[2.166914,41.376728]}},{"properties":{"name":"plaza virrei amat","description":"Posted by Futboldecalle<img src=\"http://media.geocommons.com/platial/img/2006/06/3/virrei_amat.jpg\">plaza virrei amatEs una plaza bastante concurrida y bien equipada con mobiliario urbano, y áreas de juegos para niños, áreas verdes, una fuente y salidas del metro. Su superficie es principalmente pavimento, aunque tiene un área bastante grande de arena, y otra de pasto.<a title=\"Built for Community Mapping\" href=\"http://www.platial.com\"><img src=\"http://media.geocommons.com/platial/images/logotype_small.jpg\"></a>","id":"a65bvpizi4vd"},"type":"Feature","geometry":{"type":"Point","coordinates":[2.175829,41.429294]}},{"properties":{"name":"ronda de dalt","description":"Posted by Futboldecalle<a title=\"Built for Community Mapping\" href=\"http://www.platial.com\"><img src=\"http://media.geocommons.com/platial/images/logotype_small.jpg\"></a>","id":"a65bvpipml2s"},"type":"Feature","geometry":{"type":"Point","coordinates":[2.172804,41.444078]}}],"is_temporal":false,"author":{"url":"http://www.platial.com/map/231121","metadata":null,"contact_name":"futboldecalle","contact_address":null,"source":"platial:futboldecalle","contact_phone":null},"source":"http://www.platial.com/map/231121","pagination":{"sort":null,"start":0,"total":16,"limit":1000000},"state":"complete","tags":"platial,platial:id=231121,platial:user=futboldecalle","published":"2010-04-25T16:00:00Z","id":42460}