{"type":"FeatureCollection","data_type":"Dataset","url_type":null,"permissions":[{"permissions":{"download":true,"view":true},"group_id":"everyone"}],"classification":null,"title":"\nmodobs's places\n","count":17,"stream_id":42683,"contributor":{"url":"http://geocommons.com/users/11444","name":"platial"},"data_attributes":null,"calculation_params":null,"icon_link":null,"link":"http://geocommons.com/overlays/42683.json","extent":[-97.4288,-31.9522,149.766,58.9785],"geometry_types":["point"],"unique_name":null,"name":"\nmodobs's places\n","feature_count":17,"description":"\nA Map by Modobs\n\n\n","next_feature":null,"is_raster":false,"short_classification":"Y","stats":{},"features":[{"properties":{"name":null,"description":"Posted by Modobs<a title=\"Built for Community Mapping\" href=\"http://www.platial.com\"><img src=\"http://media.geocommons.com/platial/images/logotype_small.jpg\"></a>","id":"a6dsupeykgf0"},"type":"Feature","geometry":{"type":"Point","coordinates":[-1.40625,18.64625]}},{"properties":{"name":null,"description":"Posted by Modobs<a title=\"Built for Community Mapping\" href=\"http://www.platial.com\"><img src=\"http://media.geocommons.com/platial/images/logotype_small.jpg\"></a>","id":"a6dsupcii956"},"type":"Feature","geometry":{"type":"Point","coordinates":[-80.44573,43.43562]}},{"properties":{"name":null,"description":"Posted by Modobs<a title=\"Built for Community Mapping\" href=\"http://www.platial.com\"><img src=\"http://media.geocommons.com/platial/images/logotype_small.jpg\"></a>","id":"a6dsup59ur2j"},"type":"Feature","geometry":{"type":"Point","coordinates":[-1.40625,18.64625]}},{"properties":{"name":null,"description":"Posted by Modobs<a title=\"Built for Community Mapping\" href=\"http://www.platial.com\"><img src=\"http://media.geocommons.com/platial/images/logotype_small.jpg\"></a>","id":"a6dsupdt3hyx"},"type":"Feature","geometry":{"type":"Point","coordinates":[4.33004,50.83009]}},{"properties":{"name":null,"description":"Posted by Modobs<a title=\"Built for Community Mapping\" href=\"http://www.platial.com\"><img src=\"http://media.geocommons.com/platial/images/logotype_small.jpg\"></a>","id":"a6dsup83vd8i"},"type":"Feature","geometry":{"type":"Point","coordinates":[4.33004,50.83009]}},{"properties":{"name":null,"description":"Posted by ModobsThuis<a title=\"Built for Community Mapping\" href=\"http://www.platial.com\"><img src=\"http://media.geocommons.com/platial/images/logotype_small.jpg\"></a>","id":"a6dsup1mzug4"},"type":"Feature","geometry":{"type":"Point","coordinates":[3.33847,50.81063]}},{"properties":{"name":null,"description":"Posted by Modobs<img src=\"http://img216.imageshack.us/img216/7107/ballgamezt2.gif\"><a title=\"Built for Community Mapping\" href=\"http://www.platial.com\"><img src=\"http://media.geocommons.com/platial/images/logotype_small.jpg\"></a>","id":"a6dsupdw4mvt"},"type":"Feature","geometry":{"type":"Point","coordinates":[15.46875,47.98992]}},{"properties":{"name":null,"description":"Posted by Modobs<a title=\"Built for Community Mapping\" href=\"http://www.platial.com\"><img src=\"http://media.geocommons.com/platial/images/logotype_small.jpg\"></a>","id":"a6dsuphktvtx"},"type":"Feature","geometry":{"type":"Point","coordinates":[78.04688,10.48781]}},{"properties":{"name":null,"description":"Posted by Modobs<a title=\"Built for Community Mapping\" href=\"http://www.platial.com\"><img src=\"http://media.geocommons.com/platial/images/logotype_small.jpg\"></a>","id":"a6dsup3s6aru"},"type":"Feature","geometry":{"type":"Point","coordinates":[24.86549,58.97851]}},{"properties":{"name":null,"description":"Posted by Modobs<a title=\"Built for Community Mapping\" href=\"http://www.platial.com\"><img src=\"http://media.geocommons.com/platial/images/logotype_small.jpg\"></a>","id":"a6dsupbaiq82"},"type":"Feature","geometry":{"type":"Point","coordinates":[-57.65625,-14.60485]}},{"properties":{"name":null,"description":"Posted by Modobs<a title=\"Built for Community Mapping\" href=\"http://www.platial.com\"><img src=\"http://media.geocommons.com/platial/images/logotype_small.jpg\"></a>","id":"a6dsupck44m2"},"type":"Feature","geometry":{"type":"Point","coordinates":[-57.65625,-14.60485]}},{"properties":{"name":null,"description":"Posted by Modobs<a title=\"Built for Community Mapping\" href=\"http://www.platial.com\"><img src=\"http://media.geocommons.com/platial/images/logotype_small.jpg\"></a>","id":"a6dsupeulrth"},"type":"Feature","geometry":{"type":"Point","coordinates":[5.25146,50.80073]}},{"properties":{"name":"Dubai","description":"Posted by Modobs<a title=\"Built for Community Mapping\" href=\"http://www.platial.com\"><img src=\"http://media.geocommons.com/platial/images/logotype_small.jpg\"></a>","id":"a6dsup4ql5gf"},"type":"Feature","geometry":{"type":"Point","coordinates":[55.01953125,25.1651733687]}},{"properties":{"name":"Lat,Long: 43.43562,-80.44573","description":"Posted by Modobs<a title=\"Built for Community Mapping\" href=\"http://www.platial.com\"><img src=\"http://media.geocommons.com/platial/images/logotype_small.jpg\"></a>","id":"a6dsupfj3vqi"},"type":"Feature","geometry":{"type":"Point","coordinates":[-80.44573,43.43562]}},{"properties":{"name":"Sydney","description":"Posted by Modobs<a title=\"Built for Community Mapping\" href=\"http://www.platial.com\"><img src=\"http://media.geocommons.com/platial/images/logotype_small.jpg\"></a>","id":"a6dsuph5fg7r"},"type":"Feature","geometry":{"type":"Point","coordinates":[149.765625,-31.952162238]}},{"properties":{"name":"Title or search term","description":"Posted by Modobs7325 W. 77th St. N<a title=\"Built for Community Mapping\" href=\"http://www.platial.com\"><img src=\"http://media.geocommons.com/platial/images/logotype_small.jpg\"></a>","id":"a6dsup3owf0u"},"type":"Feature","geometry":{"type":"Point","coordinates":[-97.42881,37.824953]}},{"properties":{"name":"Weilheim","description":"Posted by Modobs<img src=\"http://img216.imageshack.us/img216/7107/ballgamezt2.gif\">beautiful old city with a historic downtown<a title=\"Built for Community Mapping\" href=\"http://www.platial.com\"><img src=\"http://media.geocommons.com/platial/images/logotype_small.jpg\"></a>","id":"a6dsuph11nyb"},"type":"Feature","geometry":{"type":"Point","coordinates":[11.1483764648,47.8297520808]}}],"is_temporal":false,"author":{"url":"http://www.platial.com/map/238218","metadata":null,"contact_name":"modobs","contact_address":null,"source":"platial:modobs","contact_phone":null},"source":"http://www.platial.com/map/238218","pagination":{"sort":null,"start":0,"total":17,"limit":1000000},"state":"complete","tags":"platial,platial:id=238218,platial:user=modobs","published":"2010-04-25T16:00:00Z","id":42683}