{"type":"FeatureCollection","data_type":"Dataset","url_type":null,"permissions":[{"permissions":{"download":true,"view":true},"group_id":"everyone"}],"classification":null,"title":"\nDJ's Map\n","count":16,"stream_id":42821,"contributor":{"url":"http://geocommons.com/users/11444","name":"platial"},"data_attributes":null,"calculation_params":null,"icon_link":null,"link":"http://geocommons.com/overlays/42821.json","extent":[-122.331,25.7739,-74.0064,47.6064],"geometry_types":["point"],"unique_name":null,"name":"\nDJ's Map\n","feature_count":16,"description":"\nA Map by Djturk\n\n\n","next_feature":null,"is_raster":false,"short_classification":"Y","stats":{},"features":[{"properties":{"name":"Anahata","description":"Posted by Djturk<img src=\"http://media.geocommons.com/platial/img/2008/11/1/2283047384_c814b89287_o.jpg\">CA<a title=\"Built for Community Mapping\" href=\"http://www.platial.com\"><img src=\"http://media.geocommons.com/platial/images/logotype_small.jpg\"></a>","id":"a66oa0nzbwuv"},"type":"Feature","geometry":{"type":"Point","coordinates":[-119.245693,37.267666]}},{"properties":{"name":"Big Apple","description":"Posted by Djturk<img src=\"http://media.geocommons.com/platial/img/2008/09/3/0126.gif\">new york<a title=\"Built for Community Mapping\" href=\"http://www.platial.com\"><img src=\"http://media.geocommons.com/platial/images/logotype_small.jpg\"></a>","id":"a66oa0qtqc4n"},"type":"Feature","geometry":{"type":"Point","coordinates":[-74.006389,40.714167]}},{"properties":{"name":"Born To Be Wild","description":"Posted by Djturk<img src=\"http://media.geocommons.com/platial/img/2008/09/3/XmasGirl.png\">5200 E Mt. Morris Rd. Mt. Morris, MI<a title=\"Built for Community Mapping\" href=\"http://www.platial.com\"><img src=\"http://media.geocommons.com/platial/images/logotype_small.jpg\"></a>","id":"a66oa0q4l42d"},"type":"Feature","geometry":{"type":"Point","coordinates":[-83.609267,43.118785]}},{"properties":{"name":"Copper Harbor","description":"Posted by Djturkcopper harbor, mi<a title=\"Built for Community Mapping\" href=\"http://www.platial.com\"><img src=\"http://media.geocommons.com/platial/images/logotype_small.jpg\"></a>","id":"a66oa0v6n3mf"},"type":"Feature","geometry":{"type":"Point","coordinates":[-87.891785,47.465335]}},{"properties":{"name":"Detroit","description":"Posted by DjturkDetroit<a title=\"Built for Community Mapping\" href=\"http://www.platial.com\"><img src=\"http://media.geocommons.com/platial/images/logotype_small.jpg\"></a>","id":"a66oa0ryr42t"},"type":"Feature","geometry":{"type":"Point","coordinates":[-83.045833,42.331389]}},{"properties":{"name":"Flevoland","description":"Posted by Djturk<img src=\"http://media.geocommons.com/platial/img/2008/09/3/girl44.jpg\">Miami<a title=\"Built for Community Mapping\" href=\"http://www.platial.com\"><img src=\"http://media.geocommons.com/platial/images/logotype_small.jpg\"></a>","id":"a66oa0pwgoho"},"type":"Feature","geometry":{"type":"Point","coordinates":[-80.193889,25.773889]}},{"properties":{"name":"Home","description":"Posted by Djturk<img src=\"http://media.geocommons.com/platial/img/2008/09/3/logo400b.jpg\">33313<a title=\"Built for Community Mapping\" href=\"http://www.platial.com\"><img src=\"http://media.geocommons.com/platial/images/logotype_small.jpg\"></a>","id":"a66oa0hmytdn"},"type":"Feature","geometry":{"type":"Point","coordinates":[-80.229829,26.150275]}},{"properties":{"name":"Houston","description":"Posted by Djturk<img src=\"http://media.geocommons.com/platial/img/2008/09/3/girl25.jpg\">houston<a title=\"Built for Community Mapping\" href=\"http://www.platial.com\"><img src=\"http://media.geocommons.com/platial/images/logotype_small.jpg\"></a>","id":"a66oa0gnb1sq"},"type":"Feature","geometry":{"type":"Point","coordinates":[-95.363056,29.763056]}},{"properties":{"name":"L.A.","description":"Posted by Djturklos angeles<a title=\"Built for Community Mapping\" href=\"http://www.platial.com\"><img src=\"http://media.geocommons.com/platial/images/logotype_small.jpg\"></a>","id":"a66oa0sq1fuu"},"type":"Feature","geometry":{"type":"Point","coordinates":[-118.242778,34.052222]}},{"properties":{"name":"Motown","description":"Posted by Djturk<img src=\"http://media.geocommons.com/platial/img/2008/09/3/KarenNewman2.jpg\">Detroit<a title=\"Built for Community Mapping\" href=\"http://www.platial.com\"><img src=\"http://media.geocommons.com/platial/images/logotype_small.jpg\"></a>","id":"a66oa0iz0dbh"},"type":"Feature","geometry":{"type":"Point","coordinates":[-83.045833,42.331389]}},{"properties":{"name":"Omaha","description":"Posted by Djturk<img src=\"http://media.geocommons.com/platial/img/2008/09/3/zz07.gif\">Omaha<a title=\"Built for Community Mapping\" href=\"http://www.platial.com\"><img src=\"http://media.geocommons.com/platial/images/logotype_small.jpg\"></a>","id":"a66oa0jcc6ww"},"type":"Feature","geometry":{"type":"Point","coordinates":[-95.9375,41.258611]}},{"properties":{"name":"PRINCESS FAIRY","description":"Posted by Djturk<img src=\"http://media.geocommons.com/platial/img/2008/10/2/_0f1a.gif\">New Jersey;YOUR NEW JERSEY FRIEND<a title=\"Built for Community Mapping\" href=\"http://www.platial.com\"><img src=\"http://media.geocommons.com/platial/images/logotype_small.jpg\"></a>","id":"a66oa0kd7fiw"},"type":"Feature","geometry":{"type":"Point","coordinates":[-74.728565,40.07241]}},{"properties":{"name":"Rainland","description":"Posted by Djturk<img src=\"http://media.geocommons.com/platial/img/2008/09/3/pgirl02.gif\">seattle<a title=\"Built for Community Mapping\" href=\"http://www.platial.com\"><img src=\"http://media.geocommons.com/platial/images/logotype_small.jpg\"></a>","id":"a66oa0jcb3f5"},"type":"Feature","geometry":{"type":"Point","coordinates":[-122.330833,47.606389]}},{"properties":{"name":"Richmond","description":"Posted by Djturk<img src=\"http://media.geocommons.com/platial/img/2008/09/3/D214_c_05.gif\">richmond<a title=\"Built for Community Mapping\" href=\"http://www.platial.com\"><img src=\"http://media.geocommons.com/platial/images/logotype_small.jpg\"></a>","id":"a66oa0l1187z"},"type":"Feature","geometry":{"type":"Point","coordinates":[-77.460556,37.553611]}},{"properties":{"name":"Vegas","description":"Posted by Djturk<img src=\"http://media.geocommons.com/platial/img/2008/09/3/penguin.gif\">las vegas<a title=\"Built for Community Mapping\" href=\"http://www.platial.com\"><img src=\"http://media.geocommons.com/platial/images/logotype_small.jpg\"></a>","id":"a66oa0kj7dj4"},"type":"Feature","geometry":{"type":"Point","coordinates":[-115.136389,36.175]}},{"properties":{"name":"Windy City","description":"Posted by Djturk<img src=\"http://media.geocommons.com/platial/img/2008/09/3/lennon.gif\">chicago<a title=\"Built for Community Mapping\" href=\"http://www.platial.com\"><img src=\"http://media.geocommons.com/platial/images/logotype_small.jpg\"></a>","id":"a66oa0ovgj3y"},"type":"Feature","geometry":{"type":"Point","coordinates":[-87.65,41.85]}}],"is_temporal":false,"author":{"url":"http://www.platial.com/map/492549","metadata":null,"contact_name":"djturk","contact_address":null,"source":"platial:djturk","contact_phone":null},"source":"http://www.platial.com/map/492549","pagination":{"sort":null,"start":0,"total":16,"limit":1000000},"state":"complete","tags":"platial,platial:id=492549,platial:user=djturk","published":"2010-04-25T16:00:00Z","id":42821}