{"type":"FeatureCollection","data_type":"Dataset","url_type":null,"permissions":[{"permissions":{"download":true,"view":true},"group_id":"everyone"}],"classification":null,"title":"\nsmaster's places\n","count":15,"stream_id":43059,"contributor":{"url":"http://geocommons.com/users/11444","name":"platial"},"data_attributes":null,"calculation_params":null,"icon_link":null,"link":"http://geocommons.com/overlays/43059.json","extent":[-118.385,29.6772,-75.8741,43.1018],"geometry_types":["point"],"unique_name":null,"name":"\nsmaster's places\n","feature_count":15,"description":"\nA Map by Smaster\n\n\n","next_feature":null,"is_raster":false,"short_classification":"Y","stats":{},"features":[{"properties":{"name":"City Hall Houston, Texas","description":"Posted by Smaster910 Bagby Street, houston, tx.1975-1979 Employed by City of Houston<a title=\"Built for Community Mapping\" href=\"http://www.platial.com\"><img src=\"http://media.geocommons.com/platial/images/logotype_small.jpg\"></a>","id":"a68me9zobl0n"},"type":"Feature","geometry":{"type":"Point","coordinates":[-95.369493,29.760149]}},{"properties":{"name":"Eric &amp; Mim Master","description":"Posted by Smaster<img src=\"http://media.geocommons.com/platial/images/categories/ICON_family_verD.gif\"> 4723 N. Cramer whitefish bay, wi.<a title=\"Built for Community Mapping\" href=\"http://www.platial.com\"><img src=\"http://media.geocommons.com/platial/images/logotype_small.jpg\"></a>","id":"a68me9mtqta1"},"type":"Feature","geometry":{"type":"Point","coordinates":[-87.886422,43.101849]}},{"properties":{"name":"HPD Headquarters","description":"Posted by Smaster61 riesner st., houston, tx1976-1977 HPD assignment while working for Cityy of Houston<a title=\"Built for Community Mapping\" href=\"http://www.platial.com\"><img src=\"http://media.geocommons.com/platial/images/logotype_small.jpg\"></a>","id":"a68me9xtzuot"},"type":"Feature","geometry":{"type":"Point","coordinates":[-95.371606,29.766603]}},{"properties":{"name":"Judy &amp; Sergio (Alvarez)","description":"Posted by Smaster<img src=\"http://media.geocommons.com/platial/images/categories/ICON_family_verD.gif\"> 4117 Shelby St. waco, tx.Daughter and son-in-law<a title=\"Built for Community Mapping\" href=\"http://www.platial.com\"><img src=\"http://media.geocommons.com/platial/images/logotype_small.jpg\"></a>","id":"a68me9uu7luv"},"type":"Feature","geometry":{"type":"Point","coordinates":[-97.155427,31.518911]}},{"properties":{"name":"One Houston Center","description":"Posted by Smaster1100 mckinney st., houston, tx.1979-1989  Texas Eastern Corp.<a title=\"Built for Community Mapping\" href=\"http://www.platial.com\"><img src=\"http://media.geocommons.com/platial/images/logotype_small.jpg\"></a>","id":"a68me9zkz4q6"},"type":"Feature","geometry":{"type":"Point","coordinates":[-95.365212,29.757401]}},{"properties":{"name":"PSU","description":"Posted by SmasterPennsylvania State University, state collrgr, PA.Penn State<a title=\"Built for Community Mapping\" href=\"http://www.platial.com\"><img src=\"http://media.geocommons.com/platial/images/logotype_small.jpg\"></a>","id":"a68me9r9q0u9"},"type":"Feature","geometry":{"type":"Point","coordinates":[-77.862854,40.798867]}},{"properties":{"name":"Panhandle Eastern - Duke Energy","description":"Posted by Smaster5500 westheimer st., houston, tx.1990-2001 Employers<a title=\"Built for Community Mapping\" href=\"http://www.platial.com\"><img src=\"http://media.geocommons.com/platial/images/logotype_small.jpg\"></a>","id":"a68me9nsaxou"},"type":"Feature","geometry":{"type":"Point","coordinates":[-95.472972,29.740458]}},{"properties":{"name":"SIU","description":"Posted by Smastercarbondale, il.<a title=\"Built for Community Mapping\" href=\"http://www.platial.com\"><img src=\"http://media.geocommons.com/platial/images/logotype_small.jpg\"></a>","id":"a68me9mp8tc5"},"type":"Feature","geometry":{"type":"Point","coordinates":[-89.216667,37.727222]}},{"properties":{"name":"Sarah Master","description":"Posted by Smaster<img src=\"http://media.geocommons.com/platial/images/categories/ICON_family_verD.gif\"> 6225 Canterbury, #306 culver city, ca.<a title=\"Built for Community Mapping\" href=\"http://www.platial.com\"><img src=\"http://media.geocommons.com/platial/images/logotype_small.jpg\"></a>","id":"a68me9pqtc9p"},"type":"Feature","geometry":{"type":"Point","coordinates":[-118.384642,33.982844]}},{"properties":{"name":"Steve Master - 2nd home purchased","description":"Posted by Smaster9006 Fairbloom Lane houston, tx<a title=\"Built for Community Mapping\" href=\"http://www.platial.com\"><img src=\"http://media.geocommons.com/platial/images/logotype_small.jpg\"></a>","id":"a68me9zl8x76"},"type":"Feature","geometry":{"type":"Point","coordinates":[-95.532966,29.897473]}},{"properties":{"name":"Steve Master - 3rd house, first custom home","description":"Posted by Smaster<img src=\"http://media.geocommons.com/platial/images/categories/ICON_house_verD.gif\"> kama drive porter, tx.<a title=\"Built for Community Mapping\" href=\"http://www.platial.com\"><img src=\"http://media.geocommons.com/platial/images/logotype_small.jpg\"></a>","id":"a68me9mehshg"},"type":"Feature","geometry":{"type":"Point","coordinates":[-95.294487,30.108454]}},{"properties":{"name":"Steve Master - Pasadena ISD Administration Bldg.","description":"Posted by Smaster1515 cherrybrook pasadena, tx.Current Employer<a title=\"Built for Community Mapping\" href=\"http://www.platial.com\"><img src=\"http://media.geocommons.com/platial/images/logotype_small.jpg\"></a>","id":"a68me9uwj3mj"},"type":"Feature","geometry":{"type":"Point","coordinates":[-95.190319,29.677203]}},{"properties":{"name":"Steve Master - childhood home","description":"Posted by Smaster1546 argonne rd. reading, pa.  19601<a title=\"Built for Community Mapping\" href=\"http://www.platial.com\"><img src=\"http://media.geocommons.com/platial/images/logotype_small.jpg\"></a>","id":"a68me9opleay"},"type":"Feature","geometry":{"type":"Point","coordinates":[-75.947357,40.35949]}},{"properties":{"name":"Steve Master - first home purchase","description":"Posted by Smaster2022 ebony lane houston, tx.<a title=\"Built for Community Mapping\" href=\"http://www.platial.com\"><img src=\"http://media.geocommons.com/platial/images/logotype_small.jpg\"></a>","id":"a68me9kaowb9"},"type":"Feature","geometry":{"type":"Point","coordinates":[-95.448473,29.821341]}},{"properties":{"name":"Sue Albright","description":"Posted by Smaster<img src=\"http://media.geocommons.com/platial/images/categories/ICON_family_verD.gif\"> 30 Beechwood Drive reading, pa.<a title=\"Built for Community Mapping\" href=\"http://www.platial.com\"><img src=\"http://media.geocommons.com/platial/images/logotype_small.jpg\"></a>","id":"a68me9p42wkr"},"type":"Feature","geometry":{"type":"Point","coordinates":[-75.874058,40.323468]}}],"is_temporal":false,"author":{"url":"http://www.platial.com/map/226644","metadata":null,"contact_name":"smaster","contact_address":null,"source":"platial:smaster","contact_phone":null},"source":"http://www.platial.com/map/226644","pagination":{"sort":null,"start":0,"total":15,"limit":1000000},"state":"complete","tags":"platial,platial:id=226644,platial:user=smaster","published":"2010-04-25T16:00:00Z","id":43059}