{"type":"FeatureCollection","data_type":"Dataset","url_type":null,"permissions":[{"permissions":{"download":true,"view":true},"group_id":"everyone"}],"classification":null,"title":"\ntrfytoy's places\n","count":15,"stream_id":43308,"contributor":{"url":"http://geocommons.com/users/11444","name":"platial"},"data_attributes":null,"calculation_params":null,"icon_link":null,"link":"http://geocommons.com/overlays/43308.json","extent":[-120.471,29.7631,-95.3631,39.5356],"geometry_types":["point"],"unique_name":null,"name":"\ntrfytoy's places\n","feature_count":15,"description":"\nA Map by Trfytoy\n\n\n","next_feature":null,"is_raster":false,"short_classification":"Y","stats":{},"features":[{"properties":{"name":"BRANDON (OZH88)","description":"Posted by Trfytoy92653<a title=\"Built for Community Mapping\" href=\"http://www.platial.com\"><img src=\"http://media.geocommons.com/platial/images/logotype_small.jpg\"></a>","id":"a6htoyl6s0kv"},"type":"Feature","geometry":{"type":"Point","coordinates":[-117.709877,33.593985]}},{"properties":{"name":"Daniel","description":"Posted by Trfytoy<img src=\"http://media.geocommons.com/platial/img/2009/02/3/P1010898.JPG\">EL CAJONHAZARD<a title=\"Built for Community Mapping\" href=\"http://www.platial.com\"><img src=\"http://media.geocommons.com/platial/images/logotype_small.jpg\"></a>","id":"a6htoyfbmhtr"},"type":"Feature","geometry":{"type":"Point","coordinates":[-116.944444,32.829722]}},{"properties":{"name":"Dustin","description":"Posted by Trfytoyla habra<a title=\"Built for Community Mapping\" href=\"http://www.platial.com\"><img src=\"http://media.geocommons.com/platial/images/logotype_small.jpg\"></a>","id":"a6htoyrevm3a"},"type":"Feature","geometry":{"type":"Point","coordinates":[-117.945278,33.931944]}},{"properties":{"name":"Exospeed","description":"Posted by Trfytoylompoc<a title=\"Built for Community Mapping\" href=\"http://www.platial.com\"><img src=\"http://media.geocommons.com/platial/images/logotype_small.jpg\"></a>","id":"a6htoyped2aa"},"type":"Feature","geometry":{"type":"Point","coordinates":[-120.471279,34.660954]}},{"properties":{"name":"Kees","description":"Posted by Trfytoyhighlands ranch, co<a title=\"Built for Community Mapping\" href=\"http://www.platial.com\"><img src=\"http://media.geocommons.com/platial/images/logotype_small.jpg\"></a>","id":"a6htoyh7s89c"},"type":"Feature","geometry":{"type":"Point","coordinates":[-104.969444,39.535556]}},{"properties":{"name":"Kiki","description":"Posted by Trfytoy92399:)<a title=\"Built for Community Mapping\" href=\"http://www.platial.com\"><img src=\"http://media.geocommons.com/platial/images/logotype_small.jpg\"></a>","id":"a6htoyrtry91"},"type":"Feature","geometry":{"type":"Point","coordinates":[-117.014694,34.048168]}},{"properties":{"name":"Nick T-sak12m","description":"Posted by Trfytoy<img src=\"http://media.geocommons.com/platial/img/2009/02/3/m_3b7193228006e3dc44f630bc85b4336a.jpg\">92308<a title=\"Built for Community Mapping\" href=\"http://www.platial.com\"><img src=\"http://media.geocommons.com/platial/images/logotype_small.jpg\"></a>","id":"a6htoyeaf6my"},"type":"Feature","geometry":{"type":"Point","coordinates":[-117.145454,34.423596]}},{"properties":{"name":"Niki","description":"Posted by Trfytoy<img src=\"http://media.geocommons.com/platial/img/2009/02/3/0122091237.jpg\">Yucaipa, ca:)<a title=\"Built for Community Mapping\" href=\"http://www.platial.com\"><img src=\"http://media.geocommons.com/platial/images/logotype_small.jpg\"></a>","id":"a6htoydobep5"},"type":"Feature","geometry":{"type":"Point","coordinates":[-117.042222,34.033611]}},{"properties":{"name":"Rocco","description":"Posted by Trfytoy<img src=\"http://media.geocommons.com/platial/img/2009/02/3/l_ead1b54ca6bd4c13b112a75333aff980.jpg\">victorville caYeeeeehawww<a title=\"Built for Community Mapping\" href=\"http://www.platial.com\"><img src=\"http://media.geocommons.com/platial/images/logotype_small.jpg\"></a>","id":"a6htoydco3j0"},"type":"Feature","geometry":{"type":"Point","coordinates":[-117.3236,34.51065]}},{"properties":{"name":"Ronnie","description":"Posted by Trfytoyhouston<a title=\"Built for Community Mapping\" href=\"http://www.platial.com\"><img src=\"http://media.geocommons.com/platial/images/logotype_small.jpg\"></a>","id":"a6htoys03lca"},"type":"Feature","geometry":{"type":"Point","coordinates":[-95.363056,29.763056]}},{"properties":{"name":"Tony","description":"Posted by Trfytoy<img src=\"http://media.geocommons.com/platial/img/2009/02/3/1001132cb8.jpg\">San DiegobIg|T|uNdRa<a title=\"Built for Community Mapping\" href=\"http://www.platial.com\"><img src=\"http://media.geocommons.com/platial/images/logotype_small.jpg\"></a>","id":"a6htoyfb0epw"},"type":"Feature","geometry":{"type":"Point","coordinates":[-117.156389,32.715278]}},{"properties":{"name":"Trfytoy (Josh)","description":"Posted by Trfytoy<img src=\"http://media.geocommons.com/platial/img/2009/02/3/P1010312.JPG\">Orcutt, CAme so horny!<a title=\"Built for Community Mapping\" href=\"http://www.platial.com\"><img src=\"http://media.geocommons.com/platial/images/logotype_small.jpg\"></a>","id":"a6htoyj8y7fr"},"type":"Feature","geometry":{"type":"Point","coordinates":[-120.436798,34.865063]}},{"properties":{"name":"allspacer-Scott","description":"Posted by TrfytoyRiverside, 92507<a title=\"Built for Community Mapping\" href=\"http://www.platial.com\"><img src=\"http://media.geocommons.com/platial/images/logotype_small.jpg\"></a>","id":"a6htoylvlrrg"},"type":"Feature","geometry":{"type":"Point","coordinates":[-117.323008,33.970023]}},{"properties":{"name":"andrewguy","description":"Posted by TrfytoyOrange Ca.stalker<a title=\"Built for Community Mapping\" href=\"http://www.platial.com\"><img src=\"http://media.geocommons.com/platial/images/logotype_small.jpg\"></a>","id":"a6htoynkbgfz"},"type":"Feature","geometry":{"type":"Point","coordinates":[-117.85322,33.788143]}},{"properties":{"name":"student's tundra","description":"Posted by Trfytoytustin<a title=\"Built for Community Mapping\" href=\"http://www.platial.com\"><img src=\"http://media.geocommons.com/platial/images/logotype_small.jpg\"></a>","id":"a6htoygpno7o"},"type":"Feature","geometry":{"type":"Point","coordinates":[-117.825278,33.745833]}}],"is_temporal":false,"author":{"url":"http://www.platial.com/map/608484","metadata":null,"contact_name":"trfytoy","contact_address":null,"source":"platial:trfytoy","contact_phone":null},"source":"http://www.platial.com/map/608484","pagination":{"sort":null,"start":0,"total":15,"limit":1000000},"state":"complete","tags":"platial,platial:id=608484,platial:user=trfytoy","published":"2010-04-25T16:00:00Z","id":43308}