{"type":"FeatureCollection","data_type":"Dataset","url_type":null,"permissions":[{"permissions":{"download":true,"view":true},"group_id":"everyone"}],"classification":null,"title":"\nmsiwind's places\n","count":19,"stream_id":43522,"contributor":{"url":"http://geocommons.com/users/11444","name":"platial"},"data_attributes":null,"calculation_params":null,"icon_link":null,"link":"http://geocommons.com/overlays/43522.json","extent":[14.2476,49.8335,22.98,54.4416],"geometry_types":["point"],"unique_name":null,"name":"\nmsiwind's places\n","feature_count":19,"description":"\nA Map by Msiwind\n\n\n","next_feature":null,"is_raster":false,"short_classification":"Y","stats":{},"features":[{"properties":{"name":"Boguszow-Gorce","description":"Posted by Msiwind<img src=\"http://media.geocommons.com/platial/images/categories/ICON_house_verD.gif\"> <a title=\"Built for Community Mapping\" href=\"http://www.platial.com\"><img src=\"http://media.geocommons.com/platial/images/logotype_small.jpg\"></a>","id":"a640xgf8p4c7"},"type":"Feature","geometry":{"type":"Point","coordinates":[16.1986541748,50.7566582811]}},{"properties":{"name":"Deodam","description":"Posted by MsiwindStarograd Gdanski<a title=\"Built for Community Mapping\" href=\"http://www.platial.com\"><img src=\"http://media.geocommons.com/platial/images/logotype_small.jpg\"></a>","id":"a640xghfsfsj"},"type":"Feature","geometry":{"type":"Point","coordinates":[18.5916028,53.9882652]}},{"properties":{"name":"Dziarski","description":"Posted by MsiwindKraków<a title=\"Built for Community Mapping\" href=\"http://www.platial.com\"><img src=\"http://media.geocommons.com/platial/images/logotype_small.jpg\"></a>","id":"a640xg9zd8ip"},"type":"Feature","geometry":{"type":"Point","coordinates":[19.916666,50.083332]}},{"properties":{"name":"Jaden Kast","description":"Posted by MsiwindZabrze<a title=\"Built for Community Mapping\" href=\"http://www.platial.com\"><img src=\"http://media.geocommons.com/platial/images/logotype_small.jpg\"></a>","id":"a640xg53hhy5"},"type":"Feature","geometry":{"type":"Point","coordinates":[18.785718,50.324928]}},{"properties":{"name":"Kashue","description":"Posted by MsiwindBoguszow-GorceWItam :)<a title=\"Built for Community Mapping\" href=\"http://www.platial.com\"><img src=\"http://media.geocommons.com/platial/images/logotype_small.jpg\"></a>","id":"a640xg5hwb2x"},"type":"Feature","geometry":{"type":"Point","coordinates":[16.205053,50.756055]}},{"properties":{"name":"Kashue","description":"Posted by MsiwindBoguszow-GorceWitam :)<a title=\"Built for Community Mapping\" href=\"http://www.platial.com\"><img src=\"http://media.geocommons.com/platial/images/logotype_small.jpg\"></a>","id":"a640xgkuercc"},"type":"Feature","geometry":{"type":"Point","coordinates":[16.205053,50.756055]}},{"properties":{"name":"Mamut","description":"Posted by MsiwindRybnik<a title=\"Built for Community Mapping\" href=\"http://www.platial.com\"><img src=\"http://media.geocommons.com/platial/images/logotype_small.jpg\"></a>","id":"a640xgb1ccvl"},"type":"Feature","geometry":{"type":"Point","coordinates":[18.546285,50.102174]}},{"properties":{"name":"Slowhand","description":"Posted by Msiwindpoznan<a title=\"Built for Community Mapping\" href=\"http://www.platial.com\"><img src=\"http://media.geocommons.com/platial/images/logotype_small.jpg\"></a>","id":"a640xgjs7hs3"},"type":"Feature","geometry":{"type":"Point","coordinates":[16.966667,52.416668]}},{"properties":{"name":"bbl","description":"Posted by MsiwindMyslenice<a title=\"Built for Community Mapping\" href=\"http://www.platial.com\"><img src=\"http://media.geocommons.com/platial/images/logotype_small.jpg\"></a>","id":"a640xgiyv3g6"},"type":"Feature","geometry":{"type":"Point","coordinates":[19.93965,49.83347]}},{"properties":{"name":"czlowiek098","description":"Posted by MsiwindKraków<a title=\"Built for Community Mapping\" href=\"http://www.platial.com\"><img src=\"http://media.geocommons.com/platial/images/logotype_small.jpg\"></a>","id":"a640xggh71ch"},"type":"Feature","geometry":{"type":"Point","coordinates":[19.916666,50.083332]}},{"properties":{"name":"emilian :)","description":"Posted by MsiwindKruszwicaMSI WIND U90x<a title=\"Built for Community Mapping\" href=\"http://www.platial.com\"><img src=\"http://media.geocommons.com/platial/images/logotype_small.jpg\"></a>","id":"a640xgheatzs"},"type":"Feature","geometry":{"type":"Point","coordinates":[18.33017,52.674167]}},{"properties":{"name":"johnny","description":"Posted by MsiwindKraków<a title=\"Built for Community Mapping\" href=\"http://www.platial.com\"><img src=\"http://media.geocommons.com/platial/images/logotype_small.jpg\"></a>","id":"a640xgfg645c"},"type":"Feature","geometry":{"type":"Point","coordinates":[19.916666,50.083332]}},{"properties":{"name":"kodijak","description":"Posted by Msiwindstargard szczecinski<a title=\"Built for Community Mapping\" href=\"http://www.platial.com\"><img src=\"http://media.geocommons.com/platial/images/logotype_small.jpg\"></a>","id":"a640xgholdi6"},"type":"Feature","geometry":{"type":"Point","coordinates":[15.1311772,53.3176916]}},{"properties":{"name":"majak","description":"Posted by Msiwindsopot, poland<a title=\"Built for Community Mapping\" href=\"http://www.platial.com\"><img src=\"http://media.geocommons.com/platial/images/logotype_small.jpg\"></a>","id":"a640xgapsc4x"},"type":"Feature","geometry":{"type":"Point","coordinates":[18.560096,54.441581]}},{"properties":{"name":"pavlick","description":"Posted by Msiwindszczebrzeszyn<a title=\"Built for Community Mapping\" href=\"http://www.platial.com\"><img src=\"http://media.geocommons.com/platial/images/logotype_small.jpg\"></a>","id":"a640xgdtfwkl"},"type":"Feature","geometry":{"type":"Point","coordinates":[22.9800329,50.6951326]}},{"properties":{"name":"sQcha","description":"Posted by MsiwindDzierzoniowU100-035PL<a title=\"Built for Community Mapping\" href=\"http://www.platial.com\"><img src=\"http://media.geocommons.com/platial/images/logotype_small.jpg\"></a>","id":"a640xgb3sg4e"},"type":"Feature","geometry":{"type":"Point","coordinates":[16.6567892,50.7308605]}},{"properties":{"name":"sagamore","description":"Posted by MsiwindWroclaw<a title=\"Built for Community Mapping\" href=\"http://www.platial.com\"><img src=\"http://media.geocommons.com/platial/images/logotype_small.jpg\"></a>","id":"a640xgev3feu"},"type":"Feature","geometry":{"type":"Point","coordinates":[17.033333,51.099999]}},{"properties":{"name":"wookiee","description":"Posted by MsiwindWroclaw<a title=\"Built for Community Mapping\" href=\"http://www.platial.com\"><img src=\"http://media.geocommons.com/platial/images/logotype_small.jpg\"></a>","id":"a640xg7pog06"},"type":"Feature","geometry":{"type":"Point","coordinates":[17.033333,51.099999]}},{"properties":{"name":"yaceck","description":"Posted by Msiwindswinoujscie<a title=\"Built for Community Mapping\" href=\"http://www.platial.com\"><img src=\"http://media.geocommons.com/platial/images/logotype_small.jpg\"></a>","id":"a640xgfi4arg"},"type":"Feature","geometry":{"type":"Point","coordinates":[14.247578,53.910033]}}],"is_temporal":false,"author":{"url":"http://www.platial.com/map/516885","metadata":null,"contact_name":"msiwind","contact_address":null,"source":"platial:msiwind","contact_phone":null},"source":"http://www.platial.com/map/516885","pagination":{"sort":null,"start":0,"total":19,"limit":1000000},"state":"complete","tags":"platial,platial:id=516885,platial:user=msiwind","published":"2010-04-25T16:00:00Z","id":43522}