{"type":"FeatureCollection","data_type":"Dataset","url_type":null,"permissions":[{"permissions":{"download":true,"view":true},"group_id":"everyone"}],"classification":null,"title":"\nLocais Visitados_BisMarques\n","count":14,"stream_id":43530,"contributor":{"url":"http://geocommons.com/users/11444","name":"platial"},"data_attributes":null,"calculation_params":null,"icon_link":null,"link":"http://geocommons.com/overlays/43530.json","extent":[-18.7386,37.0197,2.35102,48.8567],"geometry_types":["point"],"unique_name":null,"name":"\nLocais Visitados_BisMarques\n","feature_count":14,"description":"\nA Map by Bismarques\n\n\n","next_feature":null,"is_raster":false,"short_classification":"Y","stats":{},"features":[{"properties":{"name":"Albufeira","description":"Posted by Bismarques<a title=\"Built for Community Mapping\" href=\"http://www.platial.com\"><img src=\"http://media.geocommons.com/platial/images/logotype_small.jpg\"></a>","id":"a6nv3s2aa4ai"},"type":"Feature","geometry":{"type":"Point","coordinates":[-8.23975,37.09024]}},{"properties":{"name":"Barcelona, Spain","description":"Posted by Bismarquesbarcelona<a title=\"Built for Community Mapping\" href=\"http://www.platial.com\"><img src=\"http://media.geocommons.com/platial/images/logotype_small.jpg\"></a>","id":"a6nv3s1av8ib"},"type":"Feature","geometry":{"type":"Point","coordinates":[2.169919,41.387917]}},{"properties":{"name":"Braga","description":"Posted by Bismarques<a title=\"Built for Community Mapping\" href=\"http://www.platial.com\"><img src=\"http://media.geocommons.com/platial/images/logotype_small.jpg\"></a>","id":"a6nv3rtvt49i"},"type":"Feature","geometry":{"type":"Point","coordinates":[-8.425999,41.550342]}},{"properties":{"name":"Coimbra","description":"Posted by Bismarques<a title=\"Built for Community Mapping\" href=\"http://www.platial.com\"><img src=\"http://media.geocommons.com/platial/images/logotype_small.jpg\"></a>","id":"a6nv3rwqhsyp"},"type":"Feature","geometry":{"type":"Point","coordinates":[-8.431664,40.207328]}},{"properties":{"name":"Faro, Portugal","description":"Posted by Bismarquesfaro, portugal<a title=\"Built for Community Mapping\" href=\"http://www.platial.com\"><img src=\"http://media.geocommons.com/platial/images/logotype_small.jpg\"></a>","id":"a6nv3rsx0aqe"},"type":"Feature","geometry":{"type":"Point","coordinates":[-7.93273,37.019653]}},{"properties":{"name":"Les Laureades, Toulouse","description":"Posted by Bismarques<a title=\"Built for Community Mapping\" href=\"http://www.platial.com\"><img src=\"http://media.geocommons.com/platial/images/logotype_small.jpg\"></a>","id":"a6nv3rw68qfw"},"type":"Feature","geometry":{"type":"Point","coordinates":[1.428823,43.605132]}},{"properties":{"name":"Lisboa","description":"Posted by Bismarques<a title=\"Built for Community Mapping\" href=\"http://www.platial.com\"><img src=\"http://media.geocommons.com/platial/images/logotype_small.jpg\"></a>","id":"a6nv3rt4p3ie"},"type":"Feature","geometry":{"type":"Point","coordinates":[-9.08981323242,38.7155187693]}},{"properties":{"name":"Lorient, France, LRT","description":"Posted by Bismarques<a title=\"Built for Community Mapping\" href=\"http://www.platial.com\"><img src=\"http://media.geocommons.com/platial/images/logotype_small.jpg\"></a>","id":"a6nv3s17wuhy"},"type":"Feature","geometry":{"type":"Point","coordinates":[-3.45,47.76667]}},{"properties":{"name":"Madrid, Spain","description":"Posted by BismarquesMadrid, Spain<a title=\"Built for Community Mapping\" href=\"http://www.platial.com\"><img src=\"http://media.geocommons.com/platial/images/logotype_small.jpg\"></a>","id":"a6nv3rxdnq9v"},"type":"Feature","geometry":{"type":"Point","coordinates":[-3.71,40.419998]}},{"properties":{"name":"Montemor Velho","description":"Posted by BismarquesPortugal<a title=\"Built for Community Mapping\" href=\"http://www.platial.com\"><img src=\"http://media.geocommons.com/platial/images/logotype_small.jpg\"></a>","id":"a6nv3s07c6lv"},"type":"Feature","geometry":{"type":"Point","coordinates":[-18.738612,37.395119]}},{"properties":{"name":"Nantes, France","description":"Posted by Bismarques<a title=\"Built for Community Mapping\" href=\"http://www.platial.com\"><img src=\"http://media.geocommons.com/platial/images/logotype_small.jpg\"></a>","id":"a6nv3rx11fly"},"type":"Feature","geometry":{"type":"Point","coordinates":[-1.543579,47.204642]}},{"properties":{"name":"Paris","description":"Posted by Bismarquesparis<a title=\"Built for Community Mapping\" href=\"http://www.platial.com\"><img src=\"http://media.geocommons.com/platial/images/logotype_small.jpg\"></a>","id":"a6nv3s4qj15e"},"type":"Feature","geometry":{"type":"Point","coordinates":[2.351019,48.856662]}},{"properties":{"name":"Porto, Portugal","description":"Posted by Bismarques<a title=\"Built for Community Mapping\" href=\"http://www.platial.com\"><img src=\"http://media.geocommons.com/platial/images/logotype_small.jpg\"></a>","id":"a6nv3s13lte1"},"type":"Feature","geometry":{"type":"Point","coordinates":[-8.602295,41.137296]}},{"properties":{"name":"Porto, Portugal","description":"Posted by Bismarques<a title=\"Built for Community Mapping\" href=\"http://www.platial.com\"><img src=\"http://media.geocommons.com/platial/images/logotype_small.jpg\"></a>","id":"a6nv3s31z1x9"},"type":"Feature","geometry":{"type":"Point","coordinates":[-8.610846,41.150118]}}],"is_temporal":false,"author":{"url":"http://www.platial.com/map/15770","metadata":null,"contact_name":"bismarques","contact_address":null,"source":"platial:bismarques","contact_phone":null},"source":"http://www.platial.com/map/15770","pagination":{"sort":null,"start":0,"total":14,"limit":1000000},"state":"complete","tags":"platial,platial:id=15770,platial:user=bismarques","published":"2010-04-25T16:00:00Z","id":43530}