{"type":"FeatureCollection","data_type":"Dataset","url_type":null,"permissions":[{"permissions":{"download":true,"view":true},"group_id":"everyone"}],"classification":null,"title":"\ncjdavidson09's places\n","count":19,"stream_id":44299,"contributor":{"url":"http://geocommons.com/users/11444","name":"platial"},"data_attributes":null,"calculation_params":null,"icon_link":null,"link":"http://geocommons.com/overlays/44299.json","extent":[-97.846,34.2503,-77.0034,41.3676],"geometry_types":["point"],"unique_name":null,"name":"\ncjdavidson09's places\n","feature_count":19,"description":"\nA Map by Cjdavidson09\n\n\n","next_feature":null,"is_raster":false,"short_classification":"Y","stats":{},"features":[{"properties":{"name":"CHRIS","description":"Posted by Cjdavidson09Kirby, AR, USA<a title=\"Built for Community Mapping\" href=\"http://www.platial.com\"><img src=\"http://media.geocommons.com/platial/images/logotype_small.jpg\"></a>","id":"a67lwseth9u3"},"type":"Feature","geometry":{"type":"Point","coordinates":[-93.641932,34.250337]}},{"properties":{"name":"Cagle","description":"Posted by Cjdavidson09<img src=\"http://media.geocommons.com/platial/img/2009/02/1/usc_07_primary_logo.jpg\">amityits me<a title=\"Built for Community Mapping\" href=\"http://www.platial.com\"><img src=\"http://media.geocommons.com/platial/images/logotype_small.jpg\"></a>","id":"a67lwsiejk5c"},"type":"Feature","geometry":{"type":"Point","coordinates":[-77.00338,40.454041]}},{"properties":{"name":"Christian","description":"Posted by Cjdavidson09LexingtonI PLAY GUITAR IN THE BAND!  <a title=\"Built for Community Mapping\" href=\"http://www.platial.com\"><img src=\"http://media.geocommons.com/platial/images/logotype_small.jpg\"></a>","id":"a67lwshqv5gt"},"type":"Feature","geometry":{"type":"Point","coordinates":[-84.500278,38.049167]}},{"properties":{"name":"HUSTON","description":"Posted by Cjdavidson09<img src=\"http://media.geocommons.com/platial/img/2009/05/1/2075534226_s.png\">40475I dig it!!!<a title=\"Built for Community Mapping\" href=\"http://www.platial.com\"><img src=\"http://media.geocommons.com/platial/images/logotype_small.jpg\"></a>","id":"a67lws5zlqc2"},"type":"Feature","geometry":{"type":"Point","coordinates":[-84.303141,37.756982]}},{"properties":{"name":"Jacob","description":"Posted by Cjdavidson09<img src=\"http://media.geocommons.com/platial/img/2009/02/1/jacob2.jpg\">Berea KentuckyWhats up!!!!<a title=\"Built for Community Mapping\" href=\"http://www.platial.com\"><img src=\"http://media.geocommons.com/platial/images/logotype_small.jpg\"></a>","id":"a67lwsglpgbo"},"type":"Feature","geometry":{"type":"Point","coordinates":[-84.2924,37.579301]}},{"properties":{"name":"Jessica","description":"Posted by Cjdavidson09Lancaster Kyrock on guys <a title=\"Built for Community Mapping\" href=\"http://www.platial.com\"><img src=\"http://media.geocommons.com/platial/images/logotype_small.jpg\"></a>","id":"a67lwsgievql"},"type":"Feature","geometry":{"type":"Point","coordinates":[-84.578721,37.619336]}},{"properties":{"name":"JosH","description":"Posted by Cjdavidson09Berea Kentuckyhey guys ur great cant wait for more new stuff see u in berea soon<a title=\"Built for Community Mapping\" href=\"http://www.platial.com\"><img src=\"http://media.geocommons.com/platial/images/logotype_small.jpg\"></a>","id":"a67lwshnh9sq"},"type":"Feature","geometry":{"type":"Point","coordinates":[-84.2924,37.579301]}},{"properties":{"name":"Marc","description":"Posted by Cjdavidson09<img src=\"http://media.geocommons.com/platial/img/2009/02/1/m_6c94324e3a0b44e5bbc358c762aecd0a_2_.jpg\">Berea KentuckyHey ATT fans!<a title=\"Built for Community Mapping\" href=\"http://www.platial.com\"><img src=\"http://media.geocommons.com/platial/images/logotype_small.jpg\"></a>","id":"a67lwsdy44hn"},"type":"Feature","geometry":{"type":"Point","coordinates":[-84.2924,37.579301]}},{"properties":{"name":"Marc","description":"Posted by Cjdavidson09<img src=\"http://media.geocommons.com/platial/img/2009/02/1/m_6c94324e3a0b44e5bbc358c762aecd0a.jpg\">Berea<a title=\"Built for Community Mapping\" href=\"http://www.platial.com\"><img src=\"http://media.geocommons.com/platial/images/logotype_small.jpg\"></a>","id":"a67lwsivmjr9"},"type":"Feature","geometry":{"type":"Point","coordinates":[-81.861756,41.367557]}},{"properties":{"name":"Marc","description":"Posted by Cjdavidson09Berea Kentucky<a title=\"Built for Community Mapping\" href=\"http://www.platial.com\"><img src=\"http://media.geocommons.com/platial/images/logotype_small.jpg\"></a>","id":"a67lws8nmyz6"},"type":"Feature","geometry":{"type":"Point","coordinates":[-84.2924,37.579301]}},{"properties":{"name":"Scott","description":"Posted by Cjdavidson0940503<a title=\"Built for Community Mapping\" href=\"http://www.platial.com\"><img src=\"http://media.geocommons.com/platial/images/logotype_small.jpg\"></a>","id":"a67lwsfn87lm"},"type":"Feature","geometry":{"type":"Point","coordinates":[-84.52821,38.001002]}},{"properties":{"name":"Sheila","description":"Posted by Cjdavidson09<img src=\"http://media.geocommons.com/platial/img/2009/02/1/PICT0094.JPG\">Mount Ida, ARHey Guys! Keep up the great work! Your sound is AWESOME! Godbless!<a title=\"Built for Community Mapping\" href=\"http://www.platial.com\"><img src=\"http://media.geocommons.com/platial/images/logotype_small.jpg\"></a>","id":"a67lws93fot0"},"type":"Feature","geometry":{"type":"Point","coordinates":[-93.629252,34.553208]}},{"properties":{"name":"Shelley","description":"Posted by Cjdavidson09Danville, KY<a title=\"Built for Community Mapping\" href=\"http://www.platial.com\"><img src=\"http://media.geocommons.com/platial/images/logotype_small.jpg\"></a>","id":"a67lwsh7tym3"},"type":"Feature","geometry":{"type":"Point","coordinates":[-84.772222,37.645556]}},{"properties":{"name":"Taylor","description":"Posted by Cjdavidson09Berea Kentucky<a title=\"Built for Community Mapping\" href=\"http://www.platial.com\"><img src=\"http://media.geocommons.com/platial/images/logotype_small.jpg\"></a>","id":"a67lwskxj4t2"},"type":"Feature","geometry":{"type":"Point","coordinates":[-84.2924,37.579301]}},{"properties":{"name":"cheyenne","description":"Posted by Cjdavidson09<img src=\"http://media.geocommons.com/platial/img/2009/02/1/Beautiful.jpg\">Mount Ida, ARthis is my home :)<a title=\"Built for Community Mapping\" href=\"http://www.platial.com\"><img src=\"http://media.geocommons.com/platial/images/logotype_small.jpg\"></a>","id":"a67lwse1bz51"},"type":"Feature","geometry":{"type":"Point","coordinates":[-93.629252,34.553208]}},{"properties":{"name":"danielle","description":"Posted by Cjdavidson09mt vernoni love u guys u rock\r<a title=\"Built for Community Mapping\" href=\"http://www.platial.com\"><img src=\"http://media.geocommons.com/platial/images/logotype_small.jpg\"></a>","id":"a67lws6bm79v"},"type":"Feature","geometry":{"type":"Point","coordinates":[-97.846008,37.71806]}},{"properties":{"name":"josh","description":"Posted by Cjdavidson0940403hey guys your great i love your stuff its amazing it gives me chills<a title=\"Built for Community Mapping\" href=\"http://www.platial.com\"><img src=\"http://media.geocommons.com/platial/images/logotype_small.jpg\"></a>","id":"a67lws8fkcah"},"type":"Feature","geometry":{"type":"Point","coordinates":[-84.2489525,37.5626974]}},{"properties":{"name":"kelvin Damrell","description":"Posted by Cjdavidson09brodhead kentucky<a title=\"Built for Community Mapping\" href=\"http://www.platial.com\"><img src=\"http://media.geocommons.com/platial/images/logotype_small.jpg\"></a>","id":"a67lwsek1vnc"},"type":"Feature","geometry":{"type":"Point","coordinates":[-84.414787,37.402569]}},{"properties":{"name":"shelly s.","description":"Posted by Cjdavidson09greenvillethis music rocks!!!!<a title=\"Built for Community Mapping\" href=\"http://www.platial.com\"><img src=\"http://media.geocommons.com/platial/images/logotype_small.jpg\"></a>","id":"a67lwsh6squ1"},"type":"Feature","geometry":{"type":"Point","coordinates":[-82.394167,34.8525]}}],"is_temporal":false,"author":{"url":"http://www.platial.com/map/596242","metadata":null,"contact_name":"cjdavidson09","contact_address":null,"source":"platial:cjdavidson09","contact_phone":null},"source":"http://www.platial.com/map/596242","pagination":{"sort":null,"start":0,"total":19,"limit":1000000},"state":"complete","tags":"platial,platial:id=596242,platial:user=cjdavidson09","published":"2010-04-26T16:00:00Z","id":44299}