{"type":"FeatureCollection","data_type":"Dataset","url_type":null,"permissions":[{"permissions":{"download":true,"view":true},"group_id":"everyone"}],"classification":null,"title":"\nХаллелүяа чуулган\n","count":14,"stream_id":44541,"contributor":{"url":"http://geocommons.com/users/11444","name":"platial"},"data_attributes":null,"calculation_params":null,"icon_link":null,"link":"http://geocommons.com/overlays/44541.json","extent":[106.766,47.8612,106.992,47.948],"geometry_types":["point"],"unique_name":null,"name":"\nХаллелүяа чуулган\n","feature_count":14,"description":"\nA Map by Dramiinbag\n\n\n","next_feature":null,"is_raster":false,"short_classification":"Y","stats":{},"features":[{"properties":{"name":"1-р хороолол","description":"Posted by Dramiinbag<a title=\"Built for Community Mapping\" href=\"http://www.platial.com\"><img src=\"http://media.geocommons.com/platial/images/logotype_small.jpg\"></a>","id":"a640kvf1kvkl"},"type":"Feature","geometry":{"type":"Point","coordinates":[106.840753555,47.9120274844]}},{"properties":{"name":"13-р хороолол","description":"Posted by Dramiinbag<a title=\"Built for Community Mapping\" href=\"http://www.platial.com\"><img src=\"http://media.geocommons.com/platial/images/logotype_small.jpg\"></a>","id":"a640kv8laanw"},"type":"Feature","geometry":{"type":"Point","coordinates":[106.94108963,47.9151915271]}},{"properties":{"name":"3, 4-р хороолол","description":"Posted by Dramiinbag<a title=\"Built for Community Mapping\" href=\"http://www.platial.com\"><img src=\"http://media.geocommons.com/platial/images/logotype_small.jpg\"></a>","id":"a640kv9y5zk3"},"type":"Feature","geometry":{"type":"Point","coordinates":[106.874270439,47.9209150765]}},{"properties":{"name":"Баянзүрх дүүрэг","description":"Posted by Dramiinbag<a title=\"Built for Community Mapping\" href=\"http://www.platial.com\"><img src=\"http://media.geocommons.com/platial/images/logotype_small.jpg\"></a>","id":"a640kvh4uwst"},"type":"Feature","geometry":{"type":"Point","coordinates":[106.992073059,47.9163420402]}},{"properties":{"name":"Баянхошуу","description":"Posted by Dramiinbag<a title=\"Built for Community Mapping\" href=\"http://www.platial.com\"><img src=\"http://media.geocommons.com/platial/images/logotype_small.jpg\"></a>","id":"a640kvcglyyh"},"type":"Feature","geometry":{"type":"Point","coordinates":[106.83139801,47.9479711237]}},{"properties":{"name":"Дарь-Эх","description":"Posted by Dramiinbag<a title=\"Built for Community Mapping\" href=\"http://www.platial.com\"><img src=\"http://media.geocommons.com/platial/images/logotype_small.jpg\"></a>","id":"a640kvc8nba0"},"type":"Feature","geometry":{"type":"Point","coordinates":[106.931648254,47.9476261835]}},{"properties":{"name":"Зурагтын гэр хороолол","description":"Posted by Dramiinbag<a title=\"Built for Community Mapping\" href=\"http://www.platial.com\"><img src=\"http://media.geocommons.com/platial/images/logotype_small.jpg\"></a>","id":"a640kvg1o4i1"},"type":"Feature","geometry":{"type":"Point","coordinates":[106.89620018,47.9301462011]}},{"properties":{"name":"МҮОНТВ","description":"Posted by Dramiinbag<a title=\"Built for Community Mapping\" href=\"http://www.platial.com\"><img src=\"http://media.geocommons.com/platial/images/logotype_small.jpg\"></a>","id":"a640kvd72glu"},"type":"Feature","geometry":{"type":"Point","coordinates":[106.889870167,47.9287228173]}},{"properties":{"name":"Нисэх","description":"Posted by Dramiinbag<a title=\"Built for Community Mapping\" href=\"http://www.platial.com\"><img src=\"http://media.geocommons.com/platial/images/logotype_small.jpg\"></a>","id":"a640kvjo8022"},"type":"Feature","geometry":{"type":"Point","coordinates":[106.765995026,47.8612037289]}},{"properties":{"name":"Сүхбаатарын талбай","description":"Posted by Dramiinbag<a title=\"Built for Community Mapping\" href=\"http://www.platial.com\"><img src=\"http://media.geocommons.com/platial/images/logotype_small.jpg\"></a>","id":"a640kv6n5wky"},"type":"Feature","geometry":{"type":"Point","coordinates":[106.917572021,47.9182978536]}},{"properties":{"name":"Толгойт","description":"Posted by Dramiinbag<a title=\"Built for Community Mapping\" href=\"http://www.platial.com\"><img src=\"http://media.geocommons.com/platial/images/logotype_small.jpg\"></a>","id":"a640kvhp3dg3"},"type":"Feature","geometry":{"type":"Point","coordinates":[106.781101227,47.9180677617]}},{"properties":{"name":"Халлелүяа чуулган","description":"Posted by Dramiinbag<a title=\"Built for Community Mapping\" href=\"http://www.platial.com\"><img src=\"http://media.geocommons.com/platial/images/logotype_small.jpg\"></a>","id":"a640kvahv3hz"},"type":"Feature","geometry":{"type":"Point","coordinates":[106.89029932,47.9299880493]}},{"properties":{"name":"Яармаг","description":"Posted by Dramiinbag<a title=\"Built for Community Mapping\" href=\"http://www.platial.com\"><img src=\"http://media.geocommons.com/platial/images/logotype_small.jpg\"></a>","id":"a640kvghs49z"},"type":"Feature","geometry":{"type":"Point","coordinates":[106.809425354,47.8693803368]}},{"properties":{"name":"Үйлдвэр, комбинат","description":"Posted by Dramiinbag<a title=\"Built for Community Mapping\" href=\"http://www.platial.com\"><img src=\"http://media.geocommons.com/platial/images/logotype_small.jpg\"></a>","id":"a640kvcoxath"},"type":"Feature","geometry":{"type":"Point","coordinates":[106.894569397,47.8928665121]}}],"is_temporal":false,"author":{"url":"http://www.platial.com/map/99283","metadata":null,"contact_name":"dramiinbag","contact_address":null,"source":"platial:dramiinbag","contact_phone":null},"source":"http://www.platial.com/map/99283","pagination":{"sort":null,"start":0,"total":14,"limit":1000000},"state":"complete","tags":"platial,platial:id=99283,platial:user=dramiinbag","published":"2010-04-26T16:00:00Z","id":44541}