{"type":"FeatureCollection","data_type":"Dataset","url_type":null,"permissions":[{"permissions":{"download":true,"view":true},"group_id":"everyone"}],"classification":null,"title":"\nwoodie5's places\n","count":13,"stream_id":46609,"contributor":{"url":"http://geocommons.com/users/11444","name":"platial"},"data_attributes":null,"calculation_params":null,"icon_link":null,"link":"http://geocommons.com/overlays/46609.json","extent":[-115.67,22.8833,139.77,51.1756],"geometry_types":["point"],"unique_name":null,"name":"\nwoodie5's places\n","feature_count":13,"description":"\nA Map by Woodie5\n\n\n","next_feature":null,"is_raster":false,"short_classification":"Y","stats":{},"features":[{"properties":{"name":null,"description":"Posted by Woodie5Venice<a title=\"Built for Community Mapping\" href=\"http://www.platial.com\"><img src=\"http://media.geocommons.com/platial/images/logotype_small.jpg\"></a>","id":"a62v95ykx58y"},"type":"Feature","geometry":{"type":"Point","coordinates":[12.335163,45.438488]}},{"properties":{"name":null,"description":"Posted by Woodie5<a title=\"Built for Community Mapping\" href=\"http://www.platial.com\"><img src=\"http://media.geocommons.com/platial/images/logotype_small.jpg\"></a>","id":"a62v95ok5la5"},"type":"Feature","geometry":{"type":"Point","coordinates":[-115.566051,51.175551]}},{"properties":{"name":"Athens Greece","description":"Posted by Woodie5Athens, Greece<a title=\"Built for Community Mapping\" href=\"http://www.platial.com\"><img src=\"http://media.geocommons.com/platial/images/logotype_small.jpg\"></a>","id":"a62v95t5jfn1"},"type":"Feature","geometry":{"type":"Point","coordinates":[23.729999,37.979999]}},{"properties":{"name":"Banff Canada","description":"Posted by Woodie5Banff, AB, T1L 1J5<a title=\"Built for Community Mapping\" href=\"http://www.platial.com\"><img src=\"http://media.geocommons.com/platial/images/logotype_small.jpg\"></a>","id":"a62v95qvhvd8"},"type":"Feature","geometry":{"type":"Point","coordinates":[-115.669599,51.172079]}},{"properties":{"name":"Cabo San lucas","description":"Posted by Woodie5cabo san lucas<a title=\"Built for Community Mapping\" href=\"http://www.platial.com\"><img src=\"http://media.geocommons.com/platial/images/logotype_small.jpg\"></a>","id":"a62v95q6atyg"},"type":"Feature","geometry":{"type":"Point","coordinates":[-109.900001,22.883333]}},{"properties":{"name":"Florence Italy","description":"Posted by Woodie5Florence, Italy<a title=\"Built for Community Mapping\" href=\"http://www.platial.com\"><img src=\"http://media.geocommons.com/platial/images/logotype_small.jpg\"></a>","id":"a62v95s995ks"},"type":"Feature","geometry":{"type":"Point","coordinates":[11.235752,43.776052]}},{"properties":{"name":"My favorite city in the world.","description":"Posted by Woodie5<a title=\"Built for Community Mapping\" href=\"http://www.platial.com\"><img src=\"http://media.geocommons.com/platial/images/logotype_small.jpg\"></a>","id":"a62v95rmwvg7"},"type":"Feature","geometry":{"type":"Point","coordinates":[11.239999,43.779998]}},{"properties":{"name":"One of the best places in the world","description":"Posted by Woodie5Venice<a title=\"Built for Community Mapping\" href=\"http://www.platial.com\"><img src=\"http://media.geocommons.com/platial/images/logotype_small.jpg\"></a>","id":"a62v95oy9bqb"},"type":"Feature","geometry":{"type":"Point","coordinates":[12.335163,45.438488]}},{"properties":{"name":"Taipei taiwan","description":"Posted by Woodie5taipei, taiwan<a title=\"Built for Community Mapping\" href=\"http://www.platial.com\"><img src=\"http://media.geocommons.com/platial/images/logotype_small.jpg\"></a>","id":"a62v95p3aug9"},"type":"Feature","geometry":{"type":"Point","coordinates":[121.449996,25.02]}},{"properties":{"name":"The best place for my wife to shop for leather goods","description":"Posted by Woodie5<img src=\"http://media.geocommons.com/platial/images/categories/ICON_shopping_verD.gif\">Â Great museums, churches, and restaurants. Statue of David, by Michaelangelo is a must see.<a title=\"Built for Community Mapping\" href=\"http://www.platial.com\"><img src=\"http://media.geocommons.com/platial/images/logotype_small.jpg\"></a>","id":"a62v95ych6ld"},"type":"Feature","geometry":{"type":"Point","coordinates":[11.239999,43.779998]}},{"properties":{"name":"Through here many times","description":"Posted by Woodie5<a title=\"Built for Community Mapping\" href=\"http://www.platial.com\"><img src=\"http://media.geocommons.com/platial/images/logotype_small.jpg\"></a>","id":"a62v963q2uvk"},"type":"Feature","geometry":{"type":"Point","coordinates":[11.575556,48.136939]}},{"properties":{"name":"Tokyo Japan","description":"Posted by Woodie5Tokyo, Japan<a title=\"Built for Community Mapping\" href=\"http://www.platial.com\"><img src=\"http://media.geocommons.com/platial/images/logotype_small.jpg\"></a>","id":"a62v96423jp5"},"type":"Feature","geometry":{"type":"Point","coordinates":[139.770004,35.669998]}},{"properties":{"name":"Venice Italy","description":"Posted by Woodie5Venice, Italy<a title=\"Built for Community Mapping\" href=\"http://www.platial.com\"><img src=\"http://media.geocommons.com/platial/images/logotype_small.jpg\"></a>","id":"a62v95vmaw2h"},"type":"Feature","geometry":{"type":"Point","coordinates":[12.33593,45.432732]}}],"is_temporal":false,"author":{"url":"http://www.platial.com/map/233440","metadata":null,"contact_name":"woodie5","contact_address":null,"source":"platial:woodie5","contact_phone":null},"source":"http://www.platial.com/map/233440","pagination":{"sort":null,"start":0,"total":13,"limit":1000000},"state":"complete","tags":"platial,platial:id=233440,platial:user=woodie5","published":"2010-04-26T16:00:00Z","id":46609}