{"type":"FeatureCollection","data_type":"Dataset","url_type":null,"permissions":[{"permissions":{"download":true,"view":true},"group_id":"everyone"}],"classification":null,"title":"\nTest Parkview 1\n","count":11,"stream_id":46644,"contributor":{"url":"http://geocommons.com/users/11444","name":"platial"},"data_attributes":null,"calculation_params":null,"icon_link":null,"link":"http://geocommons.com/overlays/46644.json","extent":[-71.1079,42.4084,-71.0231,42.4805],"geometry_types":["point"],"unique_name":null,"name":"\nTest Parkview 1\n","feature_count":11,"description":"\nA Map by Nearle\n\nThis is a description.\n&amp;lt;bold&amp;gt;\n","next_feature":null,"is_raster":false,"short_classification":"Y","stats":{},"features":[{"properties":{"name":"ABC Hairdressers","description":"Posted by Nearle<img src=\"http://media.geocommons.com/platial/img/2007/09/1/643.jpg\">123 way, melrose, MA<a title=\"Built for Community Mapping\" href=\"http://www.platial.com\"><img src=\"http://media.geocommons.com/platial/images/logotype_small.jpg\"></a>","id":"a6faoinqfcyo"},"type":"Feature","geometry":{"type":"Point","coordinates":[-71.066743,42.46554]}},{"properties":{"name":"Ballato, Josephine","description":"Posted by Nearle607 Main St Medford, MA  02155, Malden, MA, 2148<a title=\"Built for Community Mapping\" href=\"http://www.platial.com\"><img src=\"http://media.geocommons.com/platial/images/logotype_small.jpg\"></a>","id":"a6faoii48huz"},"type":"Feature","geometry":{"type":"Point","coordinates":[-71.067772,42.43484]}},{"properties":{"name":"Evans, Sylvia","description":"Posted by Nearle32 Sherman Street Medford, MA  02155, Malden, MA, 2159<a title=\"Built for Community Mapping\" href=\"http://www.platial.com\"><img src=\"http://media.geocommons.com/platial/images/logotype_small.jpg\"></a>","id":"a6faoiew0eg5"},"type":"Feature","geometry":{"type":"Point","coordinates":[-71.093148,42.413471]}},{"properties":{"name":"Hatch, Althea","description":"Posted by Nearle37 West Highland Avenue Melrose, MA  02176, Malden, MA, 2167<a title=\"Built for Community Mapping\" href=\"http://www.platial.com\"><img src=\"http://media.geocommons.com/platial/images/logotype_small.jpg\"></a>","id":"a6faoiewnd0o"},"type":"Feature","geometry":{"type":"Point","coordinates":[-71.063509,42.468735]}},{"properties":{"name":"Johnson, Francis","description":"Posted by Nearle27 Howard Street Wakefield, MA  01880, Malden, MA, 2169<a title=\"Built for Community Mapping\" href=\"http://www.platial.com\"><img src=\"http://media.geocommons.com/platial/images/logotype_small.jpg\"></a>","id":"a6faoimlslok"},"type":"Feature","geometry":{"type":"Point","coordinates":[-71.061027,42.476693]}},{"properties":{"name":"Luscombe, Charlotte","description":"Posted by Nearle181A Middlesex Avenue Medford, MA  02155, Malden, MA, 2173<a title=\"Built for Community Mapping\" href=\"http://www.platial.com\"><img src=\"http://media.geocommons.com/platial/images/logotype_small.jpg\"></a>","id":"a6faoifxwx01"},"type":"Feature","geometry":{"type":"Point","coordinates":[-71.080302,42.408393]}},{"properties":{"name":"Pratt, Richard","description":"Posted by Nearle8 Pierce  Road Wakefield, MA  01880, Malden, MA, 2182<a title=\"Built for Community Mapping\" href=\"http://www.platial.com\"><img src=\"http://media.geocommons.com/platial/images/logotype_small.jpg\"></a>","id":"a6faoidizspk"},"type":"Feature","geometry":{"type":"Point","coordinates":[-71.023113,42.464585]}},{"properties":{"name":"Rogers, Alan","description":"Posted by Nearle19 Cedar Road Medford, MA  02155, Malden, MA, 2184<a title=\"Built for Community Mapping\" href=\"http://www.platial.com\"><img src=\"http://media.geocommons.com/platial/images/logotype_small.jpg\"></a>","id":"a6faoif39v6x"},"type":"Feature","geometry":{"type":"Point","coordinates":[-71.107924,42.422622]}},{"properties":{"name":"Sullivan Kelly, Mary","description":"Posted by Nearle51 Fellsway East Malden, MA  02148, Malden, MA, 2189<a title=\"Built for Community Mapping\" href=\"http://www.platial.com\"><img src=\"http://media.geocommons.com/platial/images/logotype_small.jpg\"></a>","id":"a6faoic2enlj"},"type":"Feature","geometry":{"type":"Point","coordinates":[-71.0869,42.424872]}},{"properties":{"name":"Thomas, Alba","description":"Posted by Nearle94 Roosevelt Rd Medford, MA  02155, Malden, MA, 2190<a title=\"Built for Community Mapping\" href=\"http://www.platial.com\"><img src=\"http://media.geocommons.com/platial/images/logotype_small.jpg\"></a>","id":"a6faoib83b1w"},"type":"Feature","geometry":{"type":"Point","coordinates":[-71.104758,42.428255]}},{"properties":{"name":"Woodman, Anne Marie","description":"Posted by Nearle7 Babson Street Wakefield, MA  01880, Malden, MA, 2192<a title=\"Built for Community Mapping\" href=\"http://www.platial.com\"><img src=\"http://media.geocommons.com/platial/images/logotype_small.jpg\"></a>","id":"a6faoid4rl6j"},"type":"Feature","geometry":{"type":"Point","coordinates":[-71.060242,42.480549]}}],"is_temporal":false,"author":{"url":"http://www.platial.com/map/53338","metadata":null,"contact_name":"nearle","contact_address":null,"source":"platial:nearle","contact_phone":null},"source":"http://www.platial.com/map/53338","pagination":{"sort":null,"start":0,"total":11,"limit":1000000},"state":"complete","tags":"platial,platial:id=53338,platial:user=nearle","published":"2010-04-27T16:00:00Z","id":46644}