{"type":"FeatureCollection","data_type":"Dataset","url_type":null,"permissions":[{"permissions":{"download":true,"view":true},"group_id":"everyone"}],"classification":null,"title":"\nVacations with my Family\n","count":11,"stream_id":46932,"contributor":{"url":"http://geocommons.com/users/11444","name":"platial"},"data_attributes":null,"calculation_params":null,"icon_link":null,"link":"http://geocommons.com/overlays/46932.json","extent":[-157.858,-26.7456,13.7109,41.8955],"geometry_types":["point"],"unique_name":null,"name":"\nVacations with my Family\n","feature_count":11,"description":"\nA Map by Austinj1033\n\n\n","next_feature":null,"is_raster":false,"short_classification":"Y","stats":{},"features":[{"properties":{"name":"Vacation #1","description":"Posted by Austinj1033Honolulu, HI<a title=\"Built for Community Mapping\" href=\"http://www.platial.com\"><img src=\"http://media.geocommons.com/platial/images/logotype_small.jpg\"></a>","id":"a62xxmu0parr"},"type":"Feature","geometry":{"type":"Point","coordinates":[-157.858333,21.306944]}},{"properties":{"name":"Vacation #10","description":"Posted by Austinj1033cancun, mexico<a title=\"Built for Community Mapping\" href=\"http://www.platial.com\"><img src=\"http://media.geocommons.com/platial/images/logotype_small.jpg\"></a>","id":"a62xxn2cy6e9"},"type":"Feature","geometry":{"type":"Point","coordinates":[-86.830001,21.17]}},{"properties":{"name":"Vacation #2","description":"Posted by Austinj1033Lana\\'i, Hawaii<a title=\"Built for Community Mapping\" href=\"http://www.platial.com\"><img src=\"http://media.geocommons.com/platial/images/logotype_small.jpg\"></a>","id":"a62xxmtzpouv"},"type":"Feature","geometry":{"type":"Point","coordinates":[-156.920756,20.830493]}},{"properties":{"name":"Vacation #3","description":"Posted by Austinj1033Atlanta, Georgia, US<a title=\"Built for Community Mapping\" href=\"http://www.platial.com\"><img src=\"http://media.geocommons.com/platial/images/logotype_small.jpg\"></a>","id":"a62xxmzmy599"},"type":"Feature","geometry":{"type":"Point","coordinates":[-84.389663,33.754487]}},{"properties":{"name":"Vacation #4","description":"Posted by Austinj1033Rome<a title=\"Built for Community Mapping\" href=\"http://www.platial.com\"><img src=\"http://media.geocommons.com/platial/images/logotype_small.jpg\"></a>","id":"a62xxn0h6z4k"},"type":"Feature","geometry":{"type":"Point","coordinates":[12.482323,41.895466]}},{"properties":{"name":"Vacation #5","description":"Posted by Austinj1033San Francisco<a title=\"Built for Community Mapping\" href=\"http://www.platial.com\"><img src=\"http://media.geocommons.com/platial/images/logotype_small.jpg\"></a>","id":"a62xxmrmr55y"},"type":"Feature","geometry":{"type":"Point","coordinates":[-122.418333,37.775]}},{"properties":{"name":"Vacation #6","description":"Posted by Austinj10331040 Us-98, Destin, FL<a title=\"Built for Community Mapping\" href=\"http://www.platial.com\"><img src=\"http://media.geocommons.com/platial/images/logotype_small.jpg\"></a>","id":"a62xxmu7yg0h"},"type":"Feature","geometry":{"type":"Point","coordinates":[-86.470575,30.38676]}},{"properties":{"name":"Vacation #7","description":"Posted by Austinj1033Columbia, SC<a title=\"Built for Community Mapping\" href=\"http://www.platial.com\"><img src=\"http://media.geocommons.com/platial/images/logotype_small.jpg\"></a>","id":"a62xxmqthzpd"},"type":"Feature","geometry":{"type":"Point","coordinates":[-81.035,34.000556]}},{"properties":{"name":"Vacation #8","description":"Posted by Austinj1033Dallas<a title=\"Built for Community Mapping\" href=\"http://www.platial.com\"><img src=\"http://media.geocommons.com/platial/images/logotype_small.jpg\"></a>","id":"a62xxmz3v0z6"},"type":"Feature","geometry":{"type":"Point","coordinates":[-96.8,32.783333]}},{"properties":{"name":"Vacation #9","description":"Posted by Austinj1033New York<a title=\"Built for Community Mapping\" href=\"http://www.platial.com\"><img src=\"http://media.geocommons.com/platial/images/logotype_small.jpg\"></a>","id":"a62xxn3k9iyp"},"type":"Feature","geometry":{"type":"Point","coordinates":[-74.006389,40.714167]}},{"properties":{"name":"langsa","description":"Posted by Chairu<a title=\"Built for Community Mapping\" href=\"http://www.platial.com\"><img src=\"http://media.geocommons.com/platial/images/logotype_small.jpg\"></a>","id":"a62xxn222koq"},"type":"Feature","geometry":{"type":"Point","coordinates":[13.7109375,-26.7456103822]}}],"is_temporal":false,"author":{"url":"http://www.platial.com/map/103747","metadata":null,"contact_name":"austinj1033","contact_address":null,"source":"platial:austinj1033","contact_phone":null},"source":"http://www.platial.com/map/103747","pagination":{"sort":null,"start":0,"total":11,"limit":1000000},"state":"complete","tags":"platial,platial:id=103747,platial:user=austinj1033","published":"2010-04-27T16:00:00Z","id":46932}