{"type":"FeatureCollection","state":"complete","icon_link":null,"title":"Bohol_Spreadsheet_-_ALS_DATA__-_CD3","count":19,"geometry_types":["point"],"unique_name":null,"pagination":{"sort":null,"start":0,"limit":1000000,"total":19},"feature_count":19,"data_type":"Dataset","stats":{"latitude":{"max":9.888786,"stdev":0.120308967374007,"mean":9.70945035794737,"median":9.719611,"min":9.4228917,"variance":0.0144742476305999},"employment":{"max":321,"stdev":77.7469278834967,"mean":34.1578947368421,"median":0,"min":0,"variance":6044.58479532164},"total":{"max":1126,"stdev":266.18631078022,"mean":435.473684210526,"median":371,"min":154,"variance":70855.1520467836},"skills training":{"max":663,"stdev":172.716226038094,"mean":348.315789473684,"median":337,"min":112,"variance":29830.8947368421},"longitude":{"max":1242421594.0,"stdev":285031033.255196,"mean":65390727.9377465,"median":124.293091,"min":124.012838,"variance":8.12426899185244e+16},"education":{"max":308,"stdev":96.8807973175742,"mean":53.0,"median":0,"min":0,"variance":9385.88888888889}},"next_feature":null,"is_raster":false,"link":"http://geocommons.com/overlays/485755.json","short_classification":"Y","name":"Bohol_Spreadsheet_-_ALS_DATA__-_CD3","is_temporal":false,"description":"","permissions":[{"group_id":"everyone","permissions":{"download":true,"view":true}}],"classification":null,"published":"2015-08-29T13:54:20-04:00","extent":[124.013,9.42289,180.0,9.88879],"features":[{"properties":{"employment":0,"cd":"3rd District","latitude":9.888786,"total":173,"municipality":"Alicia","skills training":173,"education":0,"longitude":124.445436,"id":"apeh5bo3m1uw"},"type":"Feature","geometry":{"type":"Point","coordinates":[124.445436,9.888786]}},{"properties":{"employment":65,"cd":"3rd District","latitude":9.745229,"total":385,"municipality":"Anda","skills training":210,"education":110,"longitude":124.572393,"id":"apeh5bnfr4zd"},"type":"Feature","geometry":{"type":"Point","coordinates":[124.572393,9.745229]}},{"properties":{"employment":0,"cd":"3rd District","latitude":9.779618,"total":183,"municipality":"Batuan","skills training":183,"education":0,"longitude":124.146847,"id":"apeh5biydhbq"},"type":"Feature","geometry":{"type":"Point","coordinates":[124.146847,9.779618]}},{"properties":{"employment":0,"cd":"3rd District","latitude":9.719611,"total":404,"municipality":"Bilar","skills training":404,"education":0,"longitude":124.1107,"id":"apeh5b9sp250"},"type":"Feature","geometry":{"type":"Point","coordinates":[124.1107,9.719611]}},{"properties":{"employment":70,"cd":"3rd District","latitude":9.81735,"total":807,"municipality":"Candijay","skills training":535,"education":202,"longitude":124.49536,"id":"apeh5bk9rc9j"},"type":"Feature","geometry":{"type":"Point","coordinates":[124.49536,9.81735]}},{"properties":{"employment":0,"cd":"3rd District","latitude":9.816826667,"total":552,"municipality":"Carmen","skills training":552,"education":0,"longitude":124.1835667,"id":"apeh5bbuo9j8"},"type":"Feature","geometry":{"type":"Point","coordinates":[124.1835667,9.816826667]}},{"properties":{"employment":87,"cd":"3rd District","latitude":9.602749,"total":681,"municipality":"Dimiao","skills training":337,"education":257,"longitude":124.163028,"id":"apeh5bj47xvl"},"type":"Feature","geometry":{"type":"Point","coordinates":[124.163028,9.602749]}},{"properties":{"employment":0,"cd":"3rd District","latitude":9.4228917,"total":361,"municipality":"Duero","skills training":361,"education":0,"longitude":1242421594.0,"id":"apeh5beneqfq"},"type":"Feature","geometry":{"type":"Point","coordinates":[1242421594.0,9.4228917]}},{"properties":{"employment":0,"cd":"3rd District","latitude":9.613888,"total":350,"municipality":"Garcia Hernandez","skills training":280,"education":70,"longitude":124.294444,"id":"apeh5bnn7iff"},"type":"Feature","geometry":{"type":"Point","coordinates":[124.294444,9.613888]}},{"properties":{"employment":0,"cd":"3rd District","latitude":9.769117,"total":175,"municipality":"Guindulman","skills training":175,"education":0,"longitude":124.483235,"id":"apeh5bgmmlb2"},"type":"Feature","geometry":{"type":"Point","coordinates":[124.483235,9.769117]}},{"properties":{"employment":106,"cd":"3rd District","latitude":9.654093434,"total":690,"municipality":"Jagna","skills training":584,"education":0,"longitude":124.371103,"id":"apeh5ben5bzd"},"type":"Feature","geometry":{"type":"Point","coordinates":[124.371103,9.654093434]}},{"properties":{"employment":321,"cd":"3rd District","latitude":9.5925,"total":1126,"municipality":"Lila","skills training":497,"education":308,"longitude":124.101434,"id":"apeh5bda7uaw"},"type":"Feature","geometry":{"type":"Point","coordinates":[124.101434,9.5925]}},{"properties":{"employment":0,"cd":"3rd District","latitude":9.600483,"total":226,"municipality":"Loay","skills training":226,"education":0,"longitude":124.012838,"id":"apeh5bcsfphi"},"type":"Feature","geometry":{"type":"Point","coordinates":[124.012838,9.600483]}},{"properties":{"employment":0,"cd":"3rd District","latitude":9.637633,"total":663,"municipality":"Loboc","skills training":663,"education":0,"longitude":124.031595,"id":"apeh5bg19l4g"},"type":"Feature","geometry":{"type":"Point","coordinates":[124.031595,9.637633]}},{"properties":{"employment":0,"cd":"3rd District","latitude":9.866045,"total":172,"municipality":"Mabini","skills training":112,"education":60,"longitude":124.523382,"id":"apeh5bhv8ncf"},"type":"Feature","geometry":{"type":"Point","coordinates":[124.523382,9.866045]}},{"properties":{"employment":0,"cd":"3rd District","latitude":9.833334,"total":565,"municipality":"Pilar","skills training":565,"education":0,"longitude":124.33001,"id":"apeh5be5cjnq"},"type":"Feature","geometry":{"type":"Point","coordinates":[124.33001,9.833334]}},{"properties":{"employment":0,"cd":"3rd District","latitude":9.701528,"total":236,"municipality":"Sevilla","skills training":236,"education":0,"longitude":124.045944,"id":"apeh5ba1pjv2"},"type":"Feature","geometry":{"type":"Point","coordinates":[124.045944,9.701528]}},{"properties":{"employment":0,"cd":"3rd District","latitude":9.806398,"total":154,"municipality":"Sierra Bullones","skills training":154,"education":0,"longitude":124.293091,"id":"apeh5bbawjnz"},"type":"Feature","geometry":{"type":"Point","coordinates":[124.293091,9.806398]}},{"properties":{"employment":0,"cd":"3rd District","latitude":9.611476,"total":371,"municipality":"Valencia","skills training":371,"education":0,"longitude":124.212776,"id":"apeh5be75rxh"},"type":"Feature","geometry":{"type":"Point","coordinates":[124.212776,9.611476]}}],"url_type":null,"author":{"metadata":null,"url":"","contact_name":null,"contact_address":null,"contact_phone":null,"source":null},"source":"","stream_id":485755,"tags":"","contributor":{"url":"http://geocommons.com/users/95831","name":"jimaboloc@gmail.com"},"id":485755,"data_attributes":null,"calculation_params":null}