{"type":"FeatureCollection","data_type":"Dataset","url_type":null,"permissions":[{"permissions":{"download":true,"view":true},"group_id":"everyone"}],"classification":null,"title":"\nPlaces I have lived\n","count":10,"stream_id":48612,"contributor":{"url":"http://geocommons.com/users/11444","name":"platial"},"data_attributes":null,"calculation_params":null,"icon_link":null,"link":"http://geocommons.com/overlays/48612.json","extent":[-1.26801,51.3973,-0.02146,51.7585],"geometry_types":["point"],"unique_name":null,"name":"\nPlaces I have lived\n","feature_count":10,"description":"\nA Map by Nikshah\n\nEverywhere I have lived. Rather limited to South East England, but there you go.\n","next_feature":null,"is_raster":false,"short_classification":"Y","stats":{},"features":[{"properties":{"name":"Happy days in Oxford","description":"Posted by Nikshah<a title=\"Built for Community Mapping\" href=\"http://www.platial.com\"><img src=\"http://media.geocommons.com/platial/images/logotype_small.jpg\"></a>","id":"a6dw3tzm1m98"},"type":"Feature","geometry":{"type":"Point","coordinates":[-1.26801,51.75852]}},{"properties":{"name":"Home","description":"Posted by Nikshah<a title=\"Built for Community Mapping\" href=\"http://www.platial.com\"><img src=\"http://media.geocommons.com/platial/images/logotype_small.jpg\"></a>","id":"a6dw3tyxzg6q"},"type":"Feature","geometry":{"type":"Point","coordinates":[-0.42337,51.62007]}},{"properties":{"name":"I don't remember it any more","description":"Posted by Nikshah<a title=\"Built for Community Mapping\" href=\"http://www.platial.com\"><img src=\"http://media.geocommons.com/platial/images/logotype_small.jpg\"></a>","id":"a6dw3u20l5lt"},"type":"Feature","geometry":{"type":"Point","coordinates":[-0.25693,51.39729]}},{"properties":{"name":"My first owned flat, and I'm not moving for some time now :-)","description":"Posted by Nikshah<a title=\"Built for Community Mapping\" href=\"http://www.platial.com\"><img src=\"http://media.geocommons.com/platial/images/logotype_small.jpg\"></a>","id":"a6dw3txzh76p"},"type":"Feature","geometry":{"type":"Point","coordinates":[-0.14735,51.5487]}},{"properties":{"name":"Worcester college - not the best, but rather nice all the same","description":"Posted by Nikshah<a title=\"Built for Community Mapping\" href=\"http://www.platial.com\"><img src=\"http://media.geocommons.com/platial/images/logotype_small.jpg\"></a>","id":"a6dw3tu257d2"},"type":"Feature","geometry":{"type":"Point","coordinates":[-1.26441,51.75429]}},{"properties":{"name":"happy days again","description":"Posted by Nikshah<a title=\"Built for Community Mapping\" href=\"http://www.platial.com\"><img src=\"http://media.geocommons.com/platial/images/logotype_small.jpg\"></a>","id":"a6dw3u4spdt0"},"type":"Feature","geometry":{"type":"Point","coordinates":[-0.14312,51.57522]}},{"properties":{"name":"in all those years, I never knew which way was North...","description":"Posted by Nikshah<a title=\"Built for Community Mapping\" href=\"http://www.platial.com\"><img src=\"http://media.geocommons.com/platial/images/logotype_small.jpg\"></a>","id":"a6dw3u6th69m"},"type":"Feature","geometry":{"type":"Point","coordinates":[-0.6082,51.49237]}},{"properties":{"name":"it was my friend","description":"Posted by Nikshah<a title=\"Built for Community Mapping\" href=\"http://www.platial.com\"><img src=\"http://media.geocommons.com/platial/images/logotype_small.jpg\"></a>","id":"a6dw3tvh0pry"},"type":"Feature","geometry":{"type":"Point","coordinates":[-0.26554,51.39816]}},{"properties":{"name":"skanky hovel though it was","description":"Posted by Nikshah<a title=\"Built for Community Mapping\" href=\"http://www.platial.com\"><img src=\"http://media.geocommons.com/platial/images/logotype_small.jpg\"></a>","id":"a6dw3tyev4i3"},"type":"Feature","geometry":{"type":"Point","coordinates":[-0.10128,51.52595]}},{"properties":{"name":"slight anomaly","description":"Posted by NikshahOnly for a few nights, thanks to my friend Jenny\\'s sofabed, but as no fixed abode otherwise, it was me and the girlfriend\\'s second temporary accommodation in a row while waiting for the flat...<a title=\"Built for Community Mapping\" href=\"http://www.platial.com\"><img src=\"http://media.geocommons.com/platial/images/logotype_small.jpg\"></a>","id":"a6dw3twbgcxg"},"type":"Feature","geometry":{"type":"Point","coordinates":[-0.02146,51.4589]}}],"is_temporal":false,"author":{"url":"http://www.platial.com/map/13221","metadata":null,"contact_name":"nikshah","contact_address":null,"source":"platial:nikshah","contact_phone":null},"source":"http://www.platial.com/map/13221","pagination":{"sort":null,"start":0,"total":10,"limit":1000000},"state":"complete","tags":"platial,platial:id=13221,platial:user=nikshah","published":"2010-04-27T16:00:00Z","id":48612}