{"type":"FeatureCollection","data_type":"Dataset","url_type":null,"permissions":[{"permissions":{"download":true,"view":true},"group_id":"everyone"}],"classification":null,"title":"Practical Cycle","count":12,"stream_id":57120,"contributor":{"url":"http://geocommons.com/users/12296","name":"hoangchi"},"data_attributes":null,"calculation_params":null,"icon_link":null,"link":"http://geocommons.com/overlays/57120.json","extent":[-121.506,38.5729,-121.46,38.6048],"geometry_types":["point"],"unique_name":null,"name":"Practical Cycle","feature_count":12,"description":"","next_feature":null,"is_raster":false,"short_classification":"Y","stats":{},"features":[{"properties":{"name":"American River Parkway","description":"Sacramento, CA","id":"a63xsnq1ffs2"},"type":"Feature","geometry":{"type":"Point","coordinates":[-121.4599,38.592724]}},{"properties":{"name":"California Military Museum","description":null,"id":"a63xsnqj962o"},"type":"Feature","geometry":{"type":"Point","coordinates":[-121.504662,38.581619]}},{"properties":{"name":"California Railroad Museum","description":null,"id":"a63xsnzv8y9e"},"type":"Feature","geometry":{"type":"Point","coordinates":[-121.504387,38.584686]}},{"properties":{"name":"Crocker Art Museum","description":null,"id":"a63xsnqpnq1q"},"type":"Feature","geometry":{"type":"Point","coordinates":[-121.505959,38.577095]}},{"properties":{"name":"Discovery Park","description":null,"id":"a63xsnvnm46h"},"type":"Feature","geometry":{"type":"Point","coordinates":[-121.503983,38.604816]}},{"properties":{"name":"Governor's Mansion State Historic Park","description":null,"id":"a63xsnrpbkyq"},"type":"Feature","geometry":{"type":"Point","coordinates":[-121.484779,38.580101]}},{"properties":{"name":"Leland Stanford Mansion State Historic Park","description":null,"id":"a63xsnmiz0fk"},"type":"Feature","geometry":{"type":"Point","coordinates":[-121.497704,38.576385]}},{"properties":{"name":"Practical Cycle","description":"Practical Cycle114 J StSacramento, CA 95814<a href=\"http://maps.google.com/local_url?q=http://www.practicalcycle.com&amp;dq=Practical+Cycle&amp;f=q&amp;source=s_q&amp;output=js&amp;hl=en&amp;geocode=&amp;abauth=4bee4f84QDfT7g0LV7zXp1zAcLPgdGGR2EU&amp;vps=2&amp;jsv=237a&amp;sll=38.585294,-121.502481&amp;sspn=0.008168,0.018754&amp;oi=miw&amp;sa=X&amp;ct=miw_link&amp;cd=1&amp;cad=homepage,cid:10230542244424747228&amp;ei=ZFDuS_SCLJH4iAOzn4W0Dw&amp;s=ANYYN7kAitlLgpRKHpsYVcji5e_F7PY8uA\">practicalcycle.com</a><img src=\"http://cbk0.google.com/cbk?output=thumbnail&amp;w=90&amp;h=68&amp;ll=38.583130,-121.504988\">","id":"a63xsnzq1rrn"},"type":"Feature","geometry":{"type":"Point","coordinates":[-121.50499,38.58313]}},{"properties":{"name":"Sacramento History Museum","description":null,"id":"a63xsnwgeb67"},"type":"Feature","geometry":{"type":"Point","coordinates":[-121.504555,38.584747]}},{"properties":{"name":"State Capitol Museum","description":null,"id":"a63xsnlt8hyr"},"type":"Feature","geometry":{"type":"Point","coordinates":[-121.49334,38.576672]}},{"properties":{"name":"Sutter's Fort State Historic","description":null,"id":"a63xsnlybd8c"},"type":"Feature","geometry":{"type":"Point","coordinates":[-121.46904,38.572857]}},{"properties":{"name":"Wells Fargo History Museum","description":null,"id":"a63xsnq7eegh"},"type":"Feature","geometry":{"type":"Point","coordinates":[-121.504425,38.582989]}}],"is_temporal":false,"author":{"url":"","metadata":"","contact_name":"","contact_address":"","source":"","contact_phone":""},"source":"","pagination":{"sort":null,"start":0,"total":12,"limit":1000000},"state":"complete","tags":"","published":"2014-08-10T18:13:03-04:00","id":57120}