{"type":"FeatureCollection","data_type":"Dataset","url_type":null,"permissions":[{"permissions":{"download":true,"view":true},"group_id":"everyone"}],"classification":null,"title":"NEW SCIPPA\t\t","count":188,"stream_id":60230,"contributor":{"url":"http://geocommons.com/users/15085","name":"tramdotcom"},"data_attributes":null,"calculation_params":null,"icon_link":null,"link":"http://geocommons.com/overlays/60230.json","extent":[-122.083,37.0043,-121.573,37.4561],"geometry_types":["point"],"unique_name":null,"name":"NEW SCIPPA\t\t","feature_count":188,"description":"","next_feature":null,"is_raster":false,"short_classification":"Y","stats":{},"features":[{"properties":{"name":"ADEEB FAREEDA","id":"a6m9ktiussu5"},"type":"Feature","geometry":{"type":"Point","coordinates":[-121.939627,37.324084]}},{"properties":{"name":"ANDRADE PAUL","id":"a6m9kt8kp65x"},"type":"Feature","geometry":{"type":"Point","coordinates":[-121.937059,37.327045]}},{"properties":{"name":"ARMANN KJARTAN","id":"a6m9ktkxn6ha"},"type":"Feature","geometry":{"type":"Point","coordinates":[-121.967412,37.262599]}},{"properties":{"name":"AUSTIN SUZANNE","id":"a6m9kthp4tbc"},"type":"Feature","geometry":{"type":"Point","coordinates":[-121.939859,37.326379]}},{"properties":{"name":"AYER GOPI","id":"a6m9ktnuper5"},"type":"Feature","geometry":{"type":"Point","coordinates":[-121.950159,37.247112]}},{"properties":{"name":"AYER MANDEEP","id":"a6m9ktinl23p"},"type":"Feature","geometry":{"type":"Point","coordinates":[-121.950159,37.247112]}},{"properties":{"name":"AZIZ ASIF","id":"a6m9ktk8it86"},"type":"Feature","geometry":{"type":"Point","coordinates":[-121.908467,37.332762]}},{"properties":{"name":"BALDEON GERMAN","id":"a6m9ktc4iyve"},"type":"Feature","geometry":{"type":"Point","coordinates":[-121.577108,37.004326]}},{"properties":{"name":"BARBARA JOSEPH","id":"a6m9ktkippth"},"type":"Feature","geometry":{"type":"Point","coordinates":[-121.587025,37.010326]}},{"properties":{"name":"BENSON FREDERICK","id":"a6m9kt8obfs8"},"type":"Feature","geometry":{"type":"Point","coordinates":[-121.866489,37.251831]}},{"properties":{"name":"BHATIA KAWALJEET","id":"a6m9kt84i2cj"},"type":"Feature","geometry":{"type":"Point","coordinates":[-121.587011,37.010411]}},{"properties":{"name":"BORODULIN TATYANA","id":"a6m9kti1aw4d"},"type":"Feature","geometry":{"type":"Point","coordinates":[-121.978149,37.286033]}},{"properties":{"name":"BUI HONG HUU","id":"a6m9ktkrdcps"},"type":"Feature","geometry":{"type":"Point","coordinates":[-121.825194,37.320191]}},{"properties":{"name":"BUI RAU","id":"a6m9ktc4apo3"},"type":"Feature","geometry":{"type":"Point","coordinates":[-121.877786,37.341614]}},{"properties":{"name":"BUI VIET-HONG","id":"a6m9ktdifxqp"},"type":"Feature","geometry":{"type":"Point","coordinates":[-121.876284,37.342912]}},{"properties":{"name":"CAHN DAVID","id":"a6m9kte69cuc"},"type":"Feature","geometry":{"type":"Point","coordinates":[-121.939832,37.324262]}},{"properties":{"name":"CALLAWAY JERRY","id":"a6m9ktexq16e"},"type":"Feature","geometry":{"type":"Point","coordinates":[-121.949817,37.251223]}},{"properties":{"name":"CAMPBELL MARK","id":"a6m9ktnk98ck"},"type":"Feature","geometry":{"type":"Point","coordinates":[-121.949913,37.298823]}},{"properties":{"name":"CAPULONG FERNANDO","id":"a6m9kth10sbt"},"type":"Feature","geometry":{"type":"Point","coordinates":[-121.848731,37.363758]}},{"properties":{"name":"CASANOVAS HERNAN","id":"a6m9ktgiqp9z"},"type":"Feature","geometry":{"type":"Point","coordinates":[-121.950282,37.247562]}},{"properties":{"name":"CATHEY RICHARD","id":"a6m9ktgbczr2"},"type":"Feature","geometry":{"type":"Point","coordinates":[-121.847815,37.401464]}},{"properties":{"name":"CHAU MAGGIE","id":"a6m9kthjcdb3"},"type":"Feature","geometry":{"type":"Point","coordinates":[-121.85108,37.361627]}},{"properties":{"name":"CHEN TSUNG-CHANG TONY","id":"a6m9ktdspsm7"},"type":"Feature","geometry":{"type":"Point","coordinates":[-122.032231,37.31682]}},{"properties":{"name":"CHIEN JANE","id":"a6m9ktn1ogv8"},"type":"Feature","geometry":{"type":"Point","coordinates":[-121.945228,37.251097]}},{"properties":{"name":"CHO CHANG","id":"a6m9ktc3m9qp"},"type":"Feature","geometry":{"type":"Point","coordinates":[-122.01454,37.352208]}},{"properties":{"name":"CHO KISUK","id":"a6m9ktka07qd"},"type":"Feature","geometry":{"type":"Point","coordinates":[-121.966183,37.352399]}},{"properties":{"name":"CHO YOONJUNG","id":"a6m9ktoj8yxk"},"type":"Feature","geometry":{"type":"Point","coordinates":[-121.966183,37.352399]}},{"properties":{"name":"CHOW NORMAN","id":"a6m9ktfgio8u"},"type":"Feature","geometry":{"type":"Point","coordinates":[-121.967357,37.262056]}},{"properties":{"name":"CHUA HENRY","id":"a6m9kta95r4m"},"type":"Feature","geometry":{"type":"Point","coordinates":[-121.865328,37.220774]}},{"properties":{"name":"CHUNG HANKYU","id":"a6m9kthe3zfo"},"type":"Feature","geometry":{"type":"Point","coordinates":[-121.934272,37.327062]}},{"properties":{"name":"CHUNG PETER","id":"a6m9ktcy5a8v"},"type":"Feature","geometry":{"type":"Point","coordinates":[-121.999295,37.351771]}},{"properties":{"name":"CONLON DONALD","id":"a6m9ktbbzqtw"},"type":"Feature","geometry":{"type":"Point","coordinates":[-121.967412,37.262599]}},{"properties":{"name":"CONTINI MICHELLE","id":"a6m9kta7zifp"},"type":"Feature","geometry":{"type":"Point","coordinates":[-121.863716,37.220863]}},{"properties":{"name":"CONTINI PETER","id":"a6m9ktmmeryw"},"type":"Feature","geometry":{"type":"Point","coordinates":[-121.863716,37.220863]}},{"properties":{"name":"CONTRERAS JORGE","id":"a6m9ktk8hdl1"},"type":"Feature","geometry":{"type":"Point","coordinates":[-121.855875,37.250325]}},{"properties":{"name":"COOMBS JR JACK","id":"a6m9kt8mdcd7"},"type":"Feature","geometry":{"type":"Point","coordinates":[-121.948834,37.251097]}},{"properties":{"name":"DAM DINH","id":"a6m9kt9uwtn2"},"type":"Feature","geometry":{"type":"Point","coordinates":[-121.847788,37.362825]}},{"properties":{"name":"DANG TRACH","id":"a6m9ktnw2xtv"},"type":"Feature","geometry":{"type":"Point","coordinates":[-121.851162,37.311291]}},{"properties":{"name":"DAO KIM","id":"a6m9ktn3ogun"},"type":"Feature","geometry":{"type":"Point","coordinates":[-121.877554,37.34825]}},{"properties":{"name":"DAWOOD NAYYARA","id":"a6m9ktby42xy"},"type":"Feature","geometry":{"type":"Point","coordinates":[-121.939627,37.324084]}},{"properties":{"name":"DEL SIGNORE CLAIRE","id":"a6m9ktm6zqzm"},"type":"Feature","geometry":{"type":"Point","coordinates":[-121.948834,37.251097]}},{"properties":{"name":"DEWEES EDWARD","id":"a6m9ktkej1sv"},"type":"Feature","geometry":{"type":"Point","coordinates":[-121.978149,37.286033]}},{"properties":{"name":"DO CHRISTOPHER","id":"a6m9ktnzrdjb"},"type":"Feature","geometry":{"type":"Point","coordinates":[-121.826109,37.322186]}},{"properties":{"name":"DO TRANG","id":"a6m9ktfnmql3"},"type":"Feature","geometry":{"type":"Point","coordinates":[-121.851162,37.311291]}},{"properties":{"name":"DWYRE TERRENCE","id":"a6m9ktkgf50z"},"type":"Feature","geometry":{"type":"Point","coordinates":[-121.827776,37.251339]}},{"properties":{"name":"EGLIN LINDA","id":"a6m9kti1suuw"},"type":"Feature","geometry":{"type":"Point","coordinates":[-121.967344,37.262879]}},{"properties":{"name":"ETTINGER JEFFREY","id":"a6m9ktegyccw"},"type":"Feature","geometry":{"type":"Point","coordinates":[-121.865328,37.220774]}},{"properties":{"name":"GANDHI TRIPTY","id":"a6m9ktmk1ub7"},"type":"Feature","geometry":{"type":"Point","coordinates":[-121.959448,37.346146]}},{"properties":{"name":"GANESH VILASINI","id":"a6m9ktleme08"},"type":"Feature","geometry":{"type":"Point","coordinates":[-122.000293,37.28047]}},{"properties":{"name":"GANGANI YASMEEN","id":"a6m9ktcgfee3"},"type":"Feature","geometry":{"type":"Point","coordinates":[-121.648374,37.154054]}},{"properties":{"name":"GRIMM CARROLL","id":"a6m9ktk01rjx"},"type":"Feature","geometry":{"type":"Point","coordinates":[-121.970486,37.262404]}},{"properties":{"name":"GRISWOLD JENNY","id":"a6m9ktlotqgq"},"type":"Feature","geometry":{"type":"Point","coordinates":[-121.950391,37.252719]}},{"properties":{"name":"GUANZON JOSE","id":"a6m9ktmtb4e1"},"type":"Feature","geometry":{"type":"Point","coordinates":[-121.847296,37.3654]}},{"properties":{"name":"GUBBALA SUNITHA","id":"a6m9kt9kqqbi"},"type":"Feature","geometry":{"type":"Point","coordinates":[-121.945228,37.251097]}},{"properties":{"name":"HALABURKA CHRISTINE","id":"a6m9ktmywkkm"},"type":"Feature","geometry":{"type":"Point","coordinates":[-121.948834,37.251097]}},{"properties":{"name":"HO THOMAS","id":"a6m9ktnwxzap"},"type":"Feature","geometry":{"type":"Point","coordinates":[-121.949817,37.251223]}},{"properties":{"name":"HOANG KHOI","id":"a6m9kt8kihpi"},"type":"Feature","geometry":{"type":"Point","coordinates":[-121.948834,37.251097]}},{"properties":{"name":"HOPNER DAN","id":"a6m9ktlxbrmw"},"type":"Feature","geometry":{"type":"Point","coordinates":[-121.967412,37.262599]}},{"properties":{"name":"HUANG FRANK","id":"a6m9ktk1ci9r"},"type":"Feature","geometry":{"type":"Point","coordinates":[-121.65377,37.130841]}},{"properties":{"name":"HUANG JOHN","id":"a6m9ktet6g5x"},"type":"Feature","geometry":{"type":"Point","coordinates":[-121.574061,37.036957]}},{"properties":{"name":"HUGHES MARYBETH","id":"a6m9kt92elnv"},"type":"Feature","geometry":{"type":"Point","coordinates":[-121.949872,37.256185]}},{"properties":{"name":"HUYNH CHAU","id":"a6m9kto41z9j"},"type":"Feature","geometry":{"type":"Point","coordinates":[-121.8522,37.354421]}},{"properties":{"name":"HUYNH DAT TAN","id":"a6m9ktlmm65u"},"type":"Feature","geometry":{"type":"Point","coordinates":[-121.825194,37.320191]}},{"properties":{"name":"HUYNH MINH","id":"a6m9kthomad2"},"type":"Feature","geometry":{"type":"Point","coordinates":[-121.87877,37.342922]}},{"properties":{"name":"HUYNH THUY","id":"a6m9ktoe3bio"},"type":"Feature","geometry":{"type":"Point","coordinates":[-121.906227,37.428118]}},{"properties":{"name":"JOB CRAIG","id":"a6m9kto6l2z7"},"type":"Feature","geometry":{"type":"Point","coordinates":[-121.992411,37.294469]}},{"properties":{"name":"JOYCE WILLIAM","id":"a6m9kt9kp0pl"},"type":"Feature","geometry":{"type":"Point","coordinates":[-121.648374,37.154054]}},{"properties":{"name":"JUJARE VIJAYA","id":"a6m9ktjsv7n3"},"type":"Feature","geometry":{"type":"Point","coordinates":[-122.027026,37.359164]}},{"properties":{"name":"KAMARAJU MANJULA","id":"a6m9ktiu1bfu"},"type":"Feature","geometry":{"type":"Point","coordinates":[-121.948287,37.251097]}},{"properties":{"name":"KAN MICHAEL","id":"a6m9kt8q9akv"},"type":"Feature","geometry":{"type":"Point","coordinates":[-121.967344,37.262879]}},{"properties":{"name":"KANG DAE-WOOK","id":"a6m9ktlfd8dl"},"type":"Feature","geometry":{"type":"Point","coordinates":[-121.934586,37.331908]}},{"properties":{"name":"KAPOOR DHANU","id":"a6m9ktmi6rhr"},"type":"Feature","geometry":{"type":"Point","coordinates":[-121.959448,37.347037]}},{"properties":{"name":"KARUPAIAH SUDHA","id":"a6m9kt8n3b0k"},"type":"Feature","geometry":{"type":"Point","coordinates":[-121.877868,37.343462]}},{"properties":{"name":"KASHLINSKAYA OLGA","id":"a6m9ktfr8816"},"type":"Feature","geometry":{"type":"Point","coordinates":[-121.931963,37.325427]}},{"properties":{"name":"KAZI PHIROZE","id":"a6m9kth22q0g"},"type":"Feature","geometry":{"type":"Point","coordinates":[-121.948834,37.251097]}},{"properties":{"name":"KESWANI SANJIVINI","id":"a6m9ktetpqr4"},"type":"Feature","geometry":{"type":"Point","coordinates":[-121.967357,37.262056]}},{"properties":{"name":"KHALILNEJAD HEIDEH","id":"a6m9kt9ieqik"},"type":"Feature","geometry":{"type":"Point","coordinates":[-121.995006,37.380386]}},{"properties":{"name":"KHAN MAZHAR","id":"a6m9ktc5xafq"},"type":"Feature","geometry":{"type":"Point","coordinates":[-121.648374,37.154054]}},{"properties":{"name":"KORSUNSKY ALEXANDER","id":"a6m9ktoka4vt"},"type":"Feature","geometry":{"type":"Point","coordinates":[-121.992411,37.294469]}},{"properties":{"name":"KORTHAMAR BARBARA","id":"a6m9ktnmzx3q"},"type":"Feature","geometry":{"type":"Point","coordinates":[-121.959462,37.348957]}},{"properties":{"name":"KRAUT JR JOSEPH","id":"a6m9ktiy8mhu"},"type":"Feature","geometry":{"type":"Point","coordinates":[-121.644344,37.153432]}},{"properties":{"name":"KRISHNAMSHETTY PRASANNA","id":"a6m9ktlr0778"},"type":"Feature","geometry":{"type":"Point","coordinates":[-121.85108,37.361627]}},{"properties":{"name":"KU WEN-TSANG","id":"a6m9kta587yh"},"type":"Feature","geometry":{"type":"Point","coordinates":[-121.848977,37.366015]}},{"properties":{"name":"LE THANH-UYEN","id":"a6m9kt9exxr2"},"type":"Feature","geometry":{"type":"Point","coordinates":[-121.977876,37.221208]}},{"properties":{"name":"LEE BOO","id":"a6m9ktl2tmov"},"type":"Feature","geometry":{"type":"Point","coordinates":[-121.934026,37.327114]}},{"properties":{"name":"LEE SANG","id":"a6m9kt8d6jvz"},"type":"Feature","geometry":{"type":"Point","coordinates":[-121.992411,37.294469]}},{"properties":{"name":"LEE UI","id":"a6m9ktj1krv3"},"type":"Feature","geometry":{"type":"Point","coordinates":[-121.934026,37.327114]}},{"properties":{"name":"LEUNG CHEUNG","id":"a6m9kth62eq5"},"type":"Feature","geometry":{"type":"Point","coordinates":[-121.57346,37.035929]}},{"properties":{"name":"LIAO CHUNG","id":"a6m9kt8nyg57"},"type":"Feature","geometry":{"type":"Point","coordinates":[-121.950405,37.255543]}},{"properties":{"name":"LIM JOCELYN","id":"a6m9kth1kge7"},"type":"Feature","geometry":{"type":"Point","coordinates":[-121.574061,37.036957]}},{"properties":{"name":"LIM PERRY","id":"a6m9kt946g7g"},"type":"Feature","geometry":{"type":"Point","coordinates":[-121.884179,37.413328]}},{"properties":{"name":"LIN ANDREW","id":"a6m9ktjo3onr"},"type":"Feature","geometry":{"type":"Point","coordinates":[-122.027026,37.359164]}},{"properties":{"name":"LIN JIMMY","id":"a6m9ktd8a0mv"},"type":"Feature","geometry":{"type":"Point","coordinates":[-121.946566,37.326963]}},{"properties":{"name":"LIN ROBERT","id":"a6m9kta5vnn6"},"type":"Feature","geometry":{"type":"Point","coordinates":[-121.950255,37.331475]}},{"properties":{"name":"LIN YINGCHIH","id":"a6m9kthq41zw"},"type":"Feature","geometry":{"type":"Point","coordinates":[-122.030919,37.370994]}},{"properties":{"name":"LIU LEEWEN","id":"a6m9ktmgn0jt"},"type":"Feature","geometry":{"type":"Point","coordinates":[-122.004773,37.281932]}},{"properties":{"name":"LOUIS ELHAM","id":"a6m9ktnr6vqf"},"type":"Feature","geometry":{"type":"Point","coordinates":[-121.949913,37.29522]}},{"properties":{"name":"LUM GREGORY","id":"a6m9ktdnnm3s"},"type":"Feature","geometry":{"type":"Point","coordinates":[-121.96718,37.264078]}},{"properties":{"name":"LUONG JEAN","id":"a6m9ktbwhafx"},"type":"Feature","geometry":{"type":"Point","coordinates":[-121.939832,37.324262]}},{"properties":{"name":"MAHRER RICHARD","id":"a6m9ktel42mw"},"type":"Feature","geometry":{"type":"Point","coordinates":[-121.931963,37.32266]}},{"properties":{"name":"MALHOTRA NEEMA","id":"a6m9ktgxmpco"},"type":"Feature","geometry":{"type":"Point","coordinates":[-121.876297,37.420271]}},{"properties":{"name":"MANSUBI FRED","id":"a6m9ktbp4ou4"},"type":"Feature","geometry":{"type":"Point","coordinates":[-121.950391,37.252719]}},{"properties":{"name":"MARX ROBERT","id":"a6m9ktd226cp"},"type":"Feature","geometry":{"type":"Point","coordinates":[-121.951429,37.251548]}},{"properties":{"name":"MASADA MARVIN","id":"a6m9kt8gnedg"},"type":"Feature","geometry":{"type":"Point","coordinates":[-121.813132,37.308573]}},{"properties":{"name":"MCGRATH JR ALLEN","id":"a6m9kta3ddvj"},"type":"Feature","geometry":{"type":"Point","coordinates":[-121.967412,37.262599]}},{"properties":{"name":"MILFORD BELINDA","id":"a6m9ktid4kws"},"type":"Feature","geometry":{"type":"Point","coordinates":[-121.954653,37.2504]}},{"properties":{"name":"MITTAL GUNJAN","id":"a6m9ktdu51bw"},"type":"Feature","geometry":{"type":"Point","coordinates":[-121.57346,37.035929]}},{"properties":{"name":"MORGENSEN JOE","id":"a6m9ktd4s2of"},"type":"Feature","geometry":{"type":"Point","coordinates":[-121.945228,37.251097]}},{"properties":{"name":"MUNGEKAR SWATI","id":"a6m9ktj78cvv"},"type":"Feature","geometry":{"type":"Point","coordinates":[-121.951197,37.250687]}},{"properties":{"name":"MYINT SAN-SAN","id":"a6m9kt90dgtq"},"type":"Feature","geometry":{"type":"Point","coordinates":[-121.846764,37.361763]}},{"properties":{"name":"NGUYEN HAI","id":"a6m9ktgemmw2"},"type":"Feature","geometry":{"type":"Point","coordinates":[-121.848075,37.363163]}},{"properties":{"name":"NGUYEN NGAI","id":"a6m9ktbn2r9a"},"type":"Feature","geometry":{"type":"Point","coordinates":[-121.876284,37.342912]}},{"properties":{"name":"NGUYEN PETER","id":"a6m9ktanvl6g"},"type":"Feature","geometry":{"type":"Point","coordinates":[-121.85914,37.328988]}},{"properties":{"name":"NGUYEN QUYNH-QUEEN","id":"a6m9ktjbrnen"},"type":"Feature","geometry":{"type":"Point","coordinates":[-121.824893,37.3204]}},{"properties":{"name":"NGUYEN TRUNG","id":"a6m9ktj3pumj"},"type":"Feature","geometry":{"type":"Point","coordinates":[-121.850862,37.352399]}},{"properties":{"name":"NGUYEN TUAN","id":"a6m9ktcjn1p6"},"type":"Feature","geometry":{"type":"Point","coordinates":[-121.85108,37.361627]}},{"properties":{"name":"NGUYEN VU","id":"a6m9kthei0ye"},"type":"Feature","geometry":{"type":"Point","coordinates":[-121.848075,37.363163]}},{"properties":{"name":"OBA CAMERON","id":"a6m9ktjcfac8"},"type":"Feature","geometry":{"type":"Point","coordinates":[-121.945228,37.251097]}},{"properties":{"name":"ORNELAS RICHARD","id":"a6m9ktgvpv1a"},"type":"Feature","geometry":{"type":"Point","coordinates":[-121.937031,37.327045]}},{"properties":{"name":"PADUA NARCISO","id":"a6m9kte80lbx"},"type":"Feature","geometry":{"type":"Point","coordinates":[-121.933179,37.327045]}},{"properties":{"name":"PADUA ROSEMARIE","id":"a6m9ktfsv6rr"},"type":"Feature","geometry":{"type":"Point","coordinates":[-121.934272,37.327062]}},{"properties":{"name":"PAREKH NEELA","id":"a6m9ktij6lxb"},"type":"Feature","geometry":{"type":"Point","coordinates":[-121.954653,37.2504]}},{"properties":{"name":"PARK KYUNG","id":"a6m9ktg3p7gm"},"type":"Feature","geometry":{"type":"Point","coordinates":[-121.959598,37.323272]}},{"properties":{"name":"PARVEEN RAFIA","id":"a6m9ktf80qcf"},"type":"Feature","geometry":{"type":"Point","coordinates":[-121.85108,37.361627]}},{"properties":{"name":"PHAM AN","id":"a6m9ktkjcnk7"},"type":"Feature","geometry":{"type":"Point","coordinates":[-121.822967,37.319047]}},{"properties":{"name":"PHAM HIEN","id":"a6m9ktnh5h7w"},"type":"Feature","geometry":{"type":"Point","coordinates":[-121.877595,37.348229]}},{"properties":{"name":"PHAM NGA","id":"a6m9ktj37l2f"},"type":"Feature","geometry":{"type":"Point","coordinates":[-121.826505,37.319317]}},{"properties":{"name":"POSADA JUAN","id":"a6m9kth9l4ha"},"type":"Feature","geometry":{"type":"Point","coordinates":[-121.85108,37.361627]}},{"properties":{"name":"QURESHI FARDA","id":"a6m9ktamz18d"},"type":"Feature","geometry":{"type":"Point","coordinates":[-122.027026,37.359164]}},{"properties":{"name":"RASHKIS JOHN","id":"a6m9kthacjl4"},"type":"Feature","geometry":{"type":"Point","coordinates":[-121.980512,37.232437]}},{"properties":{"name":"REBONG KENNETH","id":"a6m9ktcyhf6l"},"type":"Feature","geometry":{"type":"Point","coordinates":[-121.846791,37.361794]}},{"properties":{"name":"REYES ERLINDA","id":"a6m9ktb0ot4y"},"type":"Feature","geometry":{"type":"Point","coordinates":[-121.85108,37.361627]}},{"properties":{"name":"ROOHPARVAR SHAHAB","id":"a6m9ktdosmkp"},"type":"Feature","geometry":{"type":"Point","coordinates":[-122.083143,37.367234]}},{"properties":{"name":"SATHAPPAN MEENA","id":"a6m9kteeveb0"},"type":"Feature","geometry":{"type":"Point","coordinates":[-121.813132,37.308573]}},{"properties":{"name":"SAW JENNY","id":"a6m9kto84dji"},"type":"Feature","geometry":{"type":"Point","coordinates":[-121.85108,37.361627]}},{"properties":{"name":"SCHWERTLEY FRED","id":"a6m9kth2iq0e"},"type":"Feature","geometry":{"type":"Point","coordinates":[-122.029225,37.318289]}},{"properties":{"name":"SCOTT JONATHAN","id":"a6m9ktih741i"},"type":"Feature","geometry":{"type":"Point","coordinates":[-121.959448,37.347037]}},{"properties":{"name":"SEHHAT MINA","id":"a6m9ktbdli83"},"type":"Feature","geometry":{"type":"Point","coordinates":[-121.937059,37.327045]}},{"properties":{"name":"SHARMA KAVITA","id":"a6m9ktleym24"},"type":"Feature","geometry":{"type":"Point","coordinates":[-121.950405,37.255543]}},{"properties":{"name":"SHEN ALBERT","id":"a6m9ktbatytb"},"type":"Feature","geometry":{"type":"Point","coordinates":[-121.95438,37.322899]}},{"properties":{"name":"SHEN CHRISTIE","id":"a6m9ktj5od76"},"type":"Feature","geometry":{"type":"Point","coordinates":[-121.939859,37.326379]}},{"properties":{"name":"SHIN FRANK","id":"a6m9ktg5iwhg"},"type":"Feature","geometry":{"type":"Point","coordinates":[-122.032135,37.297826]}},{"properties":{"name":"SIAO DONALD","id":"a6m9ktkecjgy"},"type":"Feature","geometry":{"type":"Point","coordinates":[-121.798215,37.328736]}},{"properties":{"name":"SIFFLET LEO","id":"a6m9ktbwr2lm"},"type":"Feature","geometry":{"type":"Point","coordinates":[-121.908112,37.317784]}},{"properties":{"name":"SOMBATPANIT SUSAN","id":"a6m9ktipox3v"},"type":"Feature","geometry":{"type":"Point","coordinates":[-121.96718,37.264078]}},{"properties":{"name":"SON JAMES","id":"a6m9ktlqjzcn"},"type":"Feature","geometry":{"type":"Point","coordinates":[-121.959448,37.347037]}},{"properties":{"name":"SQUARER ADDY","id":"a6m9ktkw3tvf"},"type":"Feature","geometry":{"type":"Point","coordinates":[-121.934272,37.327062]}},{"properties":{"name":"STEIN SIMA","id":"a6m9kt994rht"},"type":"Feature","geometry":{"type":"Point","coordinates":[-121.931963,37.325427]}},{"properties":{"name":"THAI MINH","id":"a6m9ktb2re66"},"type":"Feature","geometry":{"type":"Point","coordinates":[-121.878811,37.34297]}},{"properties":{"name":"THAI NICOLE","id":"a6m9ktnxrd7j"},"type":"Feature","geometry":{"type":"Point","coordinates":[-121.85108,37.361627]}},{"properties":{"name":"THIPPESWAMY GEETHA","id":"a6m9ktbezi2c"},"type":"Feature","geometry":{"type":"Point","coordinates":[-122.032231,37.31682]}},{"properties":{"name":"THUKRAL VIJAY","id":"a6m9ktafgrz0"},"type":"Feature","geometry":{"type":"Point","coordinates":[-121.884056,37.413369]}},{"properties":{"name":"TILLES STEVEN","id":"a6m9ktnyrjbv"},"type":"Feature","geometry":{"type":"Point","coordinates":[-121.948834,37.251097]}},{"properties":{"name":"TO AN","id":"a6m9ktk1e6bs"},"type":"Feature","geometry":{"type":"Point","coordinates":[-121.886187,37.340009]}},{"properties":{"name":"TO RICK","id":"a6m9kt9t61c0"},"type":"Feature","geometry":{"type":"Point","coordinates":[-121.886187,37.340009]}},{"properties":{"name":"TOBBAGI HABIB","id":"a6m9ktcot8oi"},"type":"Feature","geometry":{"type":"Point","coordinates":[-121.877417,37.342871]}},{"properties":{"name":"TRAM TRACY","id":"a6m9ktcysnkc"},"type":"Feature","geometry":{"type":"Point","coordinates":[-121.848662,37.364461]}},{"properties":{"name":"TRAN DI","id":"a6m9ktiq9h86"},"type":"Feature","geometry":{"type":"Point","coordinates":[-121.847296,37.3654]}},{"properties":{"name":"TRAN DON","id":"a6m9ktgt4kec"},"type":"Feature","geometry":{"type":"Point","coordinates":[-121.876147,37.34297]}},{"properties":{"name":"TRAN THAI VINH","id":"a6m9kt9pvthq"},"type":"Feature","geometry":{"type":"Point","coordinates":[-121.877103,37.34254]}},{"properties":{"name":"TRAN THANG","id":"a6m9ktkcfig6"},"type":"Feature","geometry":{"type":"Point","coordinates":[-121.806752,37.311698]}},{"properties":{"name":"TRAN TOAN","id":"a6m9ktn24ijw"},"type":"Feature","geometry":{"type":"Point","coordinates":[-121.9112,37.456054]}},{"properties":{"name":"TRIANTOS MICHAEL","id":"a6m9ktddujlg"},"type":"Feature","geometry":{"type":"Point","coordinates":[-121.954653,37.2504]}},{"properties":{"name":"TRUONG HIEN","id":"a6m9ktflxhq3"},"type":"Feature","geometry":{"type":"Point","coordinates":[-121.822817,37.319088]}},{"properties":{"name":"TRUONG MONG-HOA","id":"a6m9ktd2ovzl"},"type":"Feature","geometry":{"type":"Point","coordinates":[-121.855656,37.352751]}},{"properties":{"name":"TSE PHILLIP","id":"a6m9ktijliw7"},"type":"Feature","geometry":{"type":"Point","coordinates":[-121.946771,37.321906]}},{"properties":{"name":"UDUPA REKHA","id":"a6m9kthkuato"},"type":"Feature","geometry":{"type":"Point","coordinates":[-122.027026,37.359164]}},{"properties":{"name":"UYEYAMA RONALD","id":"a6m9ktj92pb4"},"type":"Feature","geometry":{"type":"Point","coordinates":[-121.950391,37.252719]}},{"properties":{"name":"VARAMINI NADEREH","id":"a6m9kths3u4a"},"type":"Feature","geometry":{"type":"Point","coordinates":[-121.865328,37.220774]}},{"properties":{"name":"VEMURI INDIRA","id":"a6m9ktldycmg"},"type":"Feature","geometry":{"type":"Point","coordinates":[-121.660258,37.130425]}},{"properties":{"name":"VRITTAMANI LATHA","id":"a6m9ktcrhuff"},"type":"Feature","geometry":{"type":"Point","coordinates":[-121.948834,37.251097]}},{"properties":{"name":"VU CHRISTOPHER","id":"a6m9ktmrhnbv"},"type":"Feature","geometry":{"type":"Point","coordinates":[-121.813132,37.308573]}},{"properties":{"name":"VU CHUNG","id":"a6m9ktcuu8w5"},"type":"Feature","geometry":{"type":"Point","coordinates":[-121.822817,37.319088]}},{"properties":{"name":"WALTERS JOSEPH","id":"a6m9ktchqbod"},"type":"Feature","geometry":{"type":"Point","coordinates":[-122.004678,37.281082]}},{"properties":{"name":"WASHINGTON ROGER","id":"a6m9ktoffqvg"},"type":"Feature","geometry":{"type":"Point","coordinates":[-121.959366,37.344445]}},{"properties":{"name":"WEEKS E. LESLIE","id":"a6m9ktm5uc0u"},"type":"Feature","geometry":{"type":"Point","coordinates":[-121.806752,37.311698]}},{"properties":{"name":"WILLIAMS MARSHALL","id":"a6m9kt8j0ghz"},"type":"Feature","geometry":{"type":"Point","coordinates":[-121.574061,37.036957]}},{"properties":{"name":"WONG HUNG-KWONG PETER","id":"a6m9kte2e6jr"},"type":"Feature","geometry":{"type":"Point","coordinates":[-121.932797,37.327045]}},{"properties":{"name":"WU SAMUEL","id":"a6m9ktgndepj"},"type":"Feature","geometry":{"type":"Point","coordinates":[-121.587025,37.010326]}},{"properties":{"name":"YAU KWONG","id":"a6m9ktlubmp9"},"type":"Feature","geometry":{"type":"Point","coordinates":[-121.85108,37.361627]}},{"properties":{"name":"YEE MARTIN","id":"a6m9kthkf8j6"},"type":"Feature","geometry":{"type":"Point","coordinates":[-121.939859,37.326379]}},{"properties":{"name":"YEH GEORGE","id":"a6m9ktc4n2gj"},"type":"Feature","geometry":{"type":"Point","coordinates":[-121.950268,37.328671]}},{"properties":{"name":"YOSHIDA TAKASHI","id":"a6m9kth8d3gu"},"type":"Feature","geometry":{"type":"Point","coordinates":[-122.081708,37.369341]}},{"properties":{"name":"YOUNG GABRIEL","id":"a6m9ktb2piyq"},"type":"Feature","geometry":{"type":"Point","coordinates":[-122.068649,37.322459]}},{"properties":{"name":"YU GRACE","id":"a6m9ktivg9z4"},"type":"Feature","geometry":{"type":"Point","coordinates":[-121.939859,37.326379]}},{"properties":{"name":"YUAN CHIU","id":"a6m9ktlev6cc"},"type":"Feature","geometry":{"type":"Point","coordinates":[-121.89631,37.343772]}},{"properties":{"name":"ZITMAN SHELDON","id":"a6m9ktnr3fu0"},"type":"Feature","geometry":{"type":"Point","coordinates":[-122.033173,37.293912]}},{"properties":{"name":"ZORIAN RITA CHADAREVIAN","id":"a6m9ktjzj5bf"},"type":"Feature","geometry":{"type":"Point","coordinates":[-121.950391,37.252719]}}],"is_temporal":false,"author":{"url":"","metadata":"","contact_name":"","contact_address":"","source":"","contact_phone":""},"source":"","pagination":{"sort":null,"start":0,"total":188,"limit":1000000},"state":"complete","tags":"","published":"2014-08-10T11:14:11-04:00","id":60230}