{"type":"FeatureCollection","data_type":"Dataset","url_type":null,"permissions":[{"permissions":{"download":true,"view":true},"group_id":"everyone"}],"classification":null,"title":"Mental Health\t\t\t","count":351,"stream_id":60376,"contributor":{"url":"http://geocommons.com/users/15085","name":"tramdotcom"},"data_attributes":null,"calculation_params":null,"icon_link":null,"link":"http://geocommons.com/overlays/60376.json","extent":[-122.473,36.9683,-98.908,39.45],"geometry_types":["point"],"unique_name":null,"name":"Mental Health\t\t\t","feature_count":351,"description":"","next_feature":null,"is_raster":false,"short_classification":"Y","stats":{},"features":[{"properties":{"name":"Acevedo Domingo","id":"a68m4sgpz3hq"},"type":"Feature","geometry":{"type":"Point","coordinates":[-121.933766,37.312193]}},{"properties":{"name":"Adams Clara","id":"a68m4skdnl0x"},"type":"Feature","geometry":{"type":"Point","coordinates":[-121.947673,37.316052]}},{"properties":{"name":"Andrade Laura","id":"a68m4sl83zzr"},"type":"Feature","geometry":{"type":"Point","coordinates":[-121.932797,37.327045]}},{"properties":{"name":"Bain Nancy","id":"a68m4secv2qn"},"type":"Feature","geometry":{"type":"Point","coordinates":[-121.848362,37.35914]}},{"properties":{"name":"Bamford Elizabeth","id":"a68m4sf00gv1"},"type":"Feature","geometry":{"type":"Point","coordinates":[-122.145297,37.427377]}},{"properties":{"name":"Barker Frank","id":"a68m4s87mou5"},"type":"Feature","geometry":{"type":"Point","coordinates":[-121.935761,37.310977]}},{"properties":{"name":"Barncord Steven","id":"a68m4sdu1xac"},"type":"Feature","geometry":{"type":"Point","coordinates":[-121.931786,37.312675]}},{"properties":{"name":"Barrow Bryan","id":"a68m4sfh76mv"},"type":"Feature","geometry":{"type":"Point","coordinates":[-121.847692,37.320307]}},{"properties":{"name":"Bartenhagen Kate","id":"a68m4sib6toy"},"type":"Feature","geometry":{"type":"Point","coordinates":[-121.950405,37.255543]}},{"properties":{"name":"Bauman Elaine","id":"a68m4scxar8w"},"type":"Feature","geometry":{"type":"Point","coordinates":[-122.110627,37.406911]}},{"properties":{"name":"Bautista Christine","id":"a68m4sl8zmtz"},"type":"Feature","geometry":{"type":"Point","coordinates":[-121.936608,37.316134]}},{"properties":{"name":"Bayla Sema","id":"a68m4setsbq1"},"type":"Feature","geometry":{"type":"Point","coordinates":[-121.94994,37.251541]}},{"properties":{"name":"Benovitz Steven","id":"a68m4sfqp9ww"},"type":"Feature","geometry":{"type":"Point","coordinates":[-121.922715,37.31638]}},{"properties":{"name":"Block Martin","id":"a68m4s7z6bh6"},"type":"Feature","geometry":{"type":"Point","coordinates":[-122.439952,37.785563]}},{"properties":{"name":"Blockie Yvonne","id":"a68m4sc12j2y"},"type":"Feature","geometry":{"type":"Point","coordinates":[-121.947755,37.243604]}},{"properties":{"name":"Boyce Catherine","id":"a68m4scfs3st"},"type":"Feature","geometry":{"type":"Point","coordinates":[-121.576889,37.018857]}},{"properties":{"name":"Britton Erica","id":"a68m4s9dh320"},"type":"Feature","geometry":{"type":"Point","coordinates":[-122.472914,37.689694]}},{"properties":{"name":"Brown Jan","id":"a68m4sarpqiw"},"type":"Feature","geometry":{"type":"Point","coordinates":[-122.090956,37.3555]}},{"properties":{"name":"Burrough Linda","id":"a68m4slcx581"},"type":"Feature","geometry":{"type":"Point","coordinates":[-121.838963,37.368385]}},{"properties":{"name":"Burrous Crystal","id":"a68m4sgoqndn"},"type":"Feature","geometry":{"type":"Point","coordinates":[-121.962535,37.236713]}},{"properties":{"name":"Calle Jaime","id":"a68m4sazq2b8"},"type":"Feature","geometry":{"type":"Point","coordinates":[-121.908563,37.333558]}},{"properties":{"name":"Cenkner George","id":"a68m4s8dj7uw"},"type":"Feature","geometry":{"type":"Point","coordinates":[-121.951006,37.346341]}},{"properties":{"name":"Chan Anne","id":"a68m4s7rvxlc"},"type":"Feature","geometry":{"type":"Point","coordinates":[-122.080315,37.605645]}},{"properties":{"name":"Cheung Laihin","id":"a68m4sj2wkdi"},"type":"Feature","geometry":{"type":"Point","coordinates":[-122.029949,37.377664]}},{"properties":{"name":"Clark Craig","id":"a68m4si6zeky"},"type":"Feature","geometry":{"type":"Point","coordinates":[-121.950268,37.328644]}},{"properties":{"name":"Clark Marcia","id":"a68m4sesio8n"},"type":"Feature","geometry":{"type":"Point","coordinates":[-121.938957,37.287089]}},{"properties":{"name":"Crawford Thomas","id":"a68m4shfwfbm"},"type":"Feature","geometry":{"type":"Point","coordinates":[-121.908672,37.323637]}},{"properties":{"name":"Cubie-Roca Solange","id":"a68m4s95spz3"},"type":"Feature","geometry":{"type":"Point","coordinates":[-121.918863,37.329613]}},{"properties":{"name":"Daul Julie","id":"a68m4sfk4vzb"},"type":"Feature","geometry":{"type":"Point","coordinates":[-122.145297,37.427377]}},{"properties":{"name":"Desandies Desandre","id":"a68m4sj50yag"},"type":"Feature","geometry":{"type":"Point","coordinates":[-122.144041,37.425523]}},{"properties":{"name":"Droke Daniel","id":"a68m4s85zh17"},"type":"Feature","geometry":{"type":"Point","coordinates":[-121.936758,36.988599]}},{"properties":{"name":"Duenke Susan","id":"a68m4sgxdynl"},"type":"Feature","geometry":{"type":"Point","coordinates":[-121.917306,37.335928]}},{"properties":{"name":"Fallon John","id":"a68m4skkqyjs"},"type":"Feature","geometry":{"type":"Point","coordinates":[-121.934327,37.310977]}},{"properties":{"name":"Fanibanda Darius","id":"a68m4shb0elv"},"type":"Feature","geometry":{"type":"Point","coordinates":[-121.961702,37.238533]}},{"properties":{"name":"Flaherty Maria","id":"a68m4snarbg9"},"type":"Feature","geometry":{"type":"Point","coordinates":[-121.920502,37.342499]}},{"properties":{"name":"Fleming Tracy","id":"a68m4seh40ka"},"type":"Feature","geometry":{"type":"Point","coordinates":[-121.938957,37.287089]}},{"properties":{"name":"Flores Jose","id":"a68m4s8uswq4"},"type":"Feature","geometry":{"type":"Point","coordinates":[-121.848362,37.35914]}},{"properties":{"name":"Foston-English Mary","id":"a68m4sjvcm5c"},"type":"Feature","geometry":{"type":"Point","coordinates":[-121.947673,37.316052]}},{"properties":{"name":"Garcia Noriko","id":"a68m4smfxkpm"},"type":"Feature","geometry":{"type":"Point","coordinates":[-121.855875,37.250325]}},{"properties":{"name":"Gaudie Sandra","id":"a68m4s8o3e4x"},"type":"Feature","geometry":{"type":"Point","coordinates":[-122.072952,37.354902]}},{"properties":{"name":"Gillio Carolyn","id":"a68m4s8k4kx4"},"type":"Feature","geometry":{"type":"Point","coordinates":[-121.955541,36.981199]}},{"properties":{"name":"Harms Cassandra","id":"a68m4sml3z5k"},"type":"Feature","geometry":{"type":"Point","coordinates":[-121.962535,37.236713]}},{"properties":{"name":"Harriet Georgan","id":"a68m4snvibxj"},"type":"Feature","geometry":{"type":"Point","coordinates":[-121.931717,37.304287]}},{"properties":{"name":"Henry Maritza","id":"a68m4saofw32"},"type":"Feature","geometry":{"type":"Point","coordinates":[-121.908563,37.333558]}},{"properties":{"name":"Holm Sherry","id":"a68m4sg49gpo"},"type":"Feature","geometry":{"type":"Point","coordinates":[-121.93307,37.310977]}},{"properties":{"name":"Hong Linh","id":"a68m4shyllf4"},"type":"Feature","geometry":{"type":"Point","coordinates":[-121.848362,37.35914]}},{"properties":{"name":"Huige Carol","id":"a68m4s96d284"},"type":"Feature","geometry":{"type":"Point","coordinates":[-122.05447,37.322011]}},{"properties":{"name":"Ilgen Anne-Marie","id":"a68m4sekf5f9"},"type":"Feature","geometry":{"type":"Point","coordinates":[-122.09597,37.389702]}},{"properties":{"name":"Isaac Lisa","id":"a68m4sbn5ui1"},"type":"Feature","geometry":{"type":"Point","coordinates":[-122.021084,37.323005]}},{"properties":{"name":"Jacobi Janet","id":"a68m4sdyg5k0"},"type":"Feature","geometry":{"type":"Point","coordinates":[-122.030701,37.316134]}},{"properties":{"name":"Kaplan Jill","id":"a68m4snszchs"},"type":"Feature","geometry":{"type":"Point","coordinates":[-121.897444,37.310137]}},{"properties":{"name":"Lamb William","id":"a68m4sntvk0g"},"type":"Feature","geometry":{"type":"Point","coordinates":[-121.924395,37.341454]}},{"properties":{"name":"Lara Irma","id":"a68m4sfl6sul"},"type":"Feature","geometry":{"type":"Point","coordinates":[-121.924341,37.341843]}},{"properties":{"name":"Lewis Sam Marye","id":"a68m4sbzef3h"},"type":"Feature","geometry":{"type":"Point","coordinates":[-121.913576,37.297607]}},{"properties":{"name":"Licurse Deborah","id":"a68m4seagn65"},"type":"Feature","geometry":{"type":"Point","coordinates":[-121.950009,37.305687]}},{"properties":{"name":"Liden Connie","id":"a68m4sbbww0m"},"type":"Feature","geometry":{"type":"Point","coordinates":[-121.977439,37.30971]}},{"properties":{"name":"Litwin Roger","id":"a68m4sg1vl3d"},"type":"Feature","geometry":{"type":"Point","coordinates":[-121.94434,37.316049]}},{"properties":{"name":"Lloyd Maria","id":"a68m4shhnwnn"},"type":"Feature","geometry":{"type":"Point","coordinates":[-121.943725,37.26318]}},{"properties":{"name":"Malone Jennifer","id":"a68m4snr0r9h"},"type":"Feature","geometry":{"type":"Point","coordinates":[-121.936608,37.316134]}},{"properties":{"name":"Marks Carol","id":"a68m4s8kd8qf"},"type":"Feature","geometry":{"type":"Point","coordinates":[-122.045358,37.351538]}},{"properties":{"name":"McGowan-Sass Brenda","id":"a68m4sem3zqz"},"type":"Feature","geometry":{"type":"Point","coordinates":[-121.655641,37.129663]}},{"properties":{"name":"McLarnan Terrance","id":"a68m4seatgl3"},"type":"Feature","geometry":{"type":"Point","coordinates":[-121.950268,37.328644]}},{"properties":{"name":"Medina Adrian","id":"a68m4sl0lkxm"},"type":"Feature","geometry":{"type":"Point","coordinates":[-121.919423,37.368429]}},{"properties":{"name":"Mendoza-Weitzman Elizabeth","id":"a68m4sb7jr32"},"type":"Feature","geometry":{"type":"Point","coordinates":[-121.900121,37.307183]}},{"properties":{"name":"Mordasini Donald","id":"a68m4sdknciy"},"type":"Feature","geometry":{"type":"Point","coordinates":[-121.933152,37.275802]}},{"properties":{"name":"Nakamura Grace","id":"a68m4sizv1zb"},"type":"Feature","geometry":{"type":"Point","coordinates":[-121.937755,36.988186]}},{"properties":{"name":"Nelson Tianna","id":"a68m4si5ahta"},"type":"Feature","geometry":{"type":"Point","coordinates":[-121.915666,37.425765]}},{"properties":{"name":"Nguyen Brandon","id":"a68m4scuvpya"},"type":"Feature","geometry":{"type":"Point","coordinates":[-121.778025,37.230227]}},{"properties":{"name":"Nikitin Helen","id":"a68m4siuiflc"},"type":"Feature","geometry":{"type":"Point","coordinates":[-121.949995,37.306384]}},{"properties":{"name":"Norman William","id":"a68m4sfl4157"},"type":"Feature","geometry":{"type":"Point","coordinates":[-121.912128,37.334606]}},{"properties":{"name":"Palmquist Roger","id":"a68m4snplqde"},"type":"Feature","geometry":{"type":"Point","coordinates":[-121.983299,37.230521]}},{"properties":{"name":"Perlman Karen","id":"a68m4se2uys1"},"type":"Feature","geometry":{"type":"Point","coordinates":[-121.951785,37.253891]}},{"properties":{"name":"Pezoa Elizabeth","id":"a68m4sfmtsa3"},"type":"Feature","geometry":{"type":"Point","coordinates":[-122.141486,37.42709]}},{"properties":{"name":"Preston Charles","id":"a68m4saod43p"},"type":"Feature","geometry":{"type":"Point","coordinates":[-121.933766,37.312193]}},{"properties":{"name":"Rhodes Maureen","id":"a68m4sfqocmv"},"type":"Feature","geometry":{"type":"Point","coordinates":[-121.964284,37.261653]}},{"properties":{"name":"Richer Penny","id":"a68m4sa7cxsu"},"type":"Feature","geometry":{"type":"Point","coordinates":[-121.983299,37.230521]}},{"properties":{"name":"Rios David","id":"a68m4sfrqm4c"},"type":"Feature","geometry":{"type":"Point","coordinates":[-121.605753,37.073963]}},{"properties":{"name":"Ritter-Splain Sue","id":"a68m4smdf26y"},"type":"Feature","geometry":{"type":"Point","coordinates":[-122.025469,36.975263]}},{"properties":{"name":"Rodriguez Gerry","id":"a68m4s9m1jqt"},"type":"Feature","geometry":{"type":"Point","coordinates":[-121.604401,37.017419]}},{"properties":{"name":"Saulter Elaine","id":"a68m4scvtt7g"},"type":"Feature","geometry":{"type":"Point","coordinates":[-121.848362,37.35914]}},{"properties":{"name":"Schamadan Thomas","id":"a68m4shlyuux"},"type":"Feature","geometry":{"type":"Point","coordinates":[-121.808364,37.304106]}},{"properties":{"name":"Selzer Fern","id":"a68m4sfbn858"},"type":"Feature","geometry":{"type":"Point","coordinates":[-121.95356,36.976093]}},{"properties":{"name":"Shah Holly","id":"a68m4sd5q2zc"},"type":"Feature","geometry":{"type":"Point","coordinates":[-121.957303,37.355534]}},{"properties":{"name":"Smith Kathy","id":"a68m4seb9gr4"},"type":"Feature","geometry":{"type":"Point","coordinates":[-122.090956,37.3555]}},{"properties":{"name":"St. George Kenneth","id":"a68m4sfqyi9n"},"type":"Feature","geometry":{"type":"Point","coordinates":[-121.951375,37.320639]}},{"properties":{"name":"Steinberg Mark","id":"a68m4s9rbn41"},"type":"Feature","geometry":{"type":"Point","coordinates":[-121.949872,37.256185]}},{"properties":{"name":"Sweet Tova","id":"a68m4sb3i3uf"},"type":"Feature","geometry":{"type":"Point","coordinates":[-121.995798,37.355944]}},{"properties":{"name":"Tait-Starnes Carol","id":"a68m4s9jptdp"},"type":"Feature","geometry":{"type":"Point","coordinates":[-121.949995,37.306384]}},{"properties":{"name":"Taylor Nancy.","id":"a68m4sj1p8cc"},"type":"Feature","geometry":{"type":"Point","coordinates":[-121.935761,37.310977]}},{"properties":{"name":"Tsuchihashi-Lawrence Sally","id":"a68m4s8rhukk"},"type":"Feature","geometry":{"type":"Point","coordinates":[-122.080629,37.389801]}},{"properties":{"name":"Urrutia Ronald","id":"a68m4sjacbqt"},"type":"Feature","geometry":{"type":"Point","coordinates":[-121.974188,37.315885]}},{"properties":{"name":"Vaquer Marga","id":"a68m4sf9cxgy"},"type":"Feature","geometry":{"type":"Point","coordinates":[-122.036629,36.968334]}},{"properties":{"name":"WPT098","id":"a68m4sdu4tkv"},"type":"Feature","geometry":{"type":"Point","coordinates":[-98.907969,39.450001]}},{"properties":{"name":"WPT099","id":"a68m4si00nx8"},"type":"Feature","geometry":{"type":"Point","coordinates":[-98.907969,39.450001]}},{"properties":{"name":"WPT100","id":"a68m4s9gq5j6"},"type":"Feature","geometry":{"type":"Point","coordinates":[-98.907969,39.450001]}},{"properties":{"name":"WPT101","id":"a68m4sav4xda"},"type":"Feature","geometry":{"type":"Point","coordinates":[-98.907969,39.450001]}},{"properties":{"name":"WPT102","id":"a68m4slwipnz"},"type":"Feature","geometry":{"type":"Point","coordinates":[-98.907969,39.450001]}},{"properties":{"name":"WPT103","id":"a68m4s7zwwnq"},"type":"Feature","geometry":{"type":"Point","coordinates":[-98.907969,39.450001]}},{"properties":{"name":"WPT104","id":"a68m4sfmxo4r"},"type":"Feature","geometry":{"type":"Point","coordinates":[-98.907969,39.450001]}},{"properties":{"name":"WPT105","id":"a68m4s9g9dri"},"type":"Feature","geometry":{"type":"Point","coordinates":[-98.907969,39.450001]}},{"properties":{"name":"WPT106","id":"a68m4savo93a"},"type":"Feature","geometry":{"type":"Point","coordinates":[-98.907969,39.450001]}},{"properties":{"name":"WPT107","id":"a68m4skx7u47"},"type":"Feature","geometry":{"type":"Point","coordinates":[-98.907969,39.450001]}},{"properties":{"name":"WPT108","id":"a68m4smi2pty"},"type":"Feature","geometry":{"type":"Point","coordinates":[-98.907969,39.450001]}},{"properties":{"name":"WPT109","id":"a68m4sciheg5"},"type":"Feature","geometry":{"type":"Point","coordinates":[-98.907969,39.450001]}},{"properties":{"name":"WPT110","id":"a68m4sch5vqo"},"type":"Feature","geometry":{"type":"Point","coordinates":[-98.907969,39.450001]}},{"properties":{"name":"WPT111","id":"a68m4s9hnxff"},"type":"Feature","geometry":{"type":"Point","coordinates":[-98.907969,39.450001]}},{"properties":{"name":"WPT112","id":"a68m4sfy73a9"},"type":"Feature","geometry":{"type":"Point","coordinates":[-98.907969,39.450001]}},{"properties":{"name":"WPT113","id":"a68m4sij9fan"},"type":"Feature","geometry":{"type":"Point","coordinates":[-98.907969,39.450001]}},{"properties":{"name":"WPT114","id":"a68m4sd2ilng"},"type":"Feature","geometry":{"type":"Point","coordinates":[-98.907969,39.450001]}},{"properties":{"name":"WPT115","id":"a68m4seztxqq"},"type":"Feature","geometry":{"type":"Point","coordinates":[-98.907969,39.450001]}},{"properties":{"name":"WPT116","id":"a68m4sefaog9"},"type":"Feature","geometry":{"type":"Point","coordinates":[-98.907969,39.450001]}},{"properties":{"name":"WPT117","id":"a68m4siy9o7d"},"type":"Feature","geometry":{"type":"Point","coordinates":[-98.907969,39.450001]}},{"properties":{"name":"WPT118","id":"a68m4sg0phzb"},"type":"Feature","geometry":{"type":"Point","coordinates":[-98.907969,39.450001]}},{"properties":{"name":"WPT119","id":"a68m4scl2s2v"},"type":"Feature","geometry":{"type":"Point","coordinates":[-98.907969,39.450001]}},{"properties":{"name":"WPT120","id":"a68m4sdxacow"},"type":"Feature","geometry":{"type":"Point","coordinates":[-98.907969,39.450001]}},{"properties":{"name":"WPT121","id":"a68m4shmj7o4"},"type":"Feature","geometry":{"type":"Point","coordinates":[-98.907969,39.450001]}},{"properties":{"name":"WPT122","id":"a68m4skssd68"},"type":"Feature","geometry":{"type":"Point","coordinates":[-98.907969,39.450001]}},{"properties":{"name":"WPT123","id":"a68m4sl7rn6s"},"type":"Feature","geometry":{"type":"Point","coordinates":[-98.907969,39.450001]}},{"properties":{"name":"WPT124","id":"a68m4smmo4bd"},"type":"Feature","geometry":{"type":"Point","coordinates":[-98.907969,39.450001]}},{"properties":{"name":"WPT125","id":"a68m4shvtpar"},"type":"Feature","geometry":{"type":"Point","coordinates":[-98.907969,39.450001]}},{"properties":{"name":"WPT126","id":"a68m4seutdvq"},"type":"Feature","geometry":{"type":"Point","coordinates":[-98.907969,39.450001]}},{"properties":{"name":"WPT127","id":"a68m4smi131a"},"type":"Feature","geometry":{"type":"Point","coordinates":[-98.907969,39.450001]}},{"properties":{"name":"WPT128","id":"a68m4seq1gdf"},"type":"Feature","geometry":{"type":"Point","coordinates":[-98.907969,39.450001]}},{"properties":{"name":"WPT129","id":"a68m4s8cm0u3"},"type":"Feature","geometry":{"type":"Point","coordinates":[-98.907969,39.450001]}},{"properties":{"name":"WPT130","id":"a68m4sgbkp5v"},"type":"Feature","geometry":{"type":"Point","coordinates":[-98.907969,39.450001]}},{"properties":{"name":"WPT131","id":"a68m4sf1y241"},"type":"Feature","geometry":{"type":"Point","coordinates":[-98.907969,39.450001]}},{"properties":{"name":"WPT132","id":"a68m4sc5l8bo"},"type":"Feature","geometry":{"type":"Point","coordinates":[-98.907969,39.450001]}},{"properties":{"name":"WPT133","id":"a68m4sijy059"},"type":"Feature","geometry":{"type":"Point","coordinates":[-98.907969,39.450001]}},{"properties":{"name":"WPT134","id":"a68m4shfi83x"},"type":"Feature","geometry":{"type":"Point","coordinates":[-98.907969,39.450001]}},{"properties":{"name":"WPT135","id":"a68m4si9rid6"},"type":"Feature","geometry":{"type":"Point","coordinates":[-98.907969,39.450001]}},{"properties":{"name":"WPT136","id":"a68m4s9u02x1"},"type":"Feature","geometry":{"type":"Point","coordinates":[-98.907969,39.450001]}},{"properties":{"name":"WPT137","id":"a68m4sbhpp6u"},"type":"Feature","geometry":{"type":"Point","coordinates":[-98.907969,39.450001]}},{"properties":{"name":"WPT138","id":"a68m4sdgy8tr"},"type":"Feature","geometry":{"type":"Point","coordinates":[-98.907969,39.450001]}},{"properties":{"name":"WPT139","id":"a68m4sg17o4u"},"type":"Feature","geometry":{"type":"Point","coordinates":[-98.907969,39.450001]}},{"properties":{"name":"WPT140","id":"a68m4sigpaxm"},"type":"Feature","geometry":{"type":"Point","coordinates":[-98.907969,39.450001]}},{"properties":{"name":"WPT141","id":"a68m4skq6ggo"},"type":"Feature","geometry":{"type":"Point","coordinates":[-98.907969,39.450001]}},{"properties":{"name":"WPT142","id":"a68m4sis8ztz"},"type":"Feature","geometry":{"type":"Point","coordinates":[-98.907969,39.450001]}},{"properties":{"name":"WPT143","id":"a68m4sekg9jo"},"type":"Feature","geometry":{"type":"Point","coordinates":[-98.907969,39.450001]}},{"properties":{"name":"WPT144","id":"a68m4se01nzp"},"type":"Feature","geometry":{"type":"Point","coordinates":[-98.907969,39.450001]}},{"properties":{"name":"WPT145","id":"a68m4sjbv8b7"},"type":"Feature","geometry":{"type":"Point","coordinates":[-98.907969,39.450001]}},{"properties":{"name":"WPT146","id":"a68m4sdtcdmq"},"type":"Feature","geometry":{"type":"Point","coordinates":[-98.907969,39.450001]}},{"properties":{"name":"WPT147","id":"a68m4saisl5f"},"type":"Feature","geometry":{"type":"Point","coordinates":[-98.907969,39.450001]}},{"properties":{"name":"WPT148","id":"a68m4sdil31b"},"type":"Feature","geometry":{"type":"Point","coordinates":[-98.907969,39.450001]}},{"properties":{"name":"WPT149","id":"a68m4segc47k"},"type":"Feature","geometry":{"type":"Point","coordinates":[-98.907969,39.450001]}},{"properties":{"name":"WPT150","id":"a68m4snvgvhm"},"type":"Feature","geometry":{"type":"Point","coordinates":[-98.907969,39.450001]}},{"properties":{"name":"WPT151","id":"a68m4sadr8b0"},"type":"Feature","geometry":{"type":"Point","coordinates":[-98.907969,39.450001]}},{"properties":{"name":"WPT152","id":"a68m4skysfsr"},"type":"Feature","geometry":{"type":"Point","coordinates":[-98.907969,39.450001]}},{"properties":{"name":"WPT153","id":"a68m4sjv9g83"},"type":"Feature","geometry":{"type":"Point","coordinates":[-98.907969,39.450001]}},{"properties":{"name":"WPT154","id":"a68m4smyoabf"},"type":"Feature","geometry":{"type":"Point","coordinates":[-98.907969,39.450001]}},{"properties":{"name":"WPT155","id":"a68m4s8a7bsb"},"type":"Feature","geometry":{"type":"Point","coordinates":[-98.907969,39.450001]}},{"properties":{"name":"WPT156","id":"a68m4so1rrfe"},"type":"Feature","geometry":{"type":"Point","coordinates":[-98.907969,39.450001]}},{"properties":{"name":"WPT157","id":"a68m4sih8k03"},"type":"Feature","geometry":{"type":"Point","coordinates":[-98.907969,39.450001]}},{"properties":{"name":"WPT158","id":"a68m4skwmmre"},"type":"Feature","geometry":{"type":"Point","coordinates":[-98.907969,39.450001]}},{"properties":{"name":"WPT159","id":"a68m4si4dbvg"},"type":"Feature","geometry":{"type":"Point","coordinates":[-98.907969,39.450001]}},{"properties":{"name":"WPT160","id":"a68m4sal1o6f"},"type":"Feature","geometry":{"type":"Point","coordinates":[-98.907969,39.450001]}},{"properties":{"name":"WPT161","id":"a68m4sezfidk"},"type":"Feature","geometry":{"type":"Point","coordinates":[-98.907969,39.450001]}},{"properties":{"name":"WPT162","id":"a68m4sht3lpu"},"type":"Feature","geometry":{"type":"Point","coordinates":[-98.907969,39.450001]}},{"properties":{"name":"WPT163","id":"a68m4sjc096f"},"type":"Feature","geometry":{"type":"Point","coordinates":[-98.907969,39.450001]}},{"properties":{"name":"WPT164","id":"a68m4s810r5s"},"type":"Feature","geometry":{"type":"Point","coordinates":[-98.907969,39.450001]}},{"properties":{"name":"WPT165","id":"a68m4sdbsuj6"},"type":"Feature","geometry":{"type":"Point","coordinates":[-98.907969,39.450001]}},{"properties":{"name":"WPT166","id":"a68m4seoq61t"},"type":"Feature","geometry":{"type":"Point","coordinates":[-98.907969,39.450001]}},{"properties":{"name":"WPT167","id":"a68m4sif9h39"},"type":"Feature","geometry":{"type":"Point","coordinates":[-98.907969,39.450001]}},{"properties":{"name":"WPT168","id":"a68m4scnpyb8"},"type":"Feature","geometry":{"type":"Point","coordinates":[-98.907969,39.450001]}},{"properties":{"name":"WPT169","id":"a68m4sffeou3"},"type":"Feature","geometry":{"type":"Point","coordinates":[-98.907969,39.450001]}},{"properties":{"name":"WPT170","id":"a68m4sn7noi0"},"type":"Feature","geometry":{"type":"Point","coordinates":[-98.907969,39.450001]}},{"properties":{"name":"WPT171","id":"a68m4sd5cazu"},"type":"Feature","geometry":{"type":"Point","coordinates":[-98.907969,39.450001]}},{"properties":{"name":"WPT172","id":"a68m4sm05qwl"},"type":"Feature","geometry":{"type":"Point","coordinates":[-98.907969,39.450001]}},{"properties":{"name":"WPT173","id":"a68m4sjtpn72"},"type":"Feature","geometry":{"type":"Point","coordinates":[-98.907969,39.450001]}},{"properties":{"name":"WPT174","id":"a68m4saor5ka"},"type":"Feature","geometry":{"type":"Point","coordinates":[-98.907969,39.450001]}},{"properties":{"name":"WPT175","id":"a68m4s98o8lg"},"type":"Feature","geometry":{"type":"Point","coordinates":[-98.907969,39.450001]}},{"properties":{"name":"WPT176","id":"a68m4sddh3vm"},"type":"Feature","geometry":{"type":"Point","coordinates":[-98.907969,39.450001]}},{"properties":{"name":"WPT177","id":"a68m4sl8gku4"},"type":"Feature","geometry":{"type":"Point","coordinates":[-98.907969,39.450001]}},{"properties":{"name":"WPT178","id":"a68m4sciaz8r"},"type":"Feature","geometry":{"type":"Point","coordinates":[-98.907969,39.450001]}},{"properties":{"name":"WPT179","id":"a68m4s9sw4kv"},"type":"Feature","geometry":{"type":"Point","coordinates":[-98.907969,39.450001]}},{"properties":{"name":"WPT180","id":"a68m4sl2jjtl"},"type":"Feature","geometry":{"type":"Point","coordinates":[-98.907969,39.450001]}},{"properties":{"name":"WPT181","id":"a68m4smqh6vj"},"type":"Feature","geometry":{"type":"Point","coordinates":[-98.907969,39.450001]}},{"properties":{"name":"WPT182","id":"a68m4sjtq0lc"},"type":"Feature","geometry":{"type":"Point","coordinates":[-98.907969,39.450001]}},{"properties":{"name":"WPT183","id":"a68m4skq0gxs"},"type":"Feature","geometry":{"type":"Point","coordinates":[-98.907969,39.450001]}},{"properties":{"name":"WPT184","id":"a68m4sl8eldq"},"type":"Feature","geometry":{"type":"Point","coordinates":[-98.907969,39.450001]}},{"properties":{"name":"WPT185","id":"a68m4se1ythd"},"type":"Feature","geometry":{"type":"Point","coordinates":[-98.907969,39.450001]}},{"properties":{"name":"WPT186","id":"a68m4sjdy0nv"},"type":"Feature","geometry":{"type":"Point","coordinates":[-98.907969,39.450001]}},{"properties":{"name":"WPT187","id":"a68m4skec0gu"},"type":"Feature","geometry":{"type":"Point","coordinates":[-98.907969,39.450001]}},{"properties":{"name":"WPT188","id":"a68m4sabyj8q"},"type":"Feature","geometry":{"type":"Point","coordinates":[-98.907969,39.450001]}},{"properties":{"name":"WPT189","id":"a68m4shperug"},"type":"Feature","geometry":{"type":"Point","coordinates":[-98.907969,39.450001]}},{"properties":{"name":"WPT190","id":"a68m4sgow1x2"},"type":"Feature","geometry":{"type":"Point","coordinates":[-98.907969,39.450001]}},{"properties":{"name":"WPT191","id":"a68m4s90k6g3"},"type":"Feature","geometry":{"type":"Point","coordinates":[-98.907969,39.450001]}},{"properties":{"name":"WPT192","id":"a68m4sknjadc"},"type":"Feature","geometry":{"type":"Point","coordinates":[-98.907969,39.450001]}},{"properties":{"name":"WPT193","id":"a68m4slvdnv4"},"type":"Feature","geometry":{"type":"Point","coordinates":[-98.907969,39.450001]}},{"properties":{"name":"WPT194","id":"a68m4seo9whe"},"type":"Feature","geometry":{"type":"Point","coordinates":[-98.907969,39.450001]}},{"properties":{"name":"WPT195","id":"a68m4sh7kest"},"type":"Feature","geometry":{"type":"Point","coordinates":[-98.907969,39.450001]}},{"properties":{"name":"WPT196","id":"a68m4siorima"},"type":"Feature","geometry":{"type":"Point","coordinates":[-98.907969,39.450001]}},{"properties":{"name":"WPT197","id":"a68m4s9b8uje"},"type":"Feature","geometry":{"type":"Point","coordinates":[-98.907969,39.450001]}},{"properties":{"name":"WPT198","id":"a68m4sgoblis"},"type":"Feature","geometry":{"type":"Point","coordinates":[-98.907969,39.450001]}},{"properties":{"name":"WPT199","id":"a68m4slstskd"},"type":"Feature","geometry":{"type":"Point","coordinates":[-98.907969,39.450001]}},{"properties":{"name":"WPT200","id":"a68m4sl9p8x4"},"type":"Feature","geometry":{"type":"Point","coordinates":[-98.907969,39.450001]}},{"properties":{"name":"WPT201","id":"a68m4sbmxhwm"},"type":"Feature","geometry":{"type":"Point","coordinates":[-98.907969,39.450001]}},{"properties":{"name":"WPT202","id":"a68m4smqm71a"},"type":"Feature","geometry":{"type":"Point","coordinates":[-98.907969,39.450001]}},{"properties":{"name":"WPT203","id":"a68m4snlzmx4"},"type":"Feature","geometry":{"type":"Point","coordinates":[-98.907969,39.450001]}},{"properties":{"name":"WPT204","id":"a68m4saan6bq"},"type":"Feature","geometry":{"type":"Point","coordinates":[-98.907969,39.450001]}},{"properties":{"name":"WPT205","id":"a68m4sa31ro2"},"type":"Feature","geometry":{"type":"Point","coordinates":[-98.907969,39.450001]}},{"properties":{"name":"WPT206","id":"a68m4s8dvlsm"},"type":"Feature","geometry":{"type":"Point","coordinates":[-98.907969,39.450001]}},{"properties":{"name":"WPT207","id":"a68m4s9sa8jx"},"type":"Feature","geometry":{"type":"Point","coordinates":[-98.907969,39.450001]}},{"properties":{"name":"WPT208","id":"a68m4sfxmus4"},"type":"Feature","geometry":{"type":"Point","coordinates":[-98.907969,39.450001]}},{"properties":{"name":"WPT209","id":"a68m4sjojg0h"},"type":"Feature","geometry":{"type":"Point","coordinates":[-98.907969,39.450001]}},{"properties":{"name":"WPT210","id":"a68m4snz42rr"},"type":"Feature","geometry":{"type":"Point","coordinates":[-98.907969,39.450001]}},{"properties":{"name":"WPT211","id":"a68m4sb2jq5u"},"type":"Feature","geometry":{"type":"Point","coordinates":[-98.907969,39.450001]}},{"properties":{"name":"WPT212","id":"a68m4sipxmpp"},"type":"Feature","geometry":{"type":"Point","coordinates":[-98.907969,39.450001]}},{"properties":{"name":"WPT213","id":"a68m4sjs3wqo"},"type":"Feature","geometry":{"type":"Point","coordinates":[-98.907969,39.450001]}},{"properties":{"name":"WPT214","id":"a68m4snmn8fl"},"type":"Feature","geometry":{"type":"Point","coordinates":[-98.907969,39.450001]}},{"properties":{"name":"WPT215","id":"a68m4siy5lat"},"type":"Feature","geometry":{"type":"Point","coordinates":[-98.907969,39.450001]}},{"properties":{"name":"WPT216","id":"a68m4s9deoc7"},"type":"Feature","geometry":{"type":"Point","coordinates":[-98.907969,39.450001]}},{"properties":{"name":"WPT217","id":"a68m4sdtt57v"},"type":"Feature","geometry":{"type":"Point","coordinates":[-98.907969,39.450001]}},{"properties":{"name":"WPT218","id":"a68m4sdybrtm"},"type":"Feature","geometry":{"type":"Point","coordinates":[-98.907969,39.450001]}},{"properties":{"name":"WPT219","id":"a68m4snt3wno"},"type":"Feature","geometry":{"type":"Point","coordinates":[-98.907969,39.450001]}},{"properties":{"name":"WPT220","id":"a68m4sluzn6e"},"type":"Feature","geometry":{"type":"Point","coordinates":[-98.907969,39.450001]}},{"properties":{"name":"WPT221","id":"a68m4sbxbilw"},"type":"Feature","geometry":{"type":"Point","coordinates":[-98.907969,39.450001]}},{"properties":{"name":"WPT222","id":"a68m4sb2dmhn"},"type":"Feature","geometry":{"type":"Point","coordinates":[-98.907969,39.450001]}},{"properties":{"name":"WPT223","id":"a68m4sd4ez7j"},"type":"Feature","geometry":{"type":"Point","coordinates":[-98.907969,39.450001]}},{"properties":{"name":"WPT224","id":"a68m4s89lhie"},"type":"Feature","geometry":{"type":"Point","coordinates":[-98.907969,39.450001]}},{"properties":{"name":"WPT225","id":"a68m4s97tkq6"},"type":"Feature","geometry":{"type":"Point","coordinates":[-98.907969,39.450001]}},{"properties":{"name":"WPT226","id":"a68m4sl1x9ma"},"type":"Feature","geometry":{"type":"Point","coordinates":[-98.907969,39.450001]}},{"properties":{"name":"WPT227","id":"a68m4sj6whuf"},"type":"Feature","geometry":{"type":"Point","coordinates":[-98.907969,39.450001]}},{"properties":{"name":"WPT228","id":"a68m4snbfl5l"},"type":"Feature","geometry":{"type":"Point","coordinates":[-98.907969,39.450001]}},{"properties":{"name":"WPT229","id":"a68m4sezoxja"},"type":"Feature","geometry":{"type":"Point","coordinates":[-98.907969,39.450001]}},{"properties":{"name":"WPT230","id":"a68m4so067g8"},"type":"Feature","geometry":{"type":"Point","coordinates":[-98.907969,39.450001]}},{"properties":{"name":"WPT231","id":"a68m4sdp48kq"},"type":"Feature","geometry":{"type":"Point","coordinates":[-98.907969,39.450001]}},{"properties":{"name":"WPT232","id":"a68m4sezd5pi"},"type":"Feature","geometry":{"type":"Point","coordinates":[-98.907969,39.450001]}},{"properties":{"name":"WPT233","id":"a68m4seln22p"},"type":"Feature","geometry":{"type":"Point","coordinates":[-98.907969,39.450001]}},{"properties":{"name":"WPT234","id":"a68m4sg3844v"},"type":"Feature","geometry":{"type":"Point","coordinates":[-98.907969,39.450001]}},{"properties":{"name":"WPT235","id":"a68m4segcet8"},"type":"Feature","geometry":{"type":"Point","coordinates":[-98.907969,39.450001]}},{"properties":{"name":"WPT236","id":"a68m4sfoau8c"},"type":"Feature","geometry":{"type":"Point","coordinates":[-98.907969,39.450001]}},{"properties":{"name":"WPT237","id":"a68m4sn0llx7"},"type":"Feature","geometry":{"type":"Point","coordinates":[-98.907969,39.450001]}},{"properties":{"name":"WPT238","id":"a68m4slvzolb"},"type":"Feature","geometry":{"type":"Point","coordinates":[-98.907969,39.450001]}},{"properties":{"name":"WPT239","id":"a68m4sc5jxdc"},"type":"Feature","geometry":{"type":"Point","coordinates":[-98.907969,39.450001]}},{"properties":{"name":"WPT240","id":"a68m4s8x86mw"},"type":"Feature","geometry":{"type":"Point","coordinates":[-98.907969,39.450001]}},{"properties":{"name":"WPT241","id":"a68m4slzjerz"},"type":"Feature","geometry":{"type":"Point","coordinates":[-98.907969,39.450001]}},{"properties":{"name":"WPT242","id":"a68m4skbudlo"},"type":"Feature","geometry":{"type":"Point","coordinates":[-98.907969,39.450001]}},{"properties":{"name":"WPT243","id":"a68m4se2v6od"},"type":"Feature","geometry":{"type":"Point","coordinates":[-98.907969,39.450001]}},{"properties":{"name":"WPT244","id":"a68m4skkvdyb"},"type":"Feature","geometry":{"type":"Point","coordinates":[-98.907969,39.450001]}},{"properties":{"name":"WPT245","id":"a68m4sm8zi0f"},"type":"Feature","geometry":{"type":"Point","coordinates":[-98.907969,39.450001]}},{"properties":{"name":"WPT246","id":"a68m4sj067m1"},"type":"Feature","geometry":{"type":"Point","coordinates":[-98.907969,39.450001]}},{"properties":{"name":"WPT247","id":"a68m4sk516to"},"type":"Feature","geometry":{"type":"Point","coordinates":[-98.907969,39.450001]}},{"properties":{"name":"WPT248","id":"a68m4set61i4"},"type":"Feature","geometry":{"type":"Point","coordinates":[-98.907969,39.450001]}},{"properties":{"name":"WPT249","id":"a68m4slx111w"},"type":"Feature","geometry":{"type":"Point","coordinates":[-98.907969,39.450001]}},{"properties":{"name":"WPT250","id":"a68m4sh0kss6"},"type":"Feature","geometry":{"type":"Point","coordinates":[-98.907969,39.450001]}},{"properties":{"name":"WPT251","id":"a68m4sdiotm1"},"type":"Feature","geometry":{"type":"Point","coordinates":[-98.907969,39.450001]}},{"properties":{"name":"WPT252","id":"a68m4sdkchjd"},"type":"Feature","geometry":{"type":"Point","coordinates":[-98.907969,39.450001]}},{"properties":{"name":"WPT253","id":"a68m4sez9ftq"},"type":"Feature","geometry":{"type":"Point","coordinates":[-98.907969,39.450001]}},{"properties":{"name":"WPT254","id":"a68m4sn2r83b"},"type":"Feature","geometry":{"type":"Point","coordinates":[-98.907969,39.450001]}},{"properties":{"name":"WPT255","id":"a68m4s84dtef"},"type":"Feature","geometry":{"type":"Point","coordinates":[-98.907969,39.450001]}},{"properties":{"name":"WPT256","id":"a68m4se5ru3i"},"type":"Feature","geometry":{"type":"Point","coordinates":[-98.907969,39.450001]}},{"properties":{"name":"WPT257","id":"a68m4sg0wqsn"},"type":"Feature","geometry":{"type":"Point","coordinates":[-98.907969,39.450001]}},{"properties":{"name":"WPT258","id":"a68m4s7qbwzb"},"type":"Feature","geometry":{"type":"Point","coordinates":[-98.907969,39.450001]}},{"properties":{"name":"WPT259","id":"a68m4snjqpnd"},"type":"Feature","geometry":{"type":"Point","coordinates":[-98.907969,39.450001]}},{"properties":{"name":"WPT260","id":"a68m4sd0gygj"},"type":"Feature","geometry":{"type":"Point","coordinates":[-98.907969,39.450001]}},{"properties":{"name":"WPT261","id":"a68m4skgp7xf"},"type":"Feature","geometry":{"type":"Point","coordinates":[-98.907969,39.450001]}},{"properties":{"name":"WPT262","id":"a68m4snnz7cn"},"type":"Feature","geometry":{"type":"Point","coordinates":[-98.907969,39.450001]}},{"properties":{"name":"WPT263","id":"a68m4sgsai90"},"type":"Feature","geometry":{"type":"Point","coordinates":[-98.907969,39.450001]}},{"properties":{"name":"WPT264","id":"a68m4snqzupo"},"type":"Feature","geometry":{"type":"Point","coordinates":[-98.907969,39.450001]}},{"properties":{"name":"WPT265","id":"a68m4s9rvbbs"},"type":"Feature","geometry":{"type":"Point","coordinates":[-98.907969,39.450001]}},{"properties":{"name":"WPT266","id":"a68m4s9hsq2x"},"type":"Feature","geometry":{"type":"Point","coordinates":[-98.907969,39.450001]}},{"properties":{"name":"WPT267","id":"a68m4sk8u1t7"},"type":"Feature","geometry":{"type":"Point","coordinates":[-98.907969,39.450001]}},{"properties":{"name":"WPT268","id":"a68m4snu73ua"},"type":"Feature","geometry":{"type":"Point","coordinates":[-98.907969,39.450001]}},{"properties":{"name":"WPT269","id":"a68m4sk3hk0n"},"type":"Feature","geometry":{"type":"Point","coordinates":[-98.907969,39.450001]}},{"properties":{"name":"WPT270","id":"a68m4scgj21d"},"type":"Feature","geometry":{"type":"Point","coordinates":[-98.907969,39.450001]}},{"properties":{"name":"WPT271","id":"a68m4slx2dcv"},"type":"Feature","geometry":{"type":"Point","coordinates":[-98.907969,39.450001]}},{"properties":{"name":"WPT272","id":"a68m4s948sdp"},"type":"Feature","geometry":{"type":"Point","coordinates":[-98.907969,39.450001]}},{"properties":{"name":"WPT273","id":"a68m4sdj3lyz"},"type":"Feature","geometry":{"type":"Point","coordinates":[-98.907969,39.450001]}},{"properties":{"name":"WPT274","id":"a68m4s8rcj1u"},"type":"Feature","geometry":{"type":"Point","coordinates":[-98.907969,39.450001]}},{"properties":{"name":"WPT275","id":"a68m4shbtacm"},"type":"Feature","geometry":{"type":"Point","coordinates":[-98.907969,39.450001]}},{"properties":{"name":"WPT276","id":"a68m4sltus6s"},"type":"Feature","geometry":{"type":"Point","coordinates":[-98.907969,39.450001]}},{"properties":{"name":"WPT277","id":"a68m4sfkg5sm"},"type":"Feature","geometry":{"type":"Point","coordinates":[-98.907969,39.450001]}},{"properties":{"name":"WPT278","id":"a68m4s8qiyuy"},"type":"Feature","geometry":{"type":"Point","coordinates":[-98.907969,39.450001]}},{"properties":{"name":"WPT279","id":"a68m4sc2qlzu"},"type":"Feature","geometry":{"type":"Point","coordinates":[-98.907969,39.450001]}},{"properties":{"name":"WPT280","id":"a68m4sa6bprg"},"type":"Feature","geometry":{"type":"Point","coordinates":[-98.907969,39.450001]}},{"properties":{"name":"WPT281","id":"a68m4sjzegjn"},"type":"Feature","geometry":{"type":"Point","coordinates":[-98.907969,39.450001]}},{"properties":{"name":"WPT282","id":"a68m4snrwi8o"},"type":"Feature","geometry":{"type":"Point","coordinates":[-98.907969,39.450001]}},{"properties":{"name":"WPT283","id":"a68m4shwfy1r"},"type":"Feature","geometry":{"type":"Point","coordinates":[-98.907969,39.450001]}},{"properties":{"name":"WPT284","id":"a68m4shpzm70"},"type":"Feature","geometry":{"type":"Point","coordinates":[-98.907969,39.450001]}},{"properties":{"name":"WPT285","id":"a68m4s8ozwkg"},"type":"Feature","geometry":{"type":"Point","coordinates":[-98.907969,39.450001]}},{"properties":{"name":"WPT286","id":"a68m4siowh67"},"type":"Feature","geometry":{"type":"Point","coordinates":[-98.907969,39.450001]}},{"properties":{"name":"WPT287","id":"a68m4s9qm1ng"},"type":"Feature","geometry":{"type":"Point","coordinates":[-98.907969,39.450001]}},{"properties":{"name":"WPT288","id":"a68m4sg5dsmx"},"type":"Feature","geometry":{"type":"Point","coordinates":[-98.907969,39.450001]}},{"properties":{"name":"WPT289","id":"a68m4sdteu7i"},"type":"Feature","geometry":{"type":"Point","coordinates":[-98.907969,39.450001]}},{"properties":{"name":"WPT290","id":"a68m4sh8nqz1"},"type":"Feature","geometry":{"type":"Point","coordinates":[-98.907969,39.450001]}},{"properties":{"name":"WPT291","id":"a68m4siedvyw"},"type":"Feature","geometry":{"type":"Point","coordinates":[-98.907969,39.450001]}},{"properties":{"name":"WPT292","id":"a68m4si9hnou"},"type":"Feature","geometry":{"type":"Point","coordinates":[-98.907969,39.450001]}},{"properties":{"name":"WPT293","id":"a68m4senfdb5"},"type":"Feature","geometry":{"type":"Point","coordinates":[-98.907969,39.450001]}},{"properties":{"name":"WPT294","id":"a68m4s9yq6hm"},"type":"Feature","geometry":{"type":"Point","coordinates":[-98.907969,39.450001]}},{"properties":{"name":"WPT295","id":"a68m4scwj9a2"},"type":"Feature","geometry":{"type":"Point","coordinates":[-98.907969,39.450001]}},{"properties":{"name":"WPT296","id":"a68m4sd05ab5"},"type":"Feature","geometry":{"type":"Point","coordinates":[-98.907969,39.450001]}},{"properties":{"name":"WPT297","id":"a68m4sbv32x5"},"type":"Feature","geometry":{"type":"Point","coordinates":[-98.907969,39.450001]}},{"properties":{"name":"WPT298","id":"a68m4s9easrf"},"type":"Feature","geometry":{"type":"Point","coordinates":[-98.907969,39.450001]}},{"properties":{"name":"WPT299","id":"a68m4sbrnpts"},"type":"Feature","geometry":{"type":"Point","coordinates":[-98.907969,39.450001]}},{"properties":{"name":"WPT300","id":"a68m4skywzvl"},"type":"Feature","geometry":{"type":"Point","coordinates":[-98.907969,39.450001]}},{"properties":{"name":"WPT301","id":"a68m4s7sftgs"},"type":"Feature","geometry":{"type":"Point","coordinates":[-98.907969,39.450001]}},{"properties":{"name":"WPT302","id":"a68m4slv3adh"},"type":"Feature","geometry":{"type":"Point","coordinates":[-98.907969,39.450001]}},{"properties":{"name":"WPT303","id":"a68m4sdue3om"},"type":"Feature","geometry":{"type":"Point","coordinates":[-98.907969,39.450001]}},{"properties":{"name":"WPT304","id":"a68m4sncdhav"},"type":"Feature","geometry":{"type":"Point","coordinates":[-98.907969,39.450001]}},{"properties":{"name":"WPT305","id":"a68m4sa3ss69"},"type":"Feature","geometry":{"type":"Point","coordinates":[-98.907969,39.450001]}},{"properties":{"name":"WPT306","id":"a68m4sfrsy5j"},"type":"Feature","geometry":{"type":"Point","coordinates":[-98.907969,39.450001]}},{"properties":{"name":"WPT307","id":"a68m4sbyf799"},"type":"Feature","geometry":{"type":"Point","coordinates":[-98.907969,39.450001]}},{"properties":{"name":"WPT308","id":"a68m4s90tefo"},"type":"Feature","geometry":{"type":"Point","coordinates":[-98.907969,39.450001]}},{"properties":{"name":"WPT309","id":"a68m4sj4f0w0"},"type":"Feature","geometry":{"type":"Point","coordinates":[-98.907969,39.450001]}},{"properties":{"name":"WPT310","id":"a68m4slf01wy"},"type":"Feature","geometry":{"type":"Point","coordinates":[-98.907969,39.450001]}},{"properties":{"name":"WPT311","id":"a68m4si2k9xa"},"type":"Feature","geometry":{"type":"Point","coordinates":[-98.907969,39.450001]}},{"properties":{"name":"WPT312","id":"a68m4saxwlds"},"type":"Feature","geometry":{"type":"Point","coordinates":[-98.907969,39.450001]}},{"properties":{"name":"WPT313","id":"a68m4sdbgg1f"},"type":"Feature","geometry":{"type":"Point","coordinates":[-98.907969,39.450001]}},{"properties":{"name":"WPT314","id":"a68m4scbpx4y"},"type":"Feature","geometry":{"type":"Point","coordinates":[-98.907969,39.450001]}},{"properties":{"name":"WPT315","id":"a68m4shbc0bz"},"type":"Feature","geometry":{"type":"Point","coordinates":[-98.907969,39.450001]}},{"properties":{"name":"WPT316","id":"a68m4s7nsnqe"},"type":"Feature","geometry":{"type":"Point","coordinates":[-98.907969,39.450001]}},{"properties":{"name":"WPT317","id":"a68m4sjz8wim"},"type":"Feature","geometry":{"type":"Point","coordinates":[-98.907969,39.450001]}},{"properties":{"name":"WPT318","id":"a68m4sj7h1y9"},"type":"Feature","geometry":{"type":"Point","coordinates":[-98.907969,39.450001]}},{"properties":{"name":"WPT319","id":"a68m4sgmuyj2"},"type":"Feature","geometry":{"type":"Point","coordinates":[-98.907969,39.450001]}},{"properties":{"name":"WPT320","id":"a68m4sdlhq5v"},"type":"Feature","geometry":{"type":"Point","coordinates":[-98.907969,39.450001]}},{"properties":{"name":"WPT321","id":"a68m4sn8oesb"},"type":"Feature","geometry":{"type":"Point","coordinates":[-98.907969,39.450001]}},{"properties":{"name":"WPT322","id":"a68m4sngy36a"},"type":"Feature","geometry":{"type":"Point","coordinates":[-98.907969,39.450001]}},{"properties":{"name":"WPT323","id":"a68m4sk197jn"},"type":"Feature","geometry":{"type":"Point","coordinates":[-98.907969,39.450001]}},{"properties":{"name":"WPT324","id":"a68m4s8o1eyn"},"type":"Feature","geometry":{"type":"Point","coordinates":[-98.907969,39.450001]}},{"properties":{"name":"WPT325","id":"a68m4s8yh847"},"type":"Feature","geometry":{"type":"Point","coordinates":[-98.907969,39.450001]}},{"properties":{"name":"WPT326","id":"a68m4s9jx2oi"},"type":"Feature","geometry":{"type":"Point","coordinates":[-98.907969,39.450001]}},{"properties":{"name":"WPT327","id":"a68m4snbjcec"},"type":"Feature","geometry":{"type":"Point","coordinates":[-98.907969,39.450001]}},{"properties":{"name":"WPT328","id":"a68m4sav61dn"},"type":"Feature","geometry":{"type":"Point","coordinates":[-98.907969,39.450001]}},{"properties":{"name":"WPT329","id":"a68m4sg9ofu2"},"type":"Feature","geometry":{"type":"Point","coordinates":[-98.907969,39.450001]}},{"properties":{"name":"WPT330","id":"a68m4si8iw4c"},"type":"Feature","geometry":{"type":"Point","coordinates":[-98.907969,39.450001]}},{"properties":{"name":"WPT331","id":"a68m4sdn0zdt"},"type":"Feature","geometry":{"type":"Point","coordinates":[-98.907969,39.450001]}},{"properties":{"name":"WPT332","id":"a68m4s7t9nqq"},"type":"Feature","geometry":{"type":"Point","coordinates":[-98.907969,39.450001]}},{"properties":{"name":"WPT333","id":"a68m4sdffep1"},"type":"Feature","geometry":{"type":"Point","coordinates":[-98.907969,39.450001]}},{"properties":{"name":"WPT334","id":"a68m4shwj2cj"},"type":"Feature","geometry":{"type":"Point","coordinates":[-98.907969,39.450001]}},{"properties":{"name":"WPT335","id":"a68m4sayj1sk"},"type":"Feature","geometry":{"type":"Point","coordinates":[-98.907969,39.450001]}},{"properties":{"name":"WPT336","id":"a68m4skkswr1"},"type":"Feature","geometry":{"type":"Point","coordinates":[-98.907969,39.450001]}},{"properties":{"name":"WPT337","id":"a68m4sg1f3x1"},"type":"Feature","geometry":{"type":"Point","coordinates":[-98.907969,39.450001]}},{"properties":{"name":"WPT338","id":"a68m4snv4hoo"},"type":"Feature","geometry":{"type":"Point","coordinates":[-98.907969,39.450001]}},{"properties":{"name":"WPT339","id":"a68m4sn2jpex"},"type":"Feature","geometry":{"type":"Point","coordinates":[-98.907969,39.450001]}},{"properties":{"name":"WPT340","id":"a68m4segi9g6"},"type":"Feature","geometry":{"type":"Point","coordinates":[-98.907969,39.450001]}},{"properties":{"name":"WPT341","id":"a68m4se6rlyg"},"type":"Feature","geometry":{"type":"Point","coordinates":[-98.907969,39.450001]}},{"properties":{"name":"WPT342","id":"a68m4sbyfys2"},"type":"Feature","geometry":{"type":"Point","coordinates":[-98.907969,39.450001]}},{"properties":{"name":"WPT343","id":"a68m4s8o5lr8"},"type":"Feature","geometry":{"type":"Point","coordinates":[-98.907969,39.450001]}},{"properties":{"name":"WPT344","id":"a68m4sj2ufql"},"type":"Feature","geometry":{"type":"Point","coordinates":[-98.907969,39.450001]}},{"properties":{"name":"WPT345","id":"a68m4shbyw08"},"type":"Feature","geometry":{"type":"Point","coordinates":[-98.907969,39.450001]}},{"properties":{"name":"WPT346","id":"a68m4sgu81ty"},"type":"Feature","geometry":{"type":"Point","coordinates":[-98.907969,39.450001]}},{"properties":{"name":"WPT347","id":"a68m4sgevzft"},"type":"Feature","geometry":{"type":"Point","coordinates":[-98.907969,39.450001]}},{"properties":{"name":"WPT348","id":"a68m4silaefs"},"type":"Feature","geometry":{"type":"Point","coordinates":[-98.907969,39.450001]}},{"properties":{"name":"WPT349","id":"a68m4s90ekyv"},"type":"Feature","geometry":{"type":"Point","coordinates":[-98.907969,39.450001]}},{"properties":{"name":"WPT350","id":"a68m4skvn7ln"},"type":"Feature","geometry":{"type":"Point","coordinates":[-98.907969,39.450001]}},{"properties":{"name":"WPT351","id":"a68m4se7brkz"},"type":"Feature","geometry":{"type":"Point","coordinates":[-98.907969,39.450001]}},{"properties":{"name":"Weidner Timothy","id":"a68m4sdulovc"},"type":"Feature","geometry":{"type":"Point","coordinates":[-121.950405,37.255543]}},{"properties":{"name":"Wickowicz Diana","id":"a68m4sgbc44d"},"type":"Feature","geometry":{"type":"Point","coordinates":[-121.972302,37.222041]}},{"properties":{"name":"Windett Lara","id":"a68m4sib1biv"},"type":"Feature","geometry":{"type":"Point","coordinates":[-121.932797,37.327045]}},{"properties":{"name":"Wroblewska Magda","id":"a68m4sh4r9oy"},"type":"Feature","geometry":{"type":"Point","coordinates":[-121.917401,37.337799]}},{"properties":{"name":"Wu Tuk-Joy","id":"a68m4s9rsmzs"},"type":"Feature","geometry":{"type":"Point","coordinates":[-121.883319,37.435772]}}],"is_temporal":false,"author":{"url":"","metadata":"","contact_name":"","contact_address":"","source":"","contact_phone":""},"source":"","pagination":{"sort":null,"start":0,"total":351,"limit":1000000},"state":"complete","tags":"","published":"2014-08-10T11:33:37-04:00","id":60376}