{"type":"FeatureCollection","data_type":"Dataset","url_type":null,"permissions":[{"permissions":{"download":true,"view":true},"group_id":"everyone"}],"classification":null,"title":"Zumiez Store Locations, US 12.12.2007","count":277,"stream_id":6340,"contributor":{"url":"http://geocommons.com/users/2","name":"data"},"data_attributes":null,"calculation_params":null,"icon_link":null,"link":"http://geocommons.com/overlays/6340.json","extent":[-149.888,25.9749,-72.5308,61.2174],"geometry_types":["point"],"unique_name":null,"name":"Zumiez Store Locations, US 12.12.2007","feature_count":277,"description":"This datset displays the locations for over 270 Zumiez retail stores throughout the United States. Zumiez is a retail store that specializes in clothing, gear, and accessories associated with the action sports industry. This includes skateboarding, Snowboarding, and surfing. This data was collected from the Zumiez Webpage at: www.zumiez.com and using the data collected from the store locater, the data was geocoded according to the address in order to find the latitude and longitude coordinates. This data was accessed on December 12, 2007. ","next_feature":null,"is_raster":false,"short_classification":"Y","stats":{"LONGITUDE0":{"max":-72.530769,"mean":-101.865707638989,"variance":337.051165695812,"stdev":18.3589532843191,"min":-149.887888,"median":-105.159162},"ZIP0":{"max":99515.0,"mean":66531.9350180505,"variance":1019352546.04649,"stdev":31927.3009514817,"min":6385.0,"median":80401.0},"LATITUDE0":{"max":61.217433,"mean":39.2898120541516,"variance":30.6443774996988,"stdev":5.53573640085028,"min":25.97491,"median":40.085446}},"features":[{"properties":{"LONGITUDE0":-74.079048,"ZIP0":7652.0,"CITY0":"PARAMUS","PHONE0":"201-843-0705","STORE0":"GARDEN STATE","LATITUDE0":40.914909,"id":"a62c2sd5nbdd","STATE0":"NJ","ADDRESS0":"1 Garden State #C 04"},"type":"Feature","geometry":{"type":"Point","coordinates":[-74.079048,40.914909]}},{"properties":{"LONGITUDE0":-72.803818,"ZIP0":6451.0,"CITY0":"MERIDEN","PHONE0":"203-686-0874","STORE0":"MERIDEN SHOPPING TOWN","LATITUDE0":41.550388,"id":"a62c2s2b7nyg","STATE0":"CT","ADDRESS0":"470 Lewis Ave, Ste 1072"},"type":"Feature","geometry":{"type":"Point","coordinates":[-72.803818,41.550388]}},{"properties":{"LONGITUDE0":-73.057358,"ZIP0":6460.0,"CITY0":"MILFORD","PHONE0":"203-878-0054","STORE0":"CONNECTICUT POST","LATITUDE0":41.225029,"id":"a62c2see785o","STATE0":"CT","ADDRESS0":"1201 Boston Road Ste 2031"},"type":"Feature","geometry":{"type":"Point","coordinates":[-73.057358,41.225029]}},{"properties":{"LONGITUDE0":-122.257678,"ZIP0":98188.0,"CITY0":"TUKWILA","PHONE0":"206-241-9170","STORE0":"SOUTHCENTER MALL","LATITUDE0":47.460655,"id":"a62c2sg1qnbv","STATE0":"WA","ADDRESS0":"1008 Southcenter Mall"},"type":"Feature","geometry":{"type":"Point","coordinates":[-122.257678,47.460655]}},{"properties":{"LONGITUDE0":-122.329729,"ZIP0":98125.0,"CITY0":"SEATTLE","PHONE0":"206-364-8989","STORE0":"NORTHGATE MALL","LATITUDE0":47.60347,"id":"a62c2sduzt6q","STATE0":"WA","ADDRESS0":"931 Northgate Mall Way"},"type":"Feature","geometry":{"type":"Point","coordinates":[-122.329729,47.60347]}},{"properties":{"LONGITUDE0":-116.283813,"ZIP0":83704.0,"CITY0":"BOISE","PHONE0":"208- 376-9958","STORE0":"BOISE TOWN SQUARE","LATITUDE0":43.608309,"id":"a62c2sdnizfc","STATE0":"ID","ADDRESS0":"350 N. Milwaukee # 2170"},"type":"Feature","geometry":{"type":"Point","coordinates":[-116.283813,43.608309]}},{"properties":{"LONGITUDE0":-111.98723,"ZIP0":83404.0,"CITY0":"IDAHO FALLS","PHONE0":"208- 525-8642","STORE0":"GRAND TETON MALL","LATITUDE0":43.482013,"id":"a62c2s60jw7p","STATE0":"ID","ADDRESS0":"2300 E 17th St, # 1174"},"type":"Feature","geometry":{"type":"Point","coordinates":[-111.98723,43.482013]}},{"properties":{"LONGITUDE0":-114.480234,"ZIP0":83301.0,"CITY0":"TWIN FALLS","PHONE0":"208- 735-1257","STORE0":"MAGIC VALLEY MALL","LATITUDE0":42.52472,"id":"a62c2sec9v7i","STATE0":"ID","ADDRESS0":"1485 Pole Line Rd E,103/105"},"type":"Feature","geometry":{"type":"Point","coordinates":[-114.480234,42.52472]}},{"properties":{"LONGITUDE0":-112.476438,"ZIP0":83202.0,"CITY0":"CHUBBUCK","PHONE0":"208-637-0215","STORE0":"PINE RIDGE MALL","LATITUDE0":42.927547,"id":"a62c2scpx9bd","STATE0":"ID","ADDRESS0":"1215 Pine Ridge Mall"},"type":"Feature","geometry":{"type":"Point","coordinates":[-112.476438,42.927547]}},{"properties":{"LONGITUDE0":-117.026893,"ZIP0":83843.0,"CITY0":"MOSCOW","PHONE0":"208-892-9176","STORE0":"PALOUSE MALL","LATITUDE0":46.7327,"id":"a62c2saig9yb","STATE0":"ID","ADDRESS0":"1850 W Pullman Rd, Ste C-9"},"type":"Feature","geometry":{"type":"Point","coordinates":[-117.026893,46.7327]}},{"properties":{"LONGITUDE0":-121.05008,"ZIP0":95356.0,"CITY0":"MODESTO","PHONE0":"209-523-0158","STORE0":"VINTAGE FAIRE MALL","LATITUDE0":37.688296,"id":"a62c2se8np8o","STATE0":"CA","ADDRESS0":"3401 Dale Road, # 247B"},"type":"Feature","geometry":{"type":"Point","coordinates":[-121.05008,37.688296]}},{"properties":{"LONGITUDE0":-120.481965,"ZIP0":95348.0,"CITY0":"MERCED","PHONE0":"209-723-6467","STORE0":"MERCED MALL","LATITUDE0":37.32008,"id":"a62c2s4unqhh","STATE0":"CA","ADDRESS0":"713 Merced Mall"},"type":"Feature","geometry":{"type":"Point","coordinates":[-120.481965,37.32008]}},{"properties":{"LONGITUDE0":-121.462153,"ZIP0":95376.0,"CITY0":"TRACY","PHONE0":"209-830-6400","STORE0":"WEST VALLEY MALL","LATITUDE0":37.759212,"id":"a62c2sb146jl","STATE0":"CA","ADDRESS0":"3200 Naglee Road #153"},"type":"Feature","geometry":{"type":"Point","coordinates":[-121.462153,37.759212]}},{"properties":{"LONGITUDE0":-98.620674,"ZIP0":78256.0,"CITY0":"SAN ANTONIO","PHONE0":"210 694 2222","STORE0":"LaCANTERA MALL","LATITUDE0":29.6215,"id":"a62c2sc20k1y","STATE0":"TX","ADDRESS0":"15900 LaCantera Pky B-7, 7735"},"type":"Feature","geometry":{"type":"Point","coordinates":[-98.620674,29.6215]}},{"properties":{"LONGITUDE0":-98.499114,"ZIP0":78216.0,"CITY0":"SAN ANTONIO","PHONE0":"210-349-5006","STORE0":"NORTH STAR MALL","LATITUDE0":29.516938,"id":"a62c2sedoa9b","STATE0":"TX","ADDRESS0":"7400 San Pedro Ste #1165"},"type":"Feature","geometry":{"type":"Point","coordinates":[-98.499114,29.516938]}},{"properties":{"LONGITUDE0":-75.120673,"ZIP0":19090.0,"CITY0":"WILLOW GROVE","PHONE0":"215-659-3572","STORE0":"WILLOW GROVE MALL","LATITUDE0":40.143411,"id":"a62c2scpjwo0","STATE0":"PA","ADDRESS0":"2500 Moreland Road,Ste 1000B"},"type":"Feature","geometry":{"type":"Point","coordinates":[-75.120673,40.143411]}},{"properties":{"LONGITUDE0":-75.242859,"ZIP0":19454.0,"CITY0":"NORTH WALES","PHONE0":"215-855-3537","STORE0":"MONTGOMERY MALL","LATITUDE0":40.226422,"id":"a62c2s7b4yco","STATE0":"PA","ADDRESS0":"274 Montgomery Mall 2021"},"type":"Feature","geometry":{"type":"Point","coordinates":[-75.242859,40.226422]}},{"properties":{"LONGITUDE0":-74.955913,"ZIP0":19020.0,"CITY0":"BENSALEM","PHONE0":"215-953-2058","STORE0":"NESHAMINY MALL","LATITUDE0":40.136359,"id":"a62c2s1odfgw","STATE0":"PA","ADDRESS0":"707 Neshaminy Mall #167"},"type":"Feature","geometry":{"type":"Point","coordinates":[-74.955913,40.136359]}},{"properties":{"LONGITUDE0":-92.161377,"ZIP0":55811.0,"CITY0":"DULUTH","PHONE0":"218-727-4314","STORE0":"MILLER HILL","LATITUDE0":46.806647,"id":"a62c2s2waj7w","STATE0":"MN","ADDRESS0":"1600 Miller Trunk Hwy #J-03"},"type":"Feature","geometry":{"type":"Point","coordinates":[-92.161377,46.806647]}},{"properties":{"LONGITUDE0":-87.307455,"ZIP0":46410.0,"CITY0":"MERRILLVILLE","PHONE0":"219-769-6319","STORE0":"SOUTHLAKE MALL","LATITUDE0":41.470267,"id":"a62c2s6ypmc5","STATE0":"IN","ADDRESS0":"2408 Southlake Mall"},"type":"Feature","geometry":{"type":"Point","coordinates":[-87.307455,41.470267]}},{"properties":{"LONGITUDE0":-81.799274,"ZIP0":34102.0,"CITY0":"NAPLES","PHONE0":"239-403-7661","STORE0":"COASTLAND CENTER","LATITUDE0":26.169387,"id":"a62c2sbmb5ey","STATE0":"FL","ADDRESS0":"1900 Tamiami Trail N.#L8"},"type":"Feature","geometry":{"type":"Point","coordinates":[-81.799274,26.169387]}},{"properties":{"LONGITUDE0":-81.744916,"ZIP0":33913.0,"CITY0":"FORT MYERS","PHONE0":"239-489-3123","STORE0":"GULF COAST TWN CTR","LATITUDE0":26.552746,"id":"a62c2s0mi9ig","STATE0":"FL","ADDRESS0":"9903 Gulf Coast Main St G135"},"type":"Feature","geometry":{"type":"Point","coordinates":[-81.744916,26.552746]}},{"properties":{"LONGITUDE0":-122.467853,"ZIP0":98409.0,"CITY0":"TACOMA","PHONE0":"253-473-0902","STORE0":"TACOMA MALL","LATITUDE0":47.217893,"id":"a62c2s2u9a21","STATE0":"WA","ADDRESS0":"4502 S Steele St, #420 A"},"type":"Feature","geometry":{"type":"Point","coordinates":[-122.467853,47.217893]}},{"properties":{"LONGITUDE0":-122.293093,"ZIP0":98373.0,"CITY0":"PUYALLUP","PHONE0":"253-841-5675","STORE0":"SOUTH HILL MALL","LATITUDE0":47.157917,"id":"a62c2saq62wl","STATE0":"WA","ADDRESS0":"3500 S. Meridian #340"},"type":"Feature","geometry":{"type":"Point","coordinates":[-122.293093,47.157917]}},{"properties":{"LONGITUDE0":-122.23495,"ZIP0":98032.0,"CITY0":"KENT","PHONE0":"253-859-9660","STORE0":"KENT STATION","LATITUDE0":47.384406,"id":"a62c2s2tsct4","STATE0":"WA","ADDRESS0":"417 Ramsay Way, Ste #103"},"type":"Feature","geometry":{"type":"Point","coordinates":[-122.23495,47.384406]}},{"properties":{"LONGITUDE0":-122.245615,"ZIP0":98001.0,"CITY0":"AUBURN","PHONE0":"253-931-1916","STORE0":"AUBURN SUPERMALL","LATITUDE0":47.296293,"id":"a62c2s30pn8a","STATE0":"WA","ADDRESS0":"1100 Supermall Way #421"},"type":"Feature","geometry":{"type":"Point","coordinates":[-122.245615,47.296293]}},{"properties":{"LONGITUDE0":-122.312973,"ZIP0":98003.0,"CITY0":"FEDERAL WAY","PHONE0":"253-946-3347","STORE0":"COMMONS AT FEDERAL WAY","LATITUDE0":47.31386,"id":"a62c2s0nvy04","STATE0":"WA","ADDRESS0":"2104 S. Commons #C20"},"type":"Feature","geometry":{"type":"Point","coordinates":[-122.312973,47.31386]}},{"properties":{"LONGITUDE0":-87.947249,"ZIP0":53158.0,"CITY0":"PLEASANT PRAIRIE","PHONE0":"262-857-2156","STORE0":"PLEASANT PRAIRIE","LATITUDE0":42.51951,"id":"a62c2sffxph1","STATE0":"WI","ADDRESS0":"11601 108th St Space 516"},"type":"Feature","geometry":{"type":"Point","coordinates":[-87.947249,42.51951]}},{"properties":{"LONGITUDE0":-95.811384,"ZIP0":77494.0,"CITY0":"KATY","PHONE0":"281-644-4062","STORE0":"KATY MILLS","LATITUDE0":29.77955,"id":"a62c2sflv8mz","STATE0":"TX","ADDRESS0":"5000 Katy Mills Cir, Ste 722"},"type":"Feature","geometry":{"type":"Point","coordinates":[-95.811384,29.77955]}},{"properties":{"LONGITUDE0":-95.4538,"ZIP0":77380.0,"CITY0":"THE WOODLANDS","PHONE0":"281-681-0500","STORE0":"THE WOODLANDS MALL","LATITUDE0":30.167317,"id":"a62c2sdj8i4h","STATE0":"TX","ADDRESS0":"1201 Lake Woodland #2016"},"type":"Feature","geometry":{"type":"Point","coordinates":[-95.4538,30.167317]}},{"properties":{"LONGITUDE0":-95.54577,"ZIP0":77070.0,"CITY0":"HOUSTON","PHONE0":"281-894-1161","STORE0":"WILLOW BROOK MALL","LATITUDE0":29.961649,"id":"a62c2s9zo4wn","STATE0":"TX","ADDRESS0":"7925 FM 1960 W Ste 1526"},"type":"Feature","geometry":{"type":"Point","coordinates":[-95.54577,29.961649]}},{"properties":{"LONGITUDE0":-95.149814,"ZIP0":77546.0,"CITY0":"FRIENDSWOOD","PHONE0":"281-990-8289","STORE0":"BAYBROOK MALL","LATITUDE0":29.540633,"id":"a62c2sfi6t55","STATE0":"TX","ADDRESS0":"1358 Baybrook Mall"},"type":"Feature","geometry":{"type":"Point","coordinates":[-95.149814,29.540633]}},{"properties":{"LONGITUDE0":-75.546952,"ZIP0":19803.0,"CITY0":"WILMINGTON","PHONE0":"302-478-2809","STORE0":"CONCORD","LATITUDE0":39.820707,"id":"a62c2sgfsj0b","STATE0":"DE","ADDRESS0":"4737 Concord Pike #530"},"type":"Feature","geometry":{"type":"Point","coordinates":[-75.546952,39.820707]}},{"properties":{"LONGITUDE0":-105.159162,"ZIP0":80401.0,"CITY0":"LAKEWOOD","PHONE0":"303-273-0803","STORE0":"COLORADO MILLS","LATITUDE0":39.734984,"id":"a62c2sd9qy6z","STATE0":"CO","ADDRESS0":"14500 W.Colfax Ave,#371"},"type":"Feature","geometry":{"type":"Point","coordinates":[-105.159162,39.734984]}},{"properties":{"LONGITUDE0":-105.057469,"ZIP0":80030.0,"CITY0":"WESTMINSTER","PHONE0":"303-427-0799","STORE0":"WESTMINSTER MALL","LATITUDE0":39.856614,"id":"a62c2s0n4qgp","STATE0":"CO","ADDRESS0":"5403 West 88th, #51"},"type":"Feature","geometry":{"type":"Point","coordinates":[-105.057469,39.856614]}},{"properties":{"LONGITUDE0":-104.874991,"ZIP0":80108.0,"CITY0":"CASTLE ROCK","PHONE0":"303-663-2898","STORE0":"OUTLETS AT CASTLE ROCK","LATITUDE0":39.413833,"id":"a62c2sbth9yi","STATE0":"CO","ADDRESS0":"5050 Factory Shops Blvd,#145"},"type":"Feature","geometry":{"type":"Point","coordinates":[-104.874991,39.413833]}},{"properties":{"LONGITUDE0":-104.708994,"ZIP0":80016.0,"CITY0":"AURORA","PHONE0":"303-766-1823","STORE0":"SOUTHLANDS","LATITUDE0":39.604976,"id":"a62c2sgk9dwa","STATE0":"CO","ADDRESS0":"6155 S Main Street #106"},"type":"Feature","geometry":{"type":"Point","coordinates":[-104.708994,39.604976]}},{"properties":{"LONGITUDE0":-104.888311,"ZIP0":80124.0,"CITY0":"LITTLETON","PHONE0":"303-799-5172","STORE0":"PARK MEADOWS","LATITUDE0":39.546247,"id":"a62c2sep9i4c","STATE0":"CO","ADDRESS0":"8405 Prk Mdws Ctr. Dr,1440"},"type":"Feature","geometry":{"type":"Point","coordinates":[-104.888311,39.546247]}},{"properties":{"LONGITUDE0":-105.072509,"ZIP0":80123.0,"CITY0":"LITTLETON","PHONE0":"303-972-3764","STORE0":"SOUTHWEST PLAZA","LATITUDE0":39.614915,"id":"a62c2se81wvz","STATE0":"CO","ADDRESS0":"8501 W Bowles Ave 2B-425"},"type":"Feature","geometry":{"type":"Point","coordinates":[-105.072509,39.614915]}},{"properties":{"LONGITUDE0":-106.266461,"ZIP0":82609.0,"CITY0":"CASPER","PHONE0":"307-472-3011","STORE0":"EASTRIDGE MALL","LATITUDE0":42.844109,"id":"a62c2sglkr9o","STATE0":"WY","ADDRESS0":"601 S.E. Wyoming Blvd. #1272"},"type":"Feature","geometry":{"type":"Point","coordinates":[-106.266461,42.844109]}},{"properties":{"LONGITUDE0":-104.806098,"ZIP0":82009.0,"CITY0":"CHEYENNE","PHONE0":"307-634-5640","STORE0":"FRONTIER MALL","LATITUDE0":41.160444,"id":"a62c2s79e41z","STATE0":"WY","ADDRESS0":"1400 Dell Range Road #75"},"type":"Feature","geometry":{"type":"Point","coordinates":[-104.806098,41.160444]}},{"properties":{"LONGITUDE0":-76.169715,"ZIP0":13290.0,"CITY0":"SYRACUSE","PHONE0":"315-466-0166","STORE0":"CAROUSEL CENTER","LATITUDE0":43.068094,"id":"a62c2s6y0554","STATE0":"NY","ADDRESS0":"320 Hiawatha Blvd W, #E-105"},"type":"Feature","geometry":{"type":"Point","coordinates":[-76.169715,43.068094]}},{"properties":{"LONGITUDE0":-76.920446,"ZIP0":13165.0,"CITY0":"WATERLOO","PHONE0":"315-539-2092","STORE0":"WATERLOO PRIME OUTLET","LATITUDE0":42.954373,"id":"a62c2sdfuqds","STATE0":"NY","ADDRESS0":"655 Route 318 #E103"},"type":"Feature","geometry":{"type":"Point","coordinates":[-76.920446,42.954373]}},{"properties":{"LONGITUDE0":-76.222122,"ZIP0":13041.0,"CITY0":"CLAY","PHONE0":"315-622-9789","STORE0":"GREAT NORTHERN MALL","LATITUDE0":43.186017,"id":"a62c2s53iq08","STATE0":"NY","ADDRESS0":"4155 Rotue 31, #G-123"},"type":"Feature","geometry":{"type":"Point","coordinates":[-76.222122,43.186017]}},{"properties":{"LONGITUDE0":-75.91018,"ZIP0":13601.0,"CITY0":"WATERTOWN","PHONE0":"315-779-1255","STORE0":"SALMON RUN MALL","LATITUDE0":43.972216,"id":"a62c2s6an8xz","STATE0":"NY","ADDRESS0":"21182 Salmon Run Lp W,A111"},"type":"Feature","geometry":{"type":"Point","coordinates":[-75.91018,43.972216]}},{"properties":{"LONGITUDE0":-94.209198,"ZIP0":56301.0,"CITY0":"ST. CLOUD","PHONE0":"320-654-1864","STORE0":"CROSSROADS CENTER","LATITUDE0":45.553579,"id":"a62c2sfx0tyn","STATE0":"MN","ADDRESS0":"4101 W Division St, #B-11"},"type":"Feature","geometry":{"type":"Point","coordinates":[-94.209198,45.553579]}},{"properties":{"LONGITUDE0":-80.685444,"ZIP0":32952.0,"CITY0":"MERRITT ISLAND","PHONE0":"321-452-3665","STORE0":"MERRITT SQUARE","LATITUDE0":28.356947,"id":"a62c2s7m2vy1","STATE0":"FL","ADDRESS0":"777 E Island Cswy, #F19B"},"type":"Feature","geometry":{"type":"Point","coordinates":[-80.685444,28.356947]}},{"properties":{"LONGITUDE0":-122.338361,"ZIP0":98233.0,"CITY0":"BURLINGTON","PHONE0":"360- 757-1173","STORE0":"CASCADE MALL","LATITUDE0":48.464416,"id":"a62c2sc3vv29","STATE0":"WA","ADDRESS0":"330 Cascade Mall"},"type":"Feature","geometry":{"type":"Point","coordinates":[-122.338361,48.464416]}},{"properties":{"LONGITUDE0":-122.581954,"ZIP0":98662.0,"CITY0":"VANCOUVER","PHONE0":"360-253-6796","STORE0":"VANCOUVER MALL","LATITUDE0":45.656706,"id":"a62c2sesbydd","STATE0":"WA","ADDRESS0":"8700 NE Vancouver Mall Dr"},"type":"Feature","geometry":{"type":"Point","coordinates":[-122.581954,45.656706]}},{"properties":{"LONGITUDE0":-122.185862,"ZIP0":98271.0,"CITY0":"TULALIP","PHONE0":"360-654-2381","STORE0":"SEA PREM OUTLETS","LATITUDE0":48.091989,"id":"a62c2s0j4edl","STATE0":"WA","ADDRESS0":"10600 Quil Ceda Blvd #658"},"type":"Feature","geometry":{"type":"Point","coordinates":[-122.185862,48.091989]}},{"properties":{"LONGITUDE0":-122.486429,"ZIP0":98226.0,"CITY0":"BELLINGHAM","PHONE0":"360-671-2562","STORE0":"BELLIS FAIR","LATITUDE0":48.784498,"id":"a62c2s5l3ljo","STATE0":"WA","ADDRESS0":"1 Bellis Fair Parkway #610"},"type":"Feature","geometry":{"type":"Point","coordinates":[-122.486429,48.784498]}},{"properties":{"LONGITUDE0":-122.688008,"ZIP0":98383.0,"CITY0":"SILVERDALE","PHONE0":"360-698-0356","STORE0":"KITSAP MALL","LATITUDE0":47.656462,"id":"a62c2sfv30ub","STATE0":"WA","ADDRESS0":"10315 Silverdale Way"},"type":"Feature","geometry":{"type":"Point","coordinates":[-122.688008,47.656462]}},{"properties":{"LONGITUDE0":-122.929489,"ZIP0":98502.0,"CITY0":"OLYMPIA","PHONE0":"360-943-8477","STORE0":"CAPITAL MALL","LATITUDE0":47.041832,"id":"a62c2s7elw0y","STATE0":"WA","ADDRESS0":"625 Black Lake Blvd, #K11"},"type":"Feature","geometry":{"type":"Point","coordinates":[-122.929489,47.041832]}},{"properties":{"LONGITUDE0":-97.546211,"ZIP0":73118.0,"CITY0":"OKLAHOMA CITY","PHONE0":"405-810-8721","STORE0":"PENN SQUARE MALL","LATITUDE0":35.523183,"id":"a62c2sgp66d3","STATE0":"OK","ADDRESS0":"1901 NW Expressway #2090"},"type":"Feature","geometry":{"type":"Point","coordinates":[-97.546211,35.523183]}},{"properties":{"LONGITUDE0":-111.286723,"ZIP0":59405.0,"CITY0":"GREAT FALLS","PHONE0":"406- 454-1595","STORE0":"HOLIDAY VILLAGE","LATITUDE0":47.494032,"id":"a62c2sg6svhc","STATE0":"MT","ADDRESS0":"1200 10th Ave S., # 61"},"type":"Feature","geometry":{"type":"Point","coordinates":[-111.286723,47.494032]}},{"properties":{"LONGITUDE0":-108.576293,"ZIP0":59102.0,"CITY0":"BILLINGS","PHONE0":"406- 652-8183","STORE0":"RIMROCK MALL","LATITUDE0":45.764612,"id":"a62c2sf0ddx7","STATE0":"MT","ADDRESS0":"300 S. 24th St. W. #A12"},"type":"Feature","geometry":{"type":"Point","coordinates":[-108.576293,45.764612]}},{"properties":{"LONGITUDE0":-114.025116,"ZIP0":59801.0,"CITY0":"MISSOULA","PHONE0":"406-327-9535","STORE0":"SOUTHGATE MALL","LATITUDE0":46.844014,"id":"a62c2sdoruzy","STATE0":"MT","ADDRESS0":"2901 Brooks Street, #E-4"},"type":"Feature","geometry":{"type":"Point","coordinates":[-114.025116,46.844014]}},{"properties":{"LONGITUDE0":-111.07516,"ZIP0":59718.0,"CITY0":"BOZEMAN","PHONE0":"406-586-5463","STORE0":"GALLATIN VALLEY MALL","LATITUDE0":45.672324,"id":"a62c2sfwdvjr","STATE0":"MT","ADDRESS0":"2825 W Main #9-D"},"type":"Feature","geometry":{"type":"Point","coordinates":[-111.07516,45.672324]}},{"properties":{"LONGITUDE0":-81.514985,"ZIP0":34761.0,"CITY0":"OCOEE","PHONE0":"407-523-9348","STORE0":"WEST OAKS","LATITUDE0":28.552013,"id":"a62c2s6473z4","STATE0":"FL","ADDRESS0":"9401 West Colonial Drive #512"},"type":"Feature","geometry":{"type":"Point","coordinates":[-81.514985,28.552013]}},{"properties":{"LONGITUDE0":-121.860881,"ZIP0":95123.0,"CITY0":"SAN JOSE","PHONE0":"408-229-9614","STORE0":"OAKRIDGE MALL","LATITUDE0":37.250768,"id":"a62c2sg5ehe5","STATE0":"CA","ADDRESS0":"186 Oakridge Mall"},"type":"Feature","geometry":{"type":"Point","coordinates":[-121.860881,37.250768]}},{"properties":{"LONGITUDE0":-121.811389,"ZIP0":95122.0,"CITY0":"SAN JOSE","PHONE0":"408-238-8571","STORE0":"EASTRIDGE MALL","LATITUDE0":37.324335,"id":"a62c2sgy6vei","STATE0":"CA","ADDRESS0":"One Eastridge Mall, #245"},"type":"Feature","geometry":{"type":"Point","coordinates":[-121.811389,37.324335]}},{"properties":{"LONGITUDE0":-121.945895,"ZIP0":95050.0,"CITY0":"SANTA CLARA","PHONE0":"408-243-0655","STORE0":"VALLEY FAIR MALL","LATITUDE0":37.323413,"id":"a62c2sdjhi67","STATE0":"CA","ADDRESS0":"2855 Stevens Creek Blvd,#2485"},"type":"Feature","geometry":{"type":"Point","coordinates":[-121.945895,37.323413]}},{"properties":{"LONGITUDE0":-121.896902,"ZIP0":95036.0,"CITY0":"MILPITAS","PHONE0":"408-956-9410","STORE0":"GREAT MALL","LATITUDE0":37.412507,"id":"a62c2s4rbcit","STATE0":"CA","ADDRESS0":"432 Great Mall Drive"},"type":"Feature","geometry":{"type":"Point","coordinates":[-121.896902,37.412507]}},{"properties":{"LONGITUDE0":-76.544124,"ZIP0":21401.0,"CITY0":"ANNAPOLIS","PHONE0":"410-266-7517","STORE0":"ANNAPOLIS SHOPPING TOWN","LATITUDE0":38.992116,"id":"a62c2sf03v4v","STATE0":"MD","ADDRESS0":"2002 Annapolis Mall, Suite 1327"},"type":"Feature","geometry":{"type":"Point","coordinates":[-76.544124,38.992116]}},{"properties":{"LONGITUDE0":-76.727009,"ZIP0":21076.0,"CITY0":"HANOVER","PHONE0":"410-796-7359","STORE0":"ARUNDEL MILLS","LATITUDE0":39.151511,"id":"a62c2s8nlw9s","STATE0":"MD","ADDRESS0":"7600 Clark Rd. Space 302"},"type":"Feature","geometry":{"type":"Point","coordinates":[-76.727009,39.151511]}},{"properties":{"LONGITUDE0":-76.472894,"ZIP0":21236.0,"CITY0":"BALTIMORE","PHONE0":"410-931-3847","STORE0":"WHITE MARSH","LATITUDE0":39.375249,"id":"a62c2s8osuut","STATE0":"MD","ADDRESS0":"8200 Perry Hall Blvd, Ste 2490"},"type":"Feature","geometry":{"type":"Point","coordinates":[-76.472894,39.375249]}},{"properties":{"LONGITUDE0":-87.914569,"ZIP0":53217.0,"CITY0":"GLENDALE","PHONE0":"414-963-8715","STORE0":"BAYSHORE TOWN CTR","LATITUDE0":43.122323,"id":"a62c2s0v0bdn","STATE0":"WI","ADDRESS0":"5745 N Bayshore Dr.,#102"},"type":"Feature","geometry":{"type":"Point","coordinates":[-87.914569,43.122323]}},{"properties":{"LONGITUDE0":-122.475603,"ZIP0":94132.0,"CITY0":"SAN FRANCISCO","PHONE0":"415-242-4054","STORE0":"STONESTOWN GALLERIA","LATITUDE0":37.728458,"id":"a62c2sf9ciqj","STATE0":"CA","ADDRESS0":"3251 20th. Ave #230"},"type":"Feature","geometry":{"type":"Point","coordinates":[-122.475603,37.728458]}},{"properties":{"LONGITUDE0":-122.213816,"ZIP0":98208.0,"CITY0":"EVERETT","PHONE0":"425-347-5435","STORE0":"EVERETT MALL","LATITUDE0":47.91213,"id":"a62c2s7nlg9y","STATE0":"WA","ADDRESS0":"1402 SE Everett Mall Wy,#100"},"type":"Feature","geometry":{"type":"Point","coordinates":[-122.213816,47.91213]}},{"properties":{"LONGITUDE0":-122.201893,"ZIP0":98004.0,"CITY0":"BELLEVUE","PHONE0":"425-451-0236","STORE0":"BELLEVUE SQUARE","LATITUDE0":47.615847,"id":"a62c2serq4dr","STATE0":"WA","ADDRESS0":"244 Bellevue Square"},"type":"Feature","geometry":{"type":"Point","coordinates":[-122.201893,47.615847]}},{"properties":{"LONGITUDE0":-122.273607,"ZIP0":98037.0,"CITY0":"LYNNWOOD","PHONE0":"425-776-4323","STORE0":"ALDERWOOD MALL","LATITUDE0":47.831702,"id":"a62c2sb5vpc0","STATE0":"WA","ADDRESS0":"3000 184th SW #860"},"type":"Feature","geometry":{"type":"Point","coordinates":[-122.273607,47.831702]}},{"properties":{"LONGITUDE0":-122.119504,"ZIP0":98052.0,"CITY0":"REDMOND","PHONE0":"425-881-0369","STORE0":"REDMOND TOWN CENTER","LATITUDE0":47.670042,"id":"a62c2s7r70in","STATE0":"WA","ADDRESS0":"16571 NE 74th St"},"type":"Feature","geometry":{"type":"Point","coordinates":[-122.119504,47.670042]}},{"properties":{"LONGITUDE0":-113.545613,"ZIP0":84790.0,"CITY0":"SAINT GEORGE","PHONE0":"435-627-9633","STORE0":"RED CLIFFS MALL","LATITUDE0":37.117999,"id":"a62c2ses45iz","STATE0":"UT","ADDRESS0":"1770 East Red Cliff Dr #112"},"type":"Feature","geometry":{"type":"Point","coordinates":[-113.545613,37.117999]}},{"properties":{"LONGITUDE0":-111.834202,"ZIP0":84341.0,"CITY0":"LOGAN","PHONE0":"435-787-0482","STORE0":"CACHE VALLEY","LATITUDE0":41.755371,"id":"a62c2sgoa2pj","STATE0":"UT","ADDRESS0":"1300 North Main #1123"},"type":"Feature","geometry":{"type":"Point","coordinates":[-111.834202,41.755371]}},{"properties":{"LONGITUDE0":-111.862587,"ZIP0":85202.0,"CITY0":"MESA","PHONE0":"480-464-0030","STORE0":"FIESTA MALL","LATITUDE0":33.392879,"id":"a62c2sgj5bp7","STATE0":"AZ","ADDRESS0":"1445 W Southern Ave,Ste 2212"},"type":"Feature","geometry":{"type":"Point","coordinates":[-111.862587,33.392879]}},{"properties":{"LONGITUDE0":-111.966898,"ZIP0":85282.0,"CITY0":"TEMPE","PHONE0":"480-491-7707","STORE0":"ARIZONA MILLS","LATITUDE0":33.384729,"id":"a62c2sbhyv0l","STATE0":"AZ","ADDRESS0":"5000 Arizona Mills Cir #616"},"type":"Feature","geometry":{"type":"Point","coordinates":[-111.966898,33.384729]}},{"properties":{"LONGITUDE0":-111.896525,"ZIP0":85226.0,"CITY0":"CHANDLER","PHONE0":"480-857-1619","STORE0":"CHANDLER FASHION CTR","LATITUDE0":33.305578,"id":"a62c2s23pnkp","STATE0":"AZ","ADDRESS0":"3111 W.Chandler Blvd.,#2190"},"type":"Feature","geometry":{"type":"Point","coordinates":[-111.896525,33.305578]}},{"properties":{"LONGITUDE0":-111.744529,"ZIP0":85296.0,"CITY0":"GILBERT","PHONE0":"480-917-0815","STORE0":"SAN TAN VILLAGE","LATITUDE0":33.3068,"id":"a62c2semcdbr","STATE0":"AZ","ADDRESS0":"2200 E Williams Field Rd. Space 114"},"type":"Feature","geometry":{"type":"Point","coordinates":[-111.744529,33.3068]}},{"properties":{"LONGITUDE0":-111.690064,"ZIP0":85206.0,"CITY0":"MESA","PHONE0":"480-924-6772","STORE0":"SUPERSTITION SPRINGS","LATITUDE0":33.393755,"id":"a62c2s0haunt","STATE0":"AZ","ADDRESS0":"6555 E Southern Ave #H-18"},"type":"Feature","geometry":{"type":"Point","coordinates":[-111.690064,33.393755]}},{"properties":{"LONGITUDE0":-122.643284,"ZIP0":97232.0,"CITY0":"PORTLAND","PHONE0":"503- 282-9147","STORE0":"LLOYD CENTER","LATITUDE0":45.52892,"id":"a62c2s9u4ks3","STATE0":"OR","ADDRESS0":"918 Lloyd Center, B-118"},"type":"Feature","geometry":{"type":"Point","coordinates":[-122.643284,45.52892]}},{"properties":{"LONGITUDE0":-122.579079,"ZIP0":97286.0,"CITY0":"PORTLAND","PHONE0":"503- 659-8996","STORE0":"CLACKAMAS TOWN CTR","LATITUDE0":45.46116,"id":"a62c2s33e8ue","STATE0":"OR","ADDRESS0":"12000 SE 82nd Ave #F1-003"},"type":"Feature","geometry":{"type":"Point","coordinates":[-122.579079,45.46116]}},{"properties":{"LONGITUDE0":-122.780914,"ZIP0":97223.0,"CITY0":"TIGARD","PHONE0":"503- 968-1780","STORE0":"WASHINGTON SQUARE","LATITUDE0":45.438848,"id":"a62c2s56mbcd","STATE0":"OR","ADDRESS0":"9493 SW Washington Sq Rd, A3"},"type":"Feature","geometry":{"type":"Point","coordinates":[-122.780914,45.438848]}},{"properties":{"LONGITUDE0":-123.036936,"ZIP0":97301.0,"CITY0":"SALEM","PHONE0":"503-364-6270","STORE0":"SALEM CENTER","LATITUDE0":44.943352,"id":"a62c2s35hn4t","STATE0":"OR","ADDRESS0":"401 Center St. NE #2287"},"type":"Feature","geometry":{"type":"Point","coordinates":[-123.036936,44.943352]}},{"properties":{"LONGITUDE0":-122.94077,"ZIP0":97124.0,"CITY0":"HILLSBORO","PHONE0":"503-466-2876","STORE0":"STREETS OF TANNASBOURNE","LATITUDE0":45.539761,"id":"a62c2s46pt7q","STATE0":"OR","ADDRESS0":"2275 NW Valley Ave, #953"},"type":"Feature","geometry":{"type":"Point","coordinates":[-122.94077,45.539761]}},{"properties":{"LONGITUDE0":-122.438304,"ZIP0":97030.0,"CITY0":"GRESHAM","PHONE0":"503-491-2280","STORE0":"GRESHAM STATION","LATITUDE0":45.506072,"id":"a62c2s3ixgfh","STATE0":"OR","ADDRESS0":"617 NW 12th Street"},"type":"Feature","geometry":{"type":"Point","coordinates":[-122.438304,45.506072]}},{"properties":{"LONGITUDE0":-123.917178,"ZIP0":97138.0,"CITY0":"SEASIDE","PHONE0":"503-717-0128","STORE0":"SEASIDE FACTORY OUTLETS","LATITUDE0":46.001,"id":"a62c2s966w8s","STATE0":"OR","ADDRESS0":"1111 N. Roosevelt #326"},"type":"Feature","geometry":{"type":"Point","coordinates":[-123.917178,46.001]}},{"properties":{"LONGITUDE0":-122.878009,"ZIP0":97071.0,"CITY0":"WOODBURN","PHONE0":"503-981-0440","STORE0":"WOODBURN OUTLET MALL","LATITUDE0":45.154707,"id":"a62c2sdxbbrt","STATE0":"OR","ADDRESS0":"1001 Arney Road, Ste. 629"},"type":"Feature","geometry":{"type":"Point","coordinates":[-122.878009,45.154707]}},{"properties":{"LONGITUDE0":-108.151963,"ZIP0":87402.0,"CITY0":"FARMINGTON","PHONE0":"505-325-6738","STORE0":"ANIMAS VALLEY MALL","LATITUDE0":36.764851,"id":"a62c2s1kn8dv","STATE0":"NM","ADDRESS0":"4601 E.Main #730"},"type":"Feature","geometry":{"type":"Point","coordinates":[-108.151963,36.764851]}},{"properties":{"LONGITUDE0":-105.985269,"ZIP0":87505.0,"CITY0":"SANTA FE","PHONE0":"505-438-0753","STORE0":"VILLA LINDA MALL","LATITUDE0":35.65848,"id":"a62c2s2bo48a","STATE0":"NM","ADDRESS0":"4250 Cerrilos Road #1166"},"type":"Feature","geometry":{"type":"Point","coordinates":[-105.985269,35.65848]}},{"properties":{"LONGITUDE0":-106.741912,"ZIP0":88011.0,"CITY0":"LAS CRUCES","PHONE0":"505-532-0942","STORE0":"MESILLA VALLEY MALL","LATITUDE0":32.312142,"id":"a62c2s43h8hl","STATE0":"NM","ADDRESS0":"700 South Telshor Blvd #1510"},"type":"Feature","geometry":{"type":"Point","coordinates":[-106.741912,32.312142]}},{"properties":{"LONGITUDE0":-106.577049,"ZIP0":87110.0,"CITY0":"ALBUQUERQUE","PHONE0":"505-872-1217","STORE0":"CORONADO MALL","LATITUDE0":35.107484,"id":"a62c2s7y6d4l","STATE0":"NM","ADDRESS0":"6600 Menaul Blvd NE, H-11A"},"type":"Feature","geometry":{"type":"Point","coordinates":[-106.577049,35.107484]}},{"properties":{"LONGITUDE0":-92.478461,"ZIP0":55902.0,"CITY0":"ROCHESTER","PHONE0":"507-282-1219","STORE0":"APACHE MALL","LATITUDE0":44.001573,"id":"a62c2s2rgjpj","STATE0":"MN","ADDRESS0":"1010 Apache Mall"},"type":"Feature","geometry":{"type":"Point","coordinates":[-92.478461,44.001573]}},{"properties":{"LONGITUDE0":-117.389645,"ZIP0":99207.0,"CITY0":"SPOKANE","PHONE0":"509- 484-1128","STORE0":"NORTHTOWN MALL","LATITUDE0":47.68935,"id":"a62c2s243vza","STATE0":"WA","ADDRESS0":"N 4750 Division St, Ste 156"},"type":"Feature","geometry":{"type":"Point","coordinates":[-117.389645,47.68935]}},{"properties":{"LONGITUDE0":-117.210208,"ZIP0":99216.0,"CITY0":"SPOKANE","PHONE0":"509- 927-2787","STORE0":"SPOKANE VALLEY MALL","LATITUDE0":47.676001,"id":"a62c2s36pgkr","STATE0":"WA","ADDRESS0":"14700 E Indiana Ave Ste 2140"},"type":"Feature","geometry":{"type":"Point","coordinates":[-117.210208,47.676001]}},{"properties":{"LONGITUDE0":-120.480775,"ZIP0":98903.0,"CITY0":"UNION GAP","PHONE0":"509-575-6868","STORE0":"VALLEY MALL","LATITUDE0":46.56441,"id":"a62c2s9fa25t","STATE0":"WA","ADDRESS0":"2529 Main Street ,#144"},"type":"Feature","geometry":{"type":"Point","coordinates":[-120.480775,46.56441]}},{"properties":{"LONGITUDE0":-119.174259,"ZIP0":99336.0,"CITY0":"KENNEWICK","PHONE0":"509-783-0854","STORE0":"COLUMBIA CENTER","LATITUDE0":46.212897,"id":"a62c2sf5ts7r","STATE0":"WA","ADDRESS0":"1321 N Columbia Ctr Blvd 385"},"type":"Feature","geometry":{"type":"Point","coordinates":[-119.174259,46.212897]}},{"properties":{"LONGITUDE0":-120.290244,"ZIP0":98802.0,"CITY0":"WENATCHEE","PHONE0":"509-884-4536","STORE0":"WENATCHEE VALLEY MALL","LATITUDE0":47.411,"id":"a62c2s3uiw2n","STATE0":"WA","ADDRESS0":"511 Valley Mall Parkway"},"type":"Feature","geometry":{"type":"Point","coordinates":[-120.290244,47.411]}},{"properties":{"LONGITUDE0":-122.328024,"ZIP0":94806.0,"CITY0":"RICHMOND","PHONE0":"510-758-0791","STORE0":"HILLTOP MALL","LATITUDE0":37.98321,"id":"a62c2seewntf","STATE0":"CA","ADDRESS0":"2323 Hilltop Mall Road"},"type":"Feature","geometry":{"type":"Point","coordinates":[-122.328024,37.98321]}},{"properties":{"LONGITUDE0":-97.802004,"ZIP0":78613.0,"CITY0":"CEDAR PARK","PHONE0":"512-257-1080","STORE0":"LAKELINE MALL","LATITUDE0":30.47195,"id":"a62c2seuz8f1","STATE0":"TX","ADDRESS0":"11200 Lakestop Blvd"},"type":"Feature","geometry":{"type":"Point","coordinates":[-97.802004,30.47195]}},{"properties":{"LONGITUDE0":-97.810599,"ZIP0":78746.0,"CITY0":"AUSTIN","PHONE0":"512-306-1705","STORE0":"BARTON CREEK MALL","LATITUDE0":30.256308,"id":"a62c2sdfdlcg","STATE0":"TX","ADDRESS0":"2901 S Capital of Texas Hwy"},"type":"Feature","geometry":{"type":"Point","coordinates":[-97.810599,30.256308]}},{"properties":{"LONGITUDE0":-97.985924,"ZIP0":78666.0,"CITY0":"SAN MARCOS","PHONE0":"512-392-6280","STORE0":"SAN MARCOS","LATITUDE0":29.826794,"id":"a62c2sgbw9b6","STATE0":"TX","ADDRESS0":"4015 I-35 South, Suite 705"},"type":"Feature","geometry":{"type":"Point","coordinates":[-97.985924,29.826794]}},{"properties":{"LONGITUDE0":-73.614928,"ZIP0":11530.0,"CITY0":"GARDEN CITY","PHONE0":"516-739-1895","STORE0":"ROOSEVELT FIELD","LATITUDE0":40.743067,"id":"a62c2s1l22nw","STATE0":"NY","ADDRESS0":"630 Old Country Rd. #2007"},"type":"Feature","geometry":{"type":"Point","coordinates":[-73.614928,40.743067]}},{"properties":{"LONGITUDE0":-73.432759,"ZIP0":11758.0,"CITY0":"MASSAPEQUA","PHONE0":"516-795-2567","STORE0":"SUNRISE SHOPPING TOWN","LATITUDE0":40.685398,"id":"a62c2sd66bov","STATE0":"NY","ADDRESS0":"One Sunrise Mall, #2060"},"type":"Feature","geometry":{"type":"Point","coordinates":[-73.432759,40.685398]}},{"properties":{"LONGITUDE0":-73.529066,"ZIP0":11801.0,"CITY0":"HICKSVILLE","PHONE0":"516-933-7195","STORE0":"BROADWAY MALL","LATITUDE0":40.773567,"id":"a62c2sc9j9js","STATE0":"NY","ADDRESS0":"358 Broadway Mall #463"},"type":"Feature","geometry":{"type":"Point","coordinates":[-73.529066,40.773567]}},{"properties":{"LONGITUDE0":-73.832637,"ZIP0":12203.0,"CITY0":"ALBANY","PHONE0":"518-218-0818","STORE0":"CROSSGATES MALL","LATITUDE0":42.679194,"id":"a62c2sbixsn2","STATE0":"NY","ADDRESS0":"1 Crossgates Mall Rd, C-115"},"type":"Feature","geometry":{"type":"Point","coordinates":[-73.832637,42.679194]}},{"properties":{"LONGITUDE0":-73.988976,"ZIP0":12306.0,"CITY0":"SCHENECTADY","PHONE0":"518-344-7500","STORE0":"ROTTERDAM SQUARE","LATITUDE0":42.810629,"id":"a62c2s8ml2w3","STATE0":"NY","ADDRESS0":"93 W Cambell Rd #F-118"},"type":"Feature","geometry":{"type":"Point","coordinates":[-73.988976,42.810629]}},{"properties":{"LONGITUDE0":-73.780657,"ZIP0":12065.0,"CITY0":"CLIFTON PARK","PHONE0":"518-371-2543","STORE0":"CLIFTON PARK CENTER","LATITUDE0":42.863542,"id":"a62c2s27fwoz","STATE0":"NY","ADDRESS0":"22 Clifton County Road"},"type":"Feature","geometry":{"type":"Point","coordinates":[-73.780657,42.863542]}},{"properties":{"LONGITUDE0":-73.741395,"ZIP0":12866.0,"CITY0":"SARATOGA SPRINGS","PHONE0":"518-580-8945","STORE0":"WILTON MALL","LATITUDE0":43.104689,"id":"a62c2sbrn2c6","STATE0":"NY","ADDRESS0":"3065 Route 50, #FC-10"},"type":"Feature","geometry":{"type":"Point","coordinates":[-73.741395,43.104689]}},{"properties":{"LONGITUDE0":-73.67758,"ZIP0":12804.0,"CITY0":"QUEENSBURY","PHONE0":"518-761-9443","STORE0":"AVIATION MALL","LATITUDE0":43.328718,"id":"a62c2s277ovw","STATE0":"NY","ADDRESS0":"578 Aviation Road"},"type":"Feature","geometry":{"type":"Point","coordinates":[-73.67758,43.328718]}},{"properties":{"LONGITUDE0":-110.86736,"ZIP0":85711.0,"CITY0":"TUCSON","PHONE0":"520-514-1643","STORE0":"PARK PLACE MALL","LATITUDE0":32.221319,"id":"a62c2s19a5qz","STATE0":"AZ","ADDRESS0":"5870 E Broadway Blvd.#320"},"type":"Feature","geometry":{"type":"Point","coordinates":[-110.86736,32.221319]}},{"properties":{"LONGITUDE0":-110.977984,"ZIP0":85705.0,"CITY0":"TUCSON","PHONE0":"520-690-6594","STORE0":"TUCSON MALL","LATITUDE0":32.288954,"id":"a62c2s7vaebt","STATE0":"AZ","ADDRESS0":"4500 N.Oracle Road, #309"},"type":"Feature","geometry":{"type":"Point","coordinates":[-110.977984,32.288954]}},{"properties":{"LONGITUDE0":-122.35693,"ZIP0":96003.0,"CITY0":"REDDING","PHONE0":"530- 222-8331","STORE0":"MT. SHASTA MALL","LATITUDE0":40.586464,"id":"a62c2sgvbojm","STATE0":"CA","ADDRESS0":"900 Dana Drive, Ste. B-42"},"type":"Feature","geometry":{"type":"Point","coordinates":[-122.35693,40.586464]}},{"properties":{"LONGITUDE0":-121.804742,"ZIP0":95928.0,"CITY0":"CHICO","PHONE0":"530-342-0106","STORE0":"CHICO MALL","LATITUDE0":39.727455,"id":"a62c2scf5f7e","STATE0":"CA","ADDRESS0":"1950 East 20th St #D-409"},"type":"Feature","geometry":{"type":"Point","coordinates":[-121.804742,39.727455]}},{"properties":{"LONGITUDE0":-121.632437,"ZIP0":95991.0,"CITY0":"YUBA CITY","PHONE0":"530-674-5371","STORE0":"MALL AT YUBA CITY","LATITUDE0":39.141935,"id":"a62c2sfwazed","STATE0":"CA","ADDRESS0":"1215 Colusa Ave, #F601"},"type":"Feature","geometry":{"type":"Point","coordinates":[-121.632437,39.141935]}},{"properties":{"LONGITUDE0":-123.108779,"ZIP0":97401.0,"CITY0":"EUGENE","PHONE0":"541-465-9159","STORE0":"VALLEY RIVER CENTER","LATITUDE0":44.069245,"id":"a62c2s400has","STATE0":"OR","ADDRESS0":"420 Valley River Center"},"type":"Feature","geometry":{"type":"Point","coordinates":[-123.108779,44.069245]}},{"properties":{"LONGITUDE0":-123.972874,"ZIP0":97367.0,"CITY0":"LINCOLN CITY","PHONE0":"541-557-1904","STORE0":"LINCOLN CITY OUTLET","LATITUDE0":44.964292,"id":"a62c2s8q4mrm","STATE0":"OR","ADDRESS0":"1500 SE E.Devils Lk Rd C130"},"type":"Feature","geometry":{"type":"Point","coordinates":[-123.972874,44.964292]}},{"properties":{"LONGITUDE0":-122.878216,"ZIP0":97501.0,"CITY0":"MEDFORD","PHONE0":"541-857-2959","STORE0":"ROGUE VALLEY MALL","LATITUDE0":42.342097,"id":"a62c2s8xpxu0","STATE0":"OR","ADDRESS0":"1600 Riverside #1033"},"type":"Feature","geometry":{"type":"Point","coordinates":[-122.878216,42.342097]}},{"properties":{"LONGITUDE0":-119.778093,"ZIP0":93710.0,"CITY0":"FRESNO","PHONE0":"559-226-7217","STORE0":"FASHION FAIR","LATITUDE0":36.808302,"id":"a62c2serktju","STATE0":"CA","ADDRESS0":"539 East Shaw Ave"},"type":"Feature","geometry":{"type":"Point","coordinates":[-119.778093,36.808302]}},{"properties":{"LONGITUDE0":-119.335561,"ZIP0":93724.0,"CITY0":"TULARE","PHONE0":"559-668-8935","STORE0":"TULARE OUTLET CENTER","LATITUDE0":36.232231,"id":"a62c2s612t4z","STATE0":"CA","ADDRESS0":"1719 Retherford St #E030"},"type":"Feature","geometry":{"type":"Point","coordinates":[-119.335561,36.232231]}},{"properties":{"LONGITUDE0":-119.314082,"ZIP0":93277.0,"CITY0":"VISALIA","PHONE0":"559-739-2632","STORE0":"VISALIA","LATITUDE0":36.312589,"id":"a62c2sfpwq01","STATE0":"CA","ADDRESS0":"2031 S Mooney Blvd #1650"},"type":"Feature","geometry":{"type":"Point","coordinates":[-119.314082,36.312589]}},{"properties":{"LONGITUDE0":-118.092259,"ZIP0":90703.0,"CITY0":"CERRITOS","PHONE0":"562-402-8649","STORE0":"LOS CERRITOS CENTER","LATITUDE0":33.85868,"id":"a62c2s25giu5","STATE0":"CA","ADDRESS0":"152 Los Ceritos Center"},"type":"Feature","geometry":{"type":"Point","coordinates":[-118.092259,33.85868]}},{"properties":{"LONGITUDE0":-118.141694,"ZIP0":90712.0,"CITY0":"LAKEWOOD","PHONE0":"562-529-8092","STORE0":"LAKEWOOD MALL","LATITUDE0":33.850288,"id":"a62c2s2uz9er","STATE0":"CA","ADDRESS0":"404 Lakewood Ctr Mall #374"},"type":"Feature","geometry":{"type":"Point","coordinates":[-118.141694,33.850288]}},{"properties":{"LONGITUDE0":-90.577088,"ZIP0":52806.0,"CITY0":"DAVENPORT","PHONE0":"563-386-3726","STORE0":"NORTHPARK MALL","LATITUDE0":41.560356,"id":"a62c2sge66jb","STATE0":"IA","ADDRESS0":"320 W.Kimberly Road"},"type":"Feature","geometry":{"type":"Point","coordinates":[-90.577088,41.560356]}},{"properties":{"LONGITUDE0":-75.710767,"ZIP0":18507.0,"CITY0":"MOOSIC","PHONE0":"570-343-4271","STORE0":"THE SHOPPES AT MONTAGE","LATITUDE0":41.360421,"id":"a62c2sgmbte9","STATE0":"PA","ADDRESS0":"2441 Shoppes Boulevard"},"type":"Feature","geometry":{"type":"Point","coordinates":[-75.710767,41.360421]}},{"properties":{"LONGITUDE0":-75.841958,"ZIP0":18702.0,"CITY0":"WILKES BARRE","PHONE0":"570-825-5683","STORE0":"WYOMING VALLEY MALL","LATITUDE0":41.24779,"id":"a62c2sdv1in5","STATE0":"PA","ADDRESS0":"29 Wyoming Valley Mall, #711"},"type":"Feature","geometry":{"type":"Point","coordinates":[-75.841958,41.24779]}},{"properties":{"LONGITUDE0":-77.444593,"ZIP0":14564.0,"CITY0":"VICTOR","PHONE0":"585-425-8720","STORE0":"EASTVIEW MALL","LATITUDE0":43.026778,"id":"a62c2sfcrcc2","STATE0":"NY","ADDRESS0":"672 Eastview Mall #160A"},"type":"Feature","geometry":{"type":"Point","coordinates":[-77.444593,43.026778]}},{"properties":{"LONGITUDE0":-77.637533,"ZIP0":14623.0,"CITY0":"ROCHESTER","PHONE0":"585-427-2810","STORE0":"MARKETPLACE MALL","LATITUDE0":43.084575,"id":"a62c2sdm9a2p","STATE0":"NY","ADDRESS0":"700 Miracle Mile Dr."},"type":"Feature","geometry":{"type":"Point","coordinates":[-77.637533,43.084575]}},{"properties":{"LONGITUDE0":-77.694527,"ZIP0":14626.0,"CITY0":"ROCHESTER","PHONE0":"585-720-1570","STORE0":"GREECE RIDGE CENTER","LATITUDE0":43.205698,"id":"a62c2sbxqm2a","STATE0":"NY","ADDRESS0":"454 Greece Ridge Ctr. Dr."},"type":"Feature","geometry":{"type":"Point","coordinates":[-77.694527,43.205698]}},{"properties":{"LONGITUDE0":-111.983728,"ZIP0":85032.0,"CITY0":"PHOENIX","PHONE0":"602-493-1079","STORE0":"PARADISE VALLEY MALL","LATITUDE0":33.599911,"id":"a62c2s6ph6rm","STATE0":"AZ","ADDRESS0":"4550-20 Cactus RD"},"type":"Feature","geometry":{"type":"Point","coordinates":[-111.983728,33.599911]}},{"properties":{"LONGITUDE0":-96.774718,"ZIP0":57106.0,"CITY0":"SIOUX FALLS","PHONE0":"605-361-2841","STORE0":"EMPIRE MALL","LATITUDE0":43.514667,"id":"a62c2s368ilu","STATE0":"SD","ADDRESS0":"4001 West 41st, Suite 21"},"type":"Feature","geometry":{"type":"Point","coordinates":[-96.774718,43.514667]}},{"properties":{"LONGITUDE0":-76.486683,"ZIP0":14850.0,"CITY0":"ITHACA","PHONE0":"607-257-0812","STORE0":"PYRAMID MALL","LATITUDE0":42.483613,"id":"a62c2sgq6e06","STATE0":"NY","ADDRESS0":"40 Catherwood Rd St #160A"},"type":"Feature","geometry":{"type":"Point","coordinates":[-76.486683,42.483613]}},{"properties":{"LONGITUDE0":-75.973438,"ZIP0":13790.0,"CITY0":"JOHNSON CITY","PHONE0":"607-729-5186","STORE0":"OAKDALE OUTLET","LATITUDE0":42.124673,"id":"a62c2sar48op","STATE0":"NY","ADDRESS0":"601-635 Harry L Dr #94"},"type":"Feature","geometry":{"type":"Point","coordinates":[-75.973438,42.124673]}},{"properties":{"LONGITUDE0":-91.20224,"ZIP0":54601.0,"CITY0":"LA CROSSE","PHONE0":"608- 779-5751","STORE0":"VALLEY VIEW MALL","LATITUDE0":43.866521,"id":"a62c2s7j2t7n","STATE0":"WI","ADDRESS0":"3800 State Road 16, Ste 179"},"type":"Feature","geometry":{"type":"Point","coordinates":[-91.20224,43.866521]}},{"properties":{"LONGITUDE0":-89.306296,"ZIP0":53704.0,"CITY0":"MADISON","PHONE0":"608-249-2369","STORE0":"EAST TOWNE","LATITUDE0":43.122327,"id":"a62c2sb36m9n","STATE0":"WI","ADDRESS0":"6 East Towne Mall #B504"},"type":"Feature","geometry":{"type":"Point","coordinates":[-89.306296,43.122327]}},{"properties":{"LONGITUDE0":-74.726318,"ZIP0":8330.0,"CITY0":"MAYS LANDING","PHONE0":"609-272-8960","STORE0":"HAMILTON MALL","LATITUDE0":39.45174,"id":"a62c2s4bybgt","STATE0":"NJ","ADDRESS0":"4403 BlackHorsePike, Ste 1012"},"type":"Feature","geometry":{"type":"Point","coordinates":[-74.726318,39.45174]}},{"properties":{"LONGITUDE0":-75.559097,"ZIP0":19464.0,"CITY0":"POTTSTOWN","PHONE0":"610-323-5795","STORE0":"PHILADELPHIA PREMIUM OUTLETS","LATITUDE0":40.229877,"id":"a62c2saczjob","STATE0":"PA","ADDRESS0":"18 Lightcap Road, Suite 1067"},"type":"Feature","geometry":{"type":"Point","coordinates":[-75.559097,40.229877]}},{"properties":{"LONGITUDE0":-75.393341,"ZIP0":19406.0,"CITY0":"KING OF PRUSSIA","PHONE0":"610-337-2379","STORE0":"KING OF PRUSSIA","LATITUDE0":40.085446,"id":"a62c2s40308b","STATE0":"PA","ADDRESS0":"160 North Gulph Rd Ste 2024"},"type":"Feature","geometry":{"type":"Point","coordinates":[-75.393341,40.085446]}},{"properties":{"LONGITUDE0":-75.621778,"ZIP0":19341.0,"CITY0":"EXTON","PHONE0":"610-363-1891","STORE0":"EXTON SQUARE","LATITUDE0":40.030326,"id":"a62c2s0u2hyd","STATE0":"PA","ADDRESS0":"326 Exton Square Pkwy"},"type":"Feature","geometry":{"type":"Point","coordinates":[-75.621778,40.030326]}},{"properties":{"LONGITUDE0":-93.438095,"ZIP0":55305.0,"CITY0":"MINNETONKA","PHONE0":"612- 543-0709","STORE0":"RIDGEDALE CENTER","LATITUDE0":44.970345,"id":"a62c2s0krk8c","STATE0":"MN","ADDRESS0":"12545 Wayzata Blvd, #156"},"type":"Feature","geometry":{"type":"Point","coordinates":[-93.438095,44.970345]}},{"properties":{"LONGITUDE0":-116.967399,"ZIP0":92020.0,"CITY0":"EL CAJON","PHONE0":"619-401-0397","STORE0":"PARKWAY PLAZA","LATITUDE0":32.807226,"id":"a62c2s9gsrn0","STATE0":"CA","ADDRESS0":"415 Parkway Plaza"},"type":"Feature","geometry":{"type":"Point","coordinates":[-116.967399,32.807226]}},{"properties":{"LONGITUDE0":-116.967536,"ZIP0":91915.0,"CITY0":"CHULA VISTA","PHONE0":"619-482-2846","STORE0":"TOWN CTR at OTAY RANCH","LATITUDE0":32.621266,"id":"a62c2s9ko8p0","STATE0":"CA","ADDRESS0":"2015 Birch Road #205"},"type":"Feature","geometry":{"type":"Point","coordinates":[-116.967536,32.621266]}},{"properties":{"LONGITUDE0":-112.180301,"ZIP0":85308.0,"CITY0":"GLENDALE","PHONE0":"623-776-7037","STORE0":"ARROWHEAD TWN CTR","LATITUDE0":33.657583,"id":"a62c2sgwj9pi","STATE0":"AZ","ADDRESS0":"7700 W Arrowhead Twn Ctr 2287"},"type":"Feature","geometry":{"type":"Point","coordinates":[-112.180301,33.657583]}},{"properties":{"LONGITUDE0":-118.054042,"ZIP0":91007.0,"CITY0":"ARCADIA","PHONE0":"626-574-3124","STORE0":"SANTA ANITA","LATITUDE0":34.135357,"id":"a62c2s8k0h70","STATE0":"CA","ADDRESS0":"400 S.Baldwin Ave,Space T-16"},"type":"Feature","geometry":{"type":"Point","coordinates":[-118.054042,34.135357]}},{"properties":{"LONGITUDE0":-117.927758,"ZIP0":91790.0,"CITY0":"WEST COVINA","PHONE0":"626-814-8059","STORE0":"WEST COVINA","LATITUDE0":34.069988,"id":"a62c2sf33tzr","STATE0":"CA","ADDRESS0":"765 Plaza Drive"},"type":"Feature","geometry":{"type":"Point","coordinates":[-117.927758,34.069988]}},{"properties":{"LONGITUDE0":-88.243985,"ZIP0":60504.0,"CITY0":"AURORA","PHONE0":"630-236-0876","STORE0":"FOX VALLEY MALL","LATITUDE0":41.746481,"id":"a62c2s8dy7sv","STATE0":"IL","ADDRESS0":"2026 Fox Valley Ctr Dr C4A"},"type":"Feature","geometry":{"type":"Point","coordinates":[-88.243985,41.746481]}},{"properties":{"LONGITUDE0":-88.008084,"ZIP0":60148.0,"CITY0":"LOMBARD","PHONE0":"630-268-9499","STORE0":"YORKTOWN","LATITUDE0":41.842109,"id":"a62c2s94m2u6","STATE0":"IL","ADDRESS0":"Yorktown Shopping Ctr #215"},"type":"Feature","geometry":{"type":"Point","coordinates":[-88.008084,41.842109]}},{"properties":{"LONGITUDE0":-88.267296,"ZIP0":60174.0,"CITY0":"ST. CHARLES","PHONE0":"630-377-8600","STORE0":"CHARLESTOWNE MALL","LATITUDE0":41.921467,"id":"a62c2s1ooxm8","STATE0":"IL","ADDRESS0":"3800 East Main St.,#G-112"},"type":"Feature","geometry":{"type":"Point","coordinates":[-88.267296,41.921467]}},{"properties":{"LONGITUDE0":-88.276851,"ZIP0":60504.0,"CITY0":"AURORA","PHONE0":"630-499-8980","STORE0":"CHICAGO PREMIUM OUTLETS","LATITUDE0":41.799567,"id":"a62c2s1xuujk","STATE0":"IL","ADDRESS0":"1650 Premium Outlet Blvd #403"},"type":"Feature","geometry":{"type":"Point","coordinates":[-88.276851,41.799567]}},{"properties":{"LONGITUDE0":-88.076169,"ZIP0":60440.0,"CITY0":"BOLINGBROOK","PHONE0":"630-739-2063","STORE0":"PROMENADE at BOLINGBROOK","LATITUDE0":41.70313,"id":"a62c2s4vh0nu","STATE0":"IL","ADDRESS0":"623 E Boughton Rd, B800 #830"},"type":"Feature","geometry":{"type":"Point","coordinates":[-88.076169,41.70313]}},{"properties":{"LONGITUDE0":-88.112401,"ZIP0":60108.0,"CITY0":"BLOOMINGDALE","PHONE0":"630-980-0644","STORE0":"STRATFORD SQUARE","LATITUDE0":41.950185,"id":"a62c2sefuj3s","STATE0":"IL","ADDRESS0":"903 Stratford Square"},"type":"Feature","geometry":{"type":"Point","coordinates":[-88.112401,41.950185]}},{"properties":{"LONGITUDE0":-72.652337,"ZIP0":11901.0,"CITY0":"RIVERHEAD","PHONE0":"631-208-1249","STORE0":"RIVERHEAD TANGER OUTLET","LATITUDE0":40.928878,"id":"a62c2sby8isv","STATE0":"NY","ADDRESS0":"Suite 1311 Tanger Mall Drive"},"type":"Feature","geometry":{"type":"Point","coordinates":[-72.652337,40.928878]}},{"properties":{"LONGITUDE0":-73.127265,"ZIP0":11755.0,"CITY0":"LAKE GROVE","PHONE0":"631-724-3915","STORE0":"SMITH HAVEN","LATITUDE0":40.865443,"id":"a62c2s8qo5uq","STATE0":"NY","ADDRESS0":"313 Smith Haven Mall #C03"},"type":"Feature","geometry":{"type":"Point","coordinates":[-73.127265,40.865443]}},{"properties":{"LONGITUDE0":-73.243747,"ZIP0":11706.0,"CITY0":"BAY SHORE","PHONE0":"631-968-0975","STORE0":"SOUTH SHORE","LATITUDE0":40.737004,"id":"a62c2s53e10e","STATE0":"NY","ADDRESS0":"1701 Sunrise Hwy #N27"},"type":"Feature","geometry":{"type":"Point","coordinates":[-73.243747,40.737004]}},{"properties":{"LONGITUDE0":-122.299361,"ZIP0":94403.0,"CITY0":"SAN MATEO","PHONE0":"650-571-6494","STORE0":"HILLSDALE MALL","LATITUDE0":37.536813,"id":"a62c2sc63trl","STATE0":"CA","ADDRESS0":"369 Hillsdale Mall"},"type":"Feature","geometry":{"type":"Point","coordinates":[-122.299361,37.536813]}},{"properties":{"LONGITUDE0":-122.420667,"ZIP0":94066.0,"CITY0":"SAN BRUNO","PHONE0":"650-588-7594","STORE0":"SHOPS AT TANFORAN","LATITUDE0":37.636165,"id":"a62c2sgfn02f","STATE0":"CA","ADDRESS0":"1140 El Camino Real #104"},"type":"Feature","geometry":{"type":"Point","coordinates":[-122.420667,37.636165]}},{"properties":{"LONGITUDE0":-93.193449,"ZIP0":55113.0,"CITY0":"ROSEVILLE","PHONE0":"651- 636-3280","STORE0":"ROSEDALE CENTER","LATITUDE0":44.99893,"id":"a62c2sc47i59","STATE0":"MN","ADDRESS0":"175 Rosedale"},"type":"Feature","geometry":{"type":"Point","coordinates":[-93.193449,44.99893]}},{"properties":{"LONGITUDE0":-93.018196,"ZIP0":55109.0,"CITY0":"MAPLEWOOD","PHONE0":"651-748-1142","STORE0":"MAPLEWOOD MALL","LATITUDE0":45.032421,"id":"a62c2sd65j9y","STATE0":"MN","ADDRESS0":"2029 Maplewood Mall"},"type":"Feature","geometry":{"type":"Point","coordinates":[-93.018196,45.032421]}},{"properties":{"LONGITUDE0":-118.557084,"ZIP0":91355.0,"CITY0":"SANTA CLARITA","PHONE0":"661-259-5938","STORE0":"VALENCIA TOWN CENTER","LATITUDE0":34.413338,"id":"a62c2sf53rgr","STATE0":"CA","ADDRESS0":"24201 W.Valencia #2045"},"type":"Feature","geometry":{"type":"Point","coordinates":[-118.557084,34.413338]}},{"properties":{"LONGITUDE0":-118.183338,"ZIP0":93551.0,"CITY0":"PALMDALE","PHONE0":"661-267-0628","STORE0":"ANTELOPE VALLEY","LATITUDE0":34.602396,"id":"a62c2s7f0ut0","STATE0":"CA","ADDRESS0":"1233 West Rancho Vst Blvd 725"},"type":"Feature","geometry":{"type":"Point","coordinates":[-118.183338,34.602396]}},{"properties":{"LONGITUDE0":-119.033125,"ZIP0":93304.0,"CITY0":"BAKERSFIELD","PHONE0":"661-833-8837","STORE0":"VALLEY PLAZA","LATITUDE0":35.339239,"id":"a62c2s1ipmu0","STATE0":"CA","ADDRESS0":"2701 Ming Ave #140"},"type":"Feature","geometry":{"type":"Point","coordinates":[-119.033125,35.339239]}},{"properties":{"LONGITUDE0":-115.197457,"ZIP0":89107.0,"CITY0":"LAS VEGAS","PHONE0":"702-258-4344","STORE0":"MEADOWS MALL","LATITUDE0":36.170345,"id":"a62c2sg3ppc8","STATE0":"NV","ADDRESS0":"4300 Meadows Ln #219"},"type":"Feature","geometry":{"type":"Point","coordinates":[-115.197457,36.170345]}},{"properties":{"LONGITUDE0":-115.172185,"ZIP0":89123.0,"CITY0":"LAS VEGAS","PHONE0":"702-263-7430","STORE0":"LAS VEGAS OUTLETS","LATITUDE0":36.055198,"id":"a62c2s5oqx6d","STATE0":"NV","ADDRESS0":"7400 Las Vegas Blvd S.,#206"},"type":"Feature","geometry":{"type":"Point","coordinates":[-115.172185,36.055198]}},{"properties":{"LONGITUDE0":-115.166213,"ZIP0":89109.0,"CITY0":"LAS VEGAS","PHONE0":"702-413-9648","STORE0":"THE BOULEVARD LAS VEGAS","LATITUDE0":36.122871,"id":"a62c2sgtujtk","STATE0":"NV","ADDRESS0":"3528 S Maryland Parkway,142"},"type":"Feature","geometry":{"type":"Point","coordinates":[-115.166213,36.122871]}},{"properties":{"LONGITUDE0":-115.040639,"ZIP0":89014.0,"CITY0":"HENDERSON","PHONE0":"702-454-9946","STORE0":"GALLERIA AT SUNSET","LATITUDE0":36.063952,"id":"a62c2s5qi9ia","STATE0":"NV","ADDRESS0":"1300 W Sunset Road #1380"},"type":"Feature","geometry":{"type":"Point","coordinates":[-115.040639,36.063952]}},{"properties":{"LONGITUDE0":-122.3038,"ZIP0":94558.0,"CITY0":"NAPA","PHONE0":"707-224-1641","STORE0":"NAPA PREMIUM","LATITUDE0":38.295555,"id":"a62c2s8orfxm","STATE0":"CA","ADDRESS0":"629 Factory Stores Dr #0649"},"type":"Feature","geometry":{"type":"Point","coordinates":[-122.3038,38.295555]}},{"properties":{"LONGITUDE0":-122.052712,"ZIP0":94533.0,"CITY0":"FAIRFIELD","PHONE0":"707-427-0444","STORE0":"SOLANO MALL","LATITUDE0":38.25832,"id":"a62c2s9tmxyu","STATE0":"CA","ADDRESS0":"1350 Travis Blvd., #1487B"},"type":"Feature","geometry":{"type":"Point","coordinates":[-122.052712,38.25832]}},{"properties":{"LONGITUDE0":-124.187499,"ZIP0":95501.0,"CITY0":"EUREKA","PHONE0":"707-442-1800","STORE0":"BAYSHORE MALL","LATITUDE0":40.77896,"id":"a62c2seofkua","STATE0":"CA","ADDRESS0":"3300 Broadway #422"},"type":"Feature","geometry":{"type":"Point","coordinates":[-124.187499,40.77896]}},{"properties":{"LONGITUDE0":-122.717408,"ZIP0":95401.0,"CITY0":"SANTA ROSA","PHONE0":"707-576-8645","STORE0":"SANTA ROSA PLAZA","LATITUDE0":38.439821,"id":"a62c2sfd253d","STATE0":"CA","ADDRESS0":"2038 Santa Rosa Plaza"},"type":"Feature","geometry":{"type":"Point","coordinates":[-122.717408,38.439821]}},{"properties":{"LONGITUDE0":-87.844134,"ZIP0":60462.0,"CITY0":"ORLAND PARK","PHONE0":"708-349-0831","STORE0":"ORLAND SQUARE","LATITUDE0":41.620313,"id":"a62c2sgoqzk5","STATE0":"IL","ADDRESS0":"632 Orland Square #F08"},"type":"Feature","geometry":{"type":"Point","coordinates":[-87.844134,41.620313]}},{"properties":{"LONGITUDE0":-87.784142,"ZIP0":60415.0,"CITY0":"CHICAGO RIDGE","PHONE0":"708-424-1624","STORE0":"CHICAGO RIDGE","LATITUDE0":41.715017,"id":"a62c2scb1j0z","STATE0":"IL","ADDRESS0":"444 Chicago Rdg Mall Ste C16"},"type":"Feature","geometry":{"type":"Point","coordinates":[-87.784142,41.715017]}},{"properties":{"LONGITUDE0":-95.539983,"ZIP0":77024.0,"CITY0":"HOUSTON","PHONE0":"713-468-7748","STORE0":"MEMORIAL CITY SHPNG CTR","LATITUDE0":29.778645,"id":"a62c2sfd4qxd","STATE0":"TX","ADDRESS0":"212 Memorial City"},"type":"Feature","geometry":{"type":"Point","coordinates":[-95.539983,29.778645]}},{"properties":{"LONGITUDE0":-117.786434,"ZIP0":92782.0,"CITY0":"TUSTIN","PHONE0":"714-259-0567","STORE0":"DISTRICT@TUSTIN LEGACY","LATITUDE0":33.739342,"id":"a62c2s2ubqp5","STATE0":"CA","ADDRESS0":"2473 Park Ave, Ste B-45"},"type":"Feature","geometry":{"type":"Point","coordinates":[-117.786434,33.739342]}},{"properties":{"LONGITUDE0":-118.014296,"ZIP0":92683.0,"CITY0":"WESTMINSTER","PHONE0":"714-799-9325","STORE0":"WESTMINSTER MALL","LATITUDE0":33.74915,"id":"a62c2s63u3vh","STATE0":"CA","ADDRESS0":"1025 Westminster Mall #1106"},"type":"Feature","geometry":{"type":"Point","coordinates":[-118.014296,33.74915]}},{"properties":{"LONGITUDE0":-117.890678,"ZIP0":92868.0,"CITY0":"ORANGE","PHONE0":"714-939-6859","STORE0":"BLOCK AT ORANGE","LATITUDE0":33.783486,"id":"a62c2s45f1kw","STATE0":"CA","ADDRESS0":"20 City Blvd. #212"},"type":"Feature","geometry":{"type":"Point","coordinates":[-117.890678,33.783486]}},{"properties":{"LONGITUDE0":-117.867517,"ZIP0":92705.0,"CITY0":"SANTA ANA","PHONE0":"714-973-1573","STORE0":"MAIN PLACE MALL","LATITUDE0":33.776664,"id":"a62c2s1rbooj","STATE0":"CA","ADDRESS0":"2800 N Main St #724"},"type":"Feature","geometry":{"type":"Point","coordinates":[-117.867517,33.776664]}},{"properties":{"LONGITUDE0":-91.437742,"ZIP0":54701.0,"CITY0":"EAU CLAIRE","PHONE0":"715-831-0577","STORE0":"OAKWOOD MALL","LATITUDE0":44.774843,"id":"a62c2sgo1ok1","STATE0":"WI","ADDRESS0":"4800 Golf Road , #92"},"type":"Feature","geometry":{"type":"Point","coordinates":[-91.437742,44.774843]}},{"properties":{"LONGITUDE0":-78.976046,"ZIP0":14304.0,"CITY0":"NIAGRA FALLS","PHONE0":"716-297-1389","STORE0":"PRIME OUTLET IN NIAGRA","LATITUDE0":43.098082,"id":"a62c2sa34qyn","STATE0":"NY","ADDRESS0":"1900 Military RD,#102"},"type":"Feature","geometry":{"type":"Point","coordinates":[-78.976046,43.098082]}},{"properties":{"LONGITUDE0":-78.764139,"ZIP0":14225.0,"CITY0":"BUFFALO","PHONE0":"716-651-0438","STORE0":"WALDEN GALLERIA","LATITUDE0":42.928903,"id":"a62c2s8hr1is","STATE0":"NY","ADDRESS0":"1 Walden Galleria, G-208"},"type":"Feature","geometry":{"type":"Point","coordinates":[-78.764139,42.928903]}},{"properties":{"LONGITUDE0":-78.81105,"ZIP0":14219.0,"CITY0":"BUFFALO","PHONE0":"716-823-0718","STORE0":"McKINLEY MALL","LATITUDE0":42.784187,"id":"a62c2s5nxn6a","STATE0":"NY","ADDRESS0":"3701 McKinley Parkway"},"type":"Feature","geometry":{"type":"Point","coordinates":[-78.81105,42.784187]}},{"properties":{"LONGITUDE0":-76.270925,"ZIP0":17602.0,"CITY0":"LANCASTER","PHONE0":"717-299-3681","STORE0":"LANCASTER OUTLET","LATITUDE0":40.029265,"id":"a62c2s21wguu","STATE0":"PA","ADDRESS0":"311 Stanley K Tanger Blvd, 609"},"type":"Feature","geometry":{"type":"Point","coordinates":[-76.270925,40.029265]}},{"properties":{"LONGITUDE0":-76.340137,"ZIP0":17601.0,"CITY0":"LANCASTER","PHONE0":"717-394-0567","STORE0":"PARK CITY","LATITUDE0":40.065523,"id":"a62c2sfsns61","STATE0":"PA","ADDRESS0":"142 Park City Ctr #GO670"},"type":"Feature","geometry":{"type":"Point","coordinates":[-76.340137,40.065523]}},{"properties":{"LONGITUDE0":-74.168919,"ZIP0":10314.0,"CITY0":"STATEN ISLAND","PHONE0":"718-698-1365","STORE0":"STATEN ISLAND","LATITUDE0":40.581284,"id":"a62c2s6hgmt8","STATE0":"NY","ADDRESS0":"2655 Richmond Ave #2320"},"type":"Feature","geometry":{"type":"Point","coordinates":[-74.168919,40.581284]}},{"properties":{"LONGITUDE0":-104.795812,"ZIP0":80920.0,"CITY0":"COLORADO SPRINGS","PHONE0":"719- 532-1655","STORE0":"CHAPEL HILLS","LATITUDE0":38.945354,"id":"a62c2sb33gk5","STATE0":"CO","ADDRESS0":"1710 Briargate, Ste.801"},"type":"Feature","geometry":{"type":"Point","coordinates":[-104.795812,38.945354]}},{"properties":{"LONGITUDE0":-104.607059,"ZIP0":81008.0,"CITY0":"PUEBLO","PHONE0":"719-545-2781","STORE0":"PUEBLO MALL","LATITUDE0":38.306414,"id":"a62c2s6rzboz","STATE0":"CO","ADDRESS0":"3429 Dillon Drive #H-18"},"type":"Feature","geometry":{"type":"Point","coordinates":[-104.607059,38.306414]}},{"properties":{"LONGITUDE0":-104.892251,"ZIP0":80238.0,"CITY0":"DENVER","PHONE0":"720-374-4763","STORE0":"STAPLETON NORTHFIELD","LATITUDE0":39.785124,"id":"a62c2s2f578i","STATE0":"CO","ADDRESS0":"8270 East 49th Ave #1475"},"type":"Feature","geometry":{"type":"Point","coordinates":[-104.892251,39.785124]}},{"properties":{"LONGITUDE0":-82.737427,"ZIP0":33781.0,"CITY0":"CLEARWATER","PHONE0":"727-725-3032","STORE0":"COUNTRYSIDE","LATITUDE0":28.017533,"id":"a62c2scic1j6","STATE0":"FL","ADDRESS0":"27001 US Hwy 19, Suite 2062"},"type":"Feature","geometry":{"type":"Point","coordinates":[-82.737427,28.017533]}},{"properties":{"LONGITUDE0":-76.011658,"ZIP0":8816.0,"CITY0":"EAST BRUNSWICK","PHONE0":"732-257-7142","STORE0":"BRUNSWICK SQUARE","LATITUDE0":40.636772,"id":"a62c2sgj21km","STATE0":"NJ","ADDRESS0":"755 State HWY 18"},"type":"Feature","geometry":{"type":"Point","coordinates":[-76.011658,40.636772]}},{"properties":{"LONGITUDE0":-74.181427,"ZIP0":8753.0,"CITY0":"TOMS RIVER","PHONE0":"732-341-2037","STORE0":"OCEAN COUNTY","LATITUDE0":39.981121,"id":"a62c2sbhq7ve","STATE0":"NJ","ADDRESS0":"1201 Hopper Avenue"},"type":"Feature","geometry":{"type":"Point","coordinates":[-74.181427,39.981121]}},{"properties":{"LONGITUDE0":-74.291191,"ZIP0":7728.0,"CITY0":"FREEHOLD","PHONE0":"732-845-2103","STORE0":"FREEHOLD RACEWAY","LATITUDE0":40.256992,"id":"a62c2s4ffixq","STATE0":"NJ","ADDRESS0":"3710 Route 9 #E114"},"type":"Feature","geometry":{"type":"Point","coordinates":[-74.291191,40.256992]}},{"properties":{"LONGITUDE0":-74.419937,"ZIP0":8527.0,"CITY0":"JACKSON","PHONE0":"732-928-8203","STORE0":"JACKSON PREMIUM OUTLETS","LATITUDE0":40.162941,"id":"a62c2sga4rr7","STATE0":"NJ","ADDRESS0":"537 Monmouth Rd Ste #190"},"type":"Feature","geometry":{"type":"Point","coordinates":[-74.419937,40.162941]}},{"properties":{"LONGITUDE0":-115.535389,"ZIP0":92243.0,"CITY0":"EL CENTRO","PHONE0":"760-482-5807","STORE0":"IMPERIAL VALLEY MALL","LATITUDE0":32.789269,"id":"a62c2s95uif1","STATE0":"CA","ADDRESS0":"3451 South Dogwood Ave #1156"},"type":"Feature","geometry":{"type":"Point","coordinates":[-115.535389,32.789269]}},{"properties":{"LONGITUDE0":-117.327026,"ZIP0":92008.0,"CITY0":"CARLSBAD","PHONE0":"760-730-0243","STORE0":"PLAZA CAMINO REAL","LATITUDE0":33.179691,"id":"a62c2s985nta","STATE0":"CA","ADDRESS0":"2525 El Camino Real"},"type":"Feature","geometry":{"type":"Point","coordinates":[-117.327026,33.179691]}},{"properties":{"LONGITUDE0":-117.068683,"ZIP0":92025.0,"CITY0":"ESCONDIDO","PHONE0":"760-737-3095","STORE0":"NORTH COUNTRY","LATITUDE0":33.069164,"id":"a62c2sdihet1","STATE0":"CA","ADDRESS0":"200 E.Via Rancho, #405"},"type":"Feature","geometry":{"type":"Point","coordinates":[-117.068683,33.069164]}},{"properties":{"LONGITUDE0":-116.393731,"ZIP0":92260.0,"CITY0":"PALM DESERT","PHONE0":"760-776-1403","STORE0":"PALM DESERT","LATITUDE0":33.721741,"id":"a62c2sg30iev","STATE0":"CA","ADDRESS0":"72840 Highway 111"},"type":"Feature","geometry":{"type":"Point","coordinates":[-116.393731,33.721741]}},{"properties":{"LONGITUDE0":-93.661181,"ZIP0":55301.0,"CITY0":"ALBERTVILLE","PHONE0":"763-497-1076","STORE0":"ALBERTVILLE OUTLET","LATITUDE0":45.237798,"id":"a62c2sbrh4eg","STATE0":"MN","ADDRESS0":"6500 Labeaux Ave NE E70"},"type":"Feature","geometry":{"type":"Point","coordinates":[-93.661181,45.237798]}},{"properties":{"LONGITUDE0":-80.271482,"ZIP0":34957.0,"CITY0":"JENSEN BEACH","PHONE0":"772-692-3441","STORE0":"TREASURE COAST","LATITUDE0":27.242646,"id":"a62c2sckeoxt","STATE0":"FL","ADDRESS0":"3260 NW Federal Hwy"},"type":"Feature","geometry":{"type":"Point","coordinates":[-80.271482,27.242646]}},{"properties":{"LONGITUDE0":-119.775501,"ZIP0":89502.0,"CITY0":"RENO","PHONE0":"775-582-9631","STORE0":"MEADOWOOD MALL","LATITUDE0":39.498188,"id":"a62c2s3dmf5q","STATE0":"NV","ADDRESS0":"5000 Meadowood Mall Cir B108"},"type":"Feature","geometry":{"type":"Point","coordinates":[-119.775501,39.498188]}},{"properties":{"LONGITUDE0":-119.748163,"ZIP0":89511.0,"CITY0":"RENO","PHONE0":"775-852-7802","STORE0":"SUMMIT SIERRA","LATITUDE0":39.4055,"id":"a62c2scamp6f","STATE0":"NV","ADDRESS0":"13985 S Virginia St Ste 806"},"type":"Feature","geometry":{"type":"Point","coordinates":[-119.748163,39.4055]}},{"properties":{"LONGITUDE0":-111.681826,"ZIP0":84097.0,"CITY0":"OREM","PHONE0":"801- 235-1588","STORE0":"UNIVERSITY MALL","LATITUDE0":40.276604,"id":"a62c2sfx4sxh","STATE0":"UT","ADDRESS0":"575 E University Prkwy, #H-141"},"type":"Feature","geometry":{"type":"Point","coordinates":[-111.681826,40.276604]}},{"properties":{"LONGITUDE0":-111.889072,"ZIP0":84107.0,"CITY0":"MURRAY","PHONE0":"801- 262-8284","STORE0":"FASHION PLACE MALL","LATITUDE0":40.636201,"id":"a62c2s6fgaqi","STATE0":"UT","ADDRESS0":"6191 S. State, Ste. #319"},"type":"Feature","geometry":{"type":"Point","coordinates":[-111.889072,40.636201]}},{"properties":{"LONGITUDE0":-111.96844,"ZIP0":84405.0,"CITY0":"OGDEN","PHONE0":"801- 627-6310","STORE0":"NEWGATE MALL","LATITUDE0":41.164148,"id":"a62c2sakmc7f","STATE0":"UT","ADDRESS0":"1168 Newgate Mall"},"type":"Feature","geometry":{"type":"Point","coordinates":[-111.96844,41.164148]}},{"properties":{"LONGITUDE0":-111.660559,"ZIP0":84601.0,"CITY0":"PROVO","PHONE0":"801- 852-5740","STORE0":"PROVO TOWNE CENTRE","LATITUDE0":40.217837,"id":"a62c2s16ylmf","STATE0":"UT","ADDRESS0":"1200 Towne Ctr Blvd, #2024"},"type":"Feature","geometry":{"type":"Point","coordinates":[-111.660559,40.217837]}},{"properties":{"LONGITUDE0":-111.904147,"ZIP0":84101.0,"CITY0":"SALT LAKE CITY","PHONE0":"801-456-1942","STORE0":"GATEWAY MALL","LATITUDE0":40.767876,"id":"a62c2sgi4smi","STATE0":"UT","ADDRESS0":"84 S Rio Grande St #2085"},"type":"Feature","geometry":{"type":"Point","coordinates":[-111.904147,40.767876]}},{"properties":{"LONGITUDE0":-111.978369,"ZIP0":84041.0,"CITY0":"LAYTON","PHONE0":"801-497-0853","STORE0":"LAYTON HILLS MALL","LATITUDE0":41.08065,"id":"a62c2s4h3kjn","STATE0":"UT","ADDRESS0":"1081 Layton Hills Mall"},"type":"Feature","geometry":{"type":"Point","coordinates":[-111.978369,41.08065]}},{"properties":{"LONGITUDE0":-111.890996,"ZIP0":84070.0,"CITY0":"SANDY","PHONE0":"801-572-8067","STORE0":"SOUTH TOWNE CENTER","LATITUDE0":40.561574,"id":"a62c2s9ayatu","STATE0":"UT","ADDRESS0":"10450 S.State St. #2242"},"type":"Feature","geometry":{"type":"Point","coordinates":[-111.890996,40.561574]}},{"properties":{"LONGITUDE0":-118.774829,"ZIP0":93065.0,"CITY0":"SIMI VALLEY","PHONE0":"805-584-2356","STORE0":"SIMI VALLEY TOWN CENTER","LATITUDE0":34.264121,"id":"a62c2savhdhu","STATE0":"CA","ADDRESS0":"1551 Simi Vly Twn Ctr Wy# 640"},"type":"Feature","geometry":{"type":"Point","coordinates":[-118.774829,34.264121]}},{"properties":{"LONGITUDE0":-119.249926,"ZIP0":93003.0,"CITY0":"VENTURA","PHONE0":"805-642-2837","STORE0":"PACIFIC VIEW MALL","LATITUDE0":34.267135,"id":"a62c2s0sblqm","STATE0":"CA","ADDRESS0":"3301 1 East Main St #1054"},"type":"Feature","geometry":{"type":"Point","coordinates":[-119.249926,34.267135]}},{"properties":{"LONGITUDE0":-101.922517,"ZIP0":79414.0,"CITY0":"LUBBOCK","PHONE0":"806-785-4900","STORE0":"SOUTH PLAINS MALL","LATITUDE0":33.539586,"id":"a62c2s5wp3wa","STATE0":"TX","ADDRESS0":"6002 Slide Rd.#D20"},"type":"Feature","geometry":{"type":"Point","coordinates":[-101.922517,33.539586]}},{"properties":{"LONGITUDE0":-82.434329,"ZIP0":33612.0,"CITY0":"TAMPA","PHONE0":"813-615-0592","STORE0":"UNIVERSITY MALL","LATITUDE0":28.054723,"id":"a62c2s3ezrr9","STATE0":"FL","ADDRESS0":"2200 East Fowler Ave #246"},"type":"Feature","geometry":{"type":"Point","coordinates":[-82.434329,28.054723]}},{"properties":{"LONGITUDE0":-82.32413,"ZIP0":33511.0,"CITY0":"BRANDON","PHONE0":"813-655-3962","STORE0":"BRANDON TOWN CENTER","LATITUDE0":27.932484,"id":"a62c2sd4lup2","STATE0":"FL","ADDRESS0":"418 Brandon Town Center"},"type":"Feature","geometry":{"type":"Point","coordinates":[-82.32413,27.932484]}},{"properties":{"LONGITUDE0":-88.974962,"ZIP0":61112.0,"CITY0":"ROCKFORD","PHONE0":"815-332-9162","STORE0":"CHERRYVALE MALL","LATITUDE0":42.241362,"id":"a62c2s2i9ijw","STATE0":"IL","ADDRESS0":"7200 Harrison"},"type":"Feature","geometry":{"type":"Point","coordinates":[-88.974962,42.241362]}},{"properties":{"LONGITUDE0":-88.165004,"ZIP0":60431.0,"CITY0":"JOLIET","PHONE0":"815-439-9105","STORE0":"LOUIS JOLIET MALL","LATITUDE0":41.57934,"id":"a62c2saqxaci","STATE0":"IL","ADDRESS0":"3340 Mall Loop Drive, #1214"},"type":"Feature","geometry":{"type":"Point","coordinates":[-88.165004,41.57934]}},{"properties":{"LONGITUDE0":-97.395773,"ZIP0":76132.0,"CITY0":"FORT WORTH","PHONE0":"817-263-0315","STORE0":"HULEN MALL","LATITUDE0":32.677512,"id":"a62c2s4220o1","STATE0":"TX","ADDRESS0":"4800 S Hulen St #1330"},"type":"Feature","geometry":{"type":"Point","coordinates":[-97.395773,32.677512]}},{"properties":{"LONGITUDE0":-97.132569,"ZIP0":76015.0,"CITY0":"ARLINGTON","PHONE0":"817-375-1687","STORE0":"PARKS AT ARLINGTON","LATITUDE0":32.683941,"id":"a62c2s558voh","STATE0":"TX","ADDRESS0":"3811 S. Cooper St. #2176"},"type":"Feature","geometry":{"type":"Point","coordinates":[-97.132569,32.683941]}},{"properties":{"LONGITUDE0":-97.395773,"ZIP0":76132.0,"CITY0":"FORT WORTH","PHONE0":"817-423-0223","STORE0":"HULEN MALL","LATITUDE0":32.677512,"id":"a62c2schs7ze","STATE0":"TX","ADDRESS0":"4800 S.Hulen St. #1570"},"type":"Feature","geometry":{"type":"Point","coordinates":[-97.395773,32.677512]}},{"properties":{"LONGITUDE0":-97.132569,"ZIP0":76015.0,"CITY0":"ARLINGTON","PHONE0":"817-467-6558","STORE0":"PARKS AT ARLINGTON","LATITUDE0":32.683941,"id":"a62c2s253xy1","STATE0":"TX","ADDRESS0":"3811 S. Cooper St. #2172"},"type":"Feature","geometry":{"type":"Point","coordinates":[-97.132569,32.683941]}},{"properties":{"LONGITUDE0":-97.201361,"ZIP0":76053.0,"CITY0":"HURST","PHONE0":"817-589-0998","STORE0":"NORTHEAST MALL","LATITUDE0":32.826515,"id":"a62c2s4hxpyj","STATE0":"TX","ADDRESS0":"886 Northeast Mall Blvd"},"type":"Feature","geometry":{"type":"Point","coordinates":[-97.201361,32.826515]}},{"properties":{"LONGITUDE0":-118.601386,"ZIP0":91303.0,"CITY0":"CANOGA PARK","PHONE0":"818-932-0086","STORE0":"TOPANGA PLAZA","LATITUDE0":34.198301,"id":"a62c2sen6pgx","STATE0":"CA","ADDRESS0":"6600 Topanga Cyn Blvd 2018"},"type":"Feature","geometry":{"type":"Point","coordinates":[-118.601386,34.198301]}},{"properties":{"LONGITUDE0":-118.311691,"ZIP0":91502.0,"CITY0":"BURBANK","PHONE0":"818-972-2497","STORE0":"BURBANK TOWN CENTER","LATITUDE0":34.18321,"id":"a62c2s2q34xi","STATE0":"CA","ADDRESS0":"201 East Magnolia Blvd #228"},"type":"Feature","geometry":{"type":"Point","coordinates":[-118.311691,34.18321]}},{"properties":{"LONGITUDE0":-121.96504,"ZIP0":95010.0,"CITY0":"CAPITOLA","PHONE0":"831-465-1752","STORE0":"CAPITOLA MALL","LATITUDE0":36.975579,"id":"a62c2s62m3ey","STATE0":"CA","ADDRESS0":"1855 41st Avenue #G-8"},"type":"Feature","geometry":{"type":"Point","coordinates":[-121.96504,36.975579]}},{"properties":{"LONGITUDE0":-121.900612,"ZIP0":93940.0,"CITY0":"MONTEREY","PHONE0":"831-655-3796","STORE0":"DEL MONTE CENTER","LATITUDE0":36.584539,"id":"a62c2sg47255","STATE0":"CA","ADDRESS0":"1420 Del Monte Center"},"type":"Feature","geometry":{"type":"Point","coordinates":[-121.900612,36.584539]}},{"properties":{"LONGITUDE0":-73.917136,"ZIP0":12601.0,"CITY0":"POUGHKEEPSIE","PHONE0":"845-298-8210","STORE0":"POUGHKEEPSIE MALL","LATITUDE0":41.627213,"id":"a62c2s15oush","STATE0":"NY","ADDRESS0":"2001 South Road , #D-215"},"type":"Feature","geometry":{"type":"Point","coordinates":[-73.917136,41.627213]}},{"properties":{"LONGITUDE0":-73.988758,"ZIP0":12401.0,"CITY0":"KINGSTON","PHONE0":"845-336-3382","STORE0":"HUDSON VALLEY MALL","LATITUDE0":41.967108,"id":"a62c2sgfhpbo","STATE0":"NY","ADDRESS0":"1300 Ulster Avenue , #246"},"type":"Feature","geometry":{"type":"Point","coordinates":[-73.988758,41.967108]}},{"properties":{"LONGITUDE0":-73.961268,"ZIP0":10994.0,"CITY0":"WEST NYACK","PHONE0":"845-353-5417","STORE0":"PALISADES CENTER","LATITUDE0":41.098056,"id":"a62c2s1ez285","STATE0":"NY","ADDRESS0":"3450 Palisades Dr #G303"},"type":"Feature","geometry":{"type":"Point","coordinates":[-73.961268,41.098056]}},{"properties":{"LONGITUDE0":-74.365585,"ZIP0":10940.0,"CITY0":"MIDDLETOWN","PHONE0":"845-692-6165","STORE0":"GALLERIA @ CRYSTAL RUN","LATITUDE0":41.452513,"id":"a62c2s71ep4f","STATE0":"NY","ADDRESS0":"1 Galleria Drive ,#115"},"type":"Feature","geometry":{"type":"Point","coordinates":[-74.365585,41.452513]}},{"properties":{"LONGITUDE0":-88.297127,"ZIP0":60118.0,"CITY0":"WEST DUNDEE","PHONE0":"847-426-4743","STORE0":"SPRING HILL MALL","LATITUDE0":42.100639,"id":"a62c2s1ke6rj","STATE0":"IL","ADDRESS0":"1562 Spring Hill Mall"},"type":"Feature","geometry":{"type":"Point","coordinates":[-88.297127,42.100639]}},{"properties":{"LONGITUDE0":-88.039933,"ZIP0":60173.0,"CITY0":"SCHAUMBERG","PHONE0":"847-517-8750","STORE0":"WOODFIELD MALL","LATITUDE0":42.049331,"id":"a62c2sf58z2v","STATE0":"IL","ADDRESS0":"300 Woodfield Drive #325"},"type":"Feature","geometry":{"type":"Point","coordinates":[-88.039933,42.049331]}},{"properties":{"LONGITUDE0":-87.958195,"ZIP0":60031.0,"CITY0":"GURNEE","PHONE0":"847-856-8483","STORE0":"GURNEE MILLS","LATITUDE0":42.393331,"id":"a62c2s25wj7m","STATE0":"IL","ADDRESS0":"6170 W.Grand Ave,#689"},"type":"Feature","geometry":{"type":"Point","coordinates":[-87.958195,42.393331]}},{"properties":{"LONGITUDE0":-74.962456,"ZIP0":8057.0,"CITY0":"MOORESTOWN","PHONE0":"856-234-6703","STORE0":"MOORESTOWN MALL","LATITUDE0":39.946476,"id":"a62c2sf9nnjh","STATE0":"NJ","ADDRESS0":"400 Route 38, Space 1360"},"type":"Feature","geometry":{"type":"Point","coordinates":[-74.962456,39.946476]}},{"properties":{"LONGITUDE0":-75.124397,"ZIP0":8096.0,"CITY0":"DEPTFORD","PHONE0":"856-848-2411","STORE0":"DEPTFORD MALL","LATITUDE0":39.828308,"id":"a62c2s4e0bq9","STATE0":"NJ","ADDRESS0":"1750 Deptford Mall Dr #1090"},"type":"Feature","geometry":{"type":"Point","coordinates":[-75.124397,39.828308]}},{"properties":{"LONGITUDE0":-72.708572,"ZIP0":6385.0,"CITY0":"WATERFORD","PHONE0":"860-444-8179","STORE0":"CRYSTAL MALL","LATITUDE0":41.730862,"id":"a62c2sbk9oyi","STATE0":"CT","ADDRESS0":"850 Hartford Trnpk Ste L104A"},"type":"Feature","geometry":{"type":"Point","coordinates":[-72.708572,41.730862]}},{"properties":{"LONGITUDE0":-72.530769,"ZIP0":6413.0,"CITY0":"CLINTON","PHONE0":"860-664-4687","STORE0":"CLINTON CROSSING","LATITUDE0":41.292416,"id":"a62c2s4j02yd","STATE0":"CT","ADDRESS0":"20- Killingworth Turnpike,Ste 15"},"type":"Feature","geometry":{"type":"Point","coordinates":[-72.530769,41.292416]}},{"properties":{"LONGITUDE0":-81.974025,"ZIP0":33809.0,"CITY0":"LAKELAND","PHONE0":"863-815-6425","STORE0":"LAKELAND SQUARE","LATITUDE0":28.091756,"id":"a62c2sc3rlx1","STATE0":"FL","ADDRESS0":"3800 US Hiway North, #340"},"type":"Feature","geometry":{"type":"Point","coordinates":[-81.974025,28.091756]}},{"properties":{"LONGITUDE0":-149.887888,"ZIP0":99501.0,"CITY0":"ANCHORAGE","PHONE0":"907-277-9088","STORE0":"5TH AVENUE","LATITUDE0":61.217433,"id":"a62c2s4ahd0y","STATE0":"AK","ADDRESS0":"320 W. Fifth Ave., Ste 212"},"type":"Feature","geometry":{"type":"Point","coordinates":[-149.887888,61.217433]}},{"properties":{"LONGITUDE0":-149.866968,"ZIP0":99515.0,"CITY0":"ANCHORAGE","PHONE0":"907-336-1551","STORE0":"DIMOND CENTER","LATITUDE0":61.144311,"id":"a62c2sc3rrp3","STATE0":"AK","ADDRESS0":"800 E Dimond Blvd Ste 3-149"},"type":"Feature","geometry":{"type":"Point","coordinates":[-149.866968,61.144311]}},{"properties":{"LONGITUDE0":-74.174171,"ZIP0":7201.0,"CITY0":"ELIZABETH","PHONE0":"908-282-1057","STORE0":"JERSEY GARDENS","LATITUDE0":40.663197,"id":"a62c2s93d0ks","STATE0":"NJ","ADDRESS0":"651 Kapkowski Rd 2224"},"type":"Feature","geometry":{"type":"Point","coordinates":[-74.174171,40.663197]}},{"properties":{"LONGITUDE0":-117.531757,"ZIP0":91739.0,"CITY0":"RANCHO CUCAMONGA","PHONE0":"909-463-2385","STORE0":"VICTORIA GARDENS","LATITUDE0":34.111927,"id":"a62c2s6u5l21","STATE0":"CA","ADDRESS0":"12529 N.Main St.#3675"},"type":"Feature","geometry":{"type":"Point","coordinates":[-117.531757,34.111927]}},{"properties":{"LONGITUDE0":-117.693961,"ZIP0":91763.0,"CITY0":"MONTCLAIR","PHONE0":"909-626-9260","STORE0":"MONTCLAIR","LATITUDE0":34.088137,"id":"a62c2seagqpb","STATE0":"CA","ADDRESS0":"5060 Montclair Plaza Ln #5162"},"type":"Feature","geometry":{"type":"Point","coordinates":[-117.693961,34.088137]}},{"properties":{"LONGITUDE0":-117.27536,"ZIP0":92408.0,"CITY0":"SAN BERNARDINO","PHONE0":"909-885-5874","STORE0":"INLAND CENTER","LATITUDE0":34.081577,"id":"a62c2sd9vc3u","STATE0":"CA","ADDRESS0":"436 Inland Center Drive"},"type":"Feature","geometry":{"type":"Point","coordinates":[-117.27536,34.081577]}},{"properties":{"LONGITUDE0":-117.556214,"ZIP0":91764.0,"CITY0":"ONTARIO","PHONE0":"909-987-3456","STORE0":"ONTARIO MILLS OUTLET","LATITUDE0":34.074193,"id":"a62c2s3irw29","STATE0":"CA","ADDRESS0":"1 Mills Circle, #204"},"type":"Feature","geometry":{"type":"Point","coordinates":[-117.556214,34.074193]}},{"properties":{"LONGITUDE0":-73.807112,"ZIP0":10598.0,"CITY0":"YORKTOWN HEIGHTS","PHONE0":"914-245-4218","STORE0":"JEFFERSON VALLEY","LATITUDE0":41.326532,"id":"a62c2s1qlan9","STATE0":"NY","ADDRESS0":"650 Lee Blvd #F06B"},"type":"Feature","geometry":{"type":"Point","coordinates":[-73.807112,41.326532]}},{"properties":{"LONGITUDE0":-106.545187,"ZIP0":79912.0,"CITY0":"EL PASO","PHONE0":"915-760-8661","STORE0":"SUNLAND PARK MALL","LATITUDE0":31.817895,"id":"a62c2s2q1n7z","STATE0":"TX","ADDRESS0":"750 Sunland Park Dr #H04"},"type":"Feature","geometry":{"type":"Point","coordinates":[-106.545187,31.817895]}},{"properties":{"LONGITUDE0":-106.583099,"ZIP0":79835.0,"CITY0":"CANUTILLO","PHONE0":"915-877-3674","STORE0":"THE OUTLET SHOPS @El PASO","LATITUDE0":31.97459,"id":"a62c2s0oh4yx","STATE0":"TX","ADDRESS0":"79835 South Desert Blvd.Suite D-421"},"type":"Feature","geometry":{"type":"Point","coordinates":[-106.583099,31.97459]}},{"properties":{"LONGITUDE0":-121.266945,"ZIP0":95610.0,"CITY0":"CITRUS HEIGHTS","PHONE0":"916- 723-1146","STORE0":"SUNRISE MALL","LATITUDE0":38.678283,"id":"a62c2s6riaea","STATE0":"CA","ADDRESS0":"6172 Sunrise Mall"},"type":"Feature","geometry":{"type":"Point","coordinates":[-121.266945,38.678283]}},{"properties":{"LONGITUDE0":-121.426925,"ZIP0":95815.0,"CITY0":"SACRAMENTO","PHONE0":"916- 924-1547","STORE0":"ARDEN FAIR MALL","LATITUDE0":38.599789,"id":"a62c2s3lyenk","STATE0":"CA","ADDRESS0":"1689 Arden Way, Ste # 2116"},"type":"Feature","geometry":{"type":"Point","coordinates":[-121.426925,38.599789]}},{"properties":{"LONGITUDE0":-121.189675,"ZIP0":95630.0,"CITY0":"FOLSOM","PHONE0":"916-985-2522","STORE0":"FOLSOM OUTLETS","LATITUDE0":38.645014,"id":"a62c2sanuo98","STATE0":"CA","ADDRESS0":"13000 Folsom Blvd,#1200"},"type":"Feature","geometry":{"type":"Point","coordinates":[-121.189675,38.645014]}},{"properties":{"LONGITUDE0":-95.886111,"ZIP0":74133.0,"CITY0":"TULSA","PHONE0":"918-459-2611","STORE0":"WOODLAND HILLS MALL","LATITUDE0":36.061933,"id":"a62c2sfivs6m","STATE0":"OK","ADDRESS0":"7021 S Memorial Ste #140"},"type":"Feature","geometry":{"type":"Point","coordinates":[-95.886111,36.061933]}},{"properties":{"LONGITUDE0":-88.762542,"ZIP0":53038.0,"CITY0":"JOHNSON CREEK","PHONE0":"920-699-2473","STORE0":"JOHNSON CREEK","LATITUDE0":43.089605,"id":"a62c2s39mjsv","STATE0":"WI","ADDRESS0":"595 W Linmar Lane, Ste B-120"},"type":"Feature","geometry":{"type":"Point","coordinates":[-88.762542,43.089605]}},{"properties":{"LONGITUDE0":-88.469745,"ZIP0":54913.0,"CITY0":"APPLETON","PHONE0":"920-734-5076","STORE0":"FOX RIVER","LATITUDE0":44.272901,"id":"a62c2s60ap9u","STATE0":"WI","ADDRESS0":"4301 W Wisconsin Ave #324"},"type":"Feature","geometry":{"type":"Point","coordinates":[-88.469745,44.272901]}},{"properties":{"LONGITUDE0":-121.896484,"ZIP0":94588.0,"CITY0":"PLEASANTON","PHONE0":"925- 463-8490","STORE0":"STONERIDGE MALL","LATITUDE0":37.68724,"id":"a62c2s4ljp34","STATE0":"CA","ADDRESS0":"2021Stoneridge Mall, A-117"},"type":"Feature","geometry":{"type":"Point","coordinates":[-121.896484,37.68724]}},{"properties":{"LONGITUDE0":-122.062079,"ZIP0":94518.0,"CITY0":"CONCORD","PHONE0":"925-680-0702","STORE0":"SUNVALLEY MALL","LATITUDE0":37.967164,"id":"a62c2s4z0vg0","STATE0":"CA","ADDRESS0":"305A Sunvalley Mall"},"type":"Feature","geometry":{"type":"Point","coordinates":[-122.062079,37.967164]}},{"properties":{"LONGITUDE0":-121.841483,"ZIP0":94509.0,"CITY0":"ANTIOCH","PHONE0":"925-706-7150","STORE0":"SOMERSVILLE TOWN CENTER","LATITUDE0":38.000478,"id":"a62c2sa696q9","STATE0":"CA","ADDRESS0":"2556 Sommersvile Rd Space #20"},"type":"Feature","geometry":{"type":"Point","coordinates":[-121.841483,38.000478]}},{"properties":{"LONGITUDE0":-111.582436,"ZIP0":86004.0,"CITY0":"FLAGSTAFF","PHONE0":"928-527-1377","STORE0":"FLAGSTAFF MALL","LATITUDE0":35.224695,"id":"a62c2s726wey","STATE0":"AZ","ADDRESS0":"4650 North Hwy 89, #F-36"},"type":"Feature","geometry":{"type":"Point","coordinates":[-111.582436,35.224695]}},{"properties":{"LONGITUDE0":-114.606347,"ZIP0":85365.0,"CITY0":"YUMA","PHONE0":"928-539-9401","STORE0":"YUMA PALMS","LATITUDE0":32.7037,"id":"a62c2sfvg0rp","STATE0":"AZ","ADDRESS0":"1313 South Yuma Palms Pkwy"},"type":"Feature","geometry":{"type":"Point","coordinates":[-114.606347,32.7037]}},{"properties":{"LONGITUDE0":-117.457583,"ZIP0":92503.0,"CITY0":"RIVERSIDE","PHONE0":"951-351-4137","STORE0":"GALLERIA AT TYLER","LATITUDE0":33.907627,"id":"a62c2sfanno2","STATE0":"CA","ADDRESS0":"1132 Galleria At Tyler"},"type":"Feature","geometry":{"type":"Point","coordinates":[-117.457583,33.907627]}},{"properties":{"LONGITUDE0":-117.157768,"ZIP0":92591.0,"CITY0":"TEMECULA","PHONE0":"951-699-6846","STORE0":"PROMENADE MALL","LATITUDE0":33.526231,"id":"a62c2sdpagr2","STATE0":"CA","ADDRESS0":"40820 Winchester Rd #2240"},"type":"Feature","geometry":{"type":"Point","coordinates":[-117.157768,33.526231]}},{"properties":{"LONGITUDE0":-116.824419,"ZIP0":92230.0,"CITY0":"CABAZON","PHONE0":"951-922-3256","STORE0":"DESERT HILLS OUTLET","LATITUDE0":33.93234,"id":"a62c2s8cpd72","STATE0":"CA","ADDRESS0":"4840 Seminole Dr.#208"},"type":"Feature","geometry":{"type":"Point","coordinates":[-116.824419,33.93234]}},{"properties":{"LONGITUDE0":-93.242813,"ZIP0":55425.0,"CITY0":"BLOOMINGTON","PHONE0":"952-814-9260","STORE0":"MALL OF AMERICA","LATITUDE0":44.85558,"id":"a62c2s0tqddf","STATE0":"MN","ADDRESS0":"240 North Garden"},"type":"Feature","geometry":{"type":"Point","coordinates":[-93.242813,44.85558]}},{"properties":{"LONGITUDE0":-93.284386,"ZIP0":55306.0,"CITY0":"BURNSVILLE","PHONE0":"952-892-0681","STORE0":"BURNSVILLE CENTER","LATITUDE0":44.744483,"id":"a62c2s6e91hf","STATE0":"MN","ADDRESS0":"1045 Burnsville Center"},"type":"Feature","geometry":{"type":"Point","coordinates":[-93.284386,44.744483]}},{"properties":{"LONGITUDE0":-93.328135,"ZIP0":55435.0,"CITY0":"EDINA","PHONE0":"952-926-1574","STORE0":"SOUTHDALE CENTER","LATITUDE0":44.879586,"id":"a62c2sczew0q","STATE0":"MN","ADDRESS0":"865 Southdale Center"},"type":"Feature","geometry":{"type":"Point","coordinates":[-93.328135,44.879586]}},{"properties":{"LONGITUDE0":-80.340619,"ZIP0":33027.0,"CITY0":"PEMBROKE PINES","PHONE0":"954-443-6237","STORE0":"SHOPS AT PEMBROKE GARDENS","LATITUDE0":25.97491,"id":"a62c2s50an56","STATE0":"FL","ADDRESS0":"526 SW 145th Terrace"},"type":"Feature","geometry":{"type":"Point","coordinates":[-80.340619,25.97491]}},{"properties":{"LONGITUDE0":-105.05466,"ZIP0":80525.0,"CITY0":"FORT COLLINS","PHONE0":"970- 266-8022","STORE0":"FOOTHILLS MALL","LATITUDE0":40.529136,"id":"a62c2sehr2mi","STATE0":"CO","ADDRESS0":"215 E Foothills Pkwy, E11"},"type":"Feature","geometry":{"type":"Point","coordinates":[-105.05466,40.529136]}},{"properties":{"LONGITUDE0":-108.604419,"ZIP0":81505.0,"CITY0":"GRAND JUNCTION","PHONE0":"970-257-0222","STORE0":"MESA MALL","LATITUDE0":39.089621,"id":"a62c2s4a4puo","STATE0":"CO","ADDRESS0":"2424 US Hy 6 &amp; 50, Ste 322"},"type":"Feature","geometry":{"type":"Point","coordinates":[-108.604419,39.089621]}},{"properties":{"LONGITUDE0":-104.709034,"ZIP0":80631.0,"CITY0":"GREELEY","PHONE0":"970-356-0608","STORE0":"GREELEY MALL","LATITUDE0":40.389016,"id":"a62c2s5rehhj","STATE0":"CO","ADDRESS0":"2068 Greeley Mall"},"type":"Feature","geometry":{"type":"Point","coordinates":[-104.709034,40.389016]}},{"properties":{"LONGITUDE0":-107.871746,"ZIP0":81301.0,"CITY0":"DURANGO","PHONE0":"970-375-2280","STORE0":"DURANGO MALL","LATITUDE0":37.242467,"id":"a62c2s4ois33","STATE0":"CO","ADDRESS0":"800 S Camino Del Rio, #G-8"},"type":"Feature","geometry":{"type":"Point","coordinates":[-107.871746,37.242467]}},{"properties":{"LONGITUDE0":-107.365422,"ZIP0":81601.0,"CITY0":"GLENWOOD SPRINGS","PHONE0":"970-384-2588","STORE0":"GLENWOOD SPRINGS MALL","LATITUDE0":39.561906,"id":"a62c2sanrsi8","STATE0":"CO","ADDRESS0":"51027 Hwys 6 &amp; 24, 115 &amp; 117"},"type":"Feature","geometry":{"type":"Point","coordinates":[-107.365422,39.561906]}},{"properties":{"LONGITUDE0":-106.071186,"ZIP0":80498.0,"CITY0":"SILVERTHORNE","PHONE0":"970-513-6501","STORE0":"OUTLETS AT SILVERTHORNE","LATITUDE0":39.63174,"id":"a62c2s1fb2q4","STATE0":"CO","ADDRESS0":"309K Rainbow Drive"},"type":"Feature","geometry":{"type":"Point","coordinates":[-106.071186,39.63174]}},{"properties":{"LONGITUDE0":-104.988194,"ZIP0":80538.0,"CITY0":"LOVELAND","PHONE0":"970-663-4098","STORE0":"SHOPS AT CENTERRA","LATITUDE0":40.41071,"id":"a62c2scr5c9o","STATE0":"CO","ADDRESS0":"5897 Sky Pond Drive #K142"},"type":"Feature","geometry":{"type":"Point","coordinates":[-104.988194,40.41071]}},{"properties":{"LONGITUDE0":-96.971851,"ZIP0":75067.0,"CITY0":"LEWISVILLE","PHONE0":"972-316-0080","STORE0":"VISTA RIDGE MALL","LATITUDE0":33.00599,"id":"a62c2se1f8wa","STATE0":"TX","ADDRESS0":"2401 S.Stemmons Frwy"},"type":"Feature","geometry":{"type":"Point","coordinates":[-96.971851,33.00599]}},{"properties":{"LONGITUDE0":-97.05401,"ZIP0":75077.0,"CITY0":"HIGHLAND VILLAGE","PHONE0":"972-317-2973","STORE0":"HIGHLAND VILLAGE","LATITUDE0":33.075553,"id":"a62c2s2po3fj","STATE0":"TX","ADDRESS0":"1500 Cottonwood Creek Ste #160"},"type":"Feature","geometry":{"type":"Point","coordinates":[-97.05401,33.075553]}},{"properties":{"LONGITUDE0":-96.613165,"ZIP0":75040.0,"CITY0":"GARLAND","PHONE0":"972-530-4015","STORE0":"FIREWHEEL TOWN CENTER","LATITUDE0":32.95181,"id":"a62c2s5h9y5p","STATE0":"TX","ADDRESS0":"465 Coneflower"},"type":"Feature","geometry":{"type":"Point","coordinates":[-96.613165,32.95181]}},{"properties":{"LONGITUDE0":-96.708707,"ZIP0":75075.0,"CITY0":"PLANO","PHONE0":"972-578-8202","STORE0":"COLLIN CREEK MALL","LATITUDE0":33.010649,"id":"a62c2s3szhhm","STATE0":"TX","ADDRESS0":"811 N Central Expressway"},"type":"Feature","geometry":{"type":"Point","coordinates":[-96.708707,33.010649]}},{"properties":{"LONGITUDE0":-96.830209,"ZIP0":75093.0,"CITY0":"PLANO","PHONE0":"972-608-4160","STORE0":"WINDHAVEN PLAZA","LATITUDE0":33.048006,"id":"a62c2s4m3238","STATE0":"TX","ADDRESS0":"3645 Dallas Pkwy #523"},"type":"Feature","geometry":{"type":"Point","coordinates":[-96.830209,33.048006]}},{"properties":{"LONGITUDE0":-97.080774,"ZIP0":76051.0,"CITY0":"GRAPEVINE","PHONE0":"972-874-2409","STORE0":"GRAPEVINE MILLS MALL","LATITUDE0":32.9378,"id":"a62c2se8wvdb","STATE0":"TX","ADDRESS0":"3000 Grapevine Mills Pkwy 606"},"type":"Feature","geometry":{"type":"Point","coordinates":[-97.080774,32.9378]}},{"properties":{"LONGITUDE0":-74.2621,"ZIP0":7470.0,"CITY0":"WAYNE","PHONE0":"973-256-8564","STORE0":"WILLOWBROOK MALL","LATITUDE0":40.891201,"id":"a62c2sfi7kq4","STATE0":"NJ","ADDRESS0":"1400 Willowbrook Mall,Ste2145"},"type":"Feature","geometry":{"type":"Point","coordinates":[-74.2621,40.891201]}},{"properties":{"LONGITUDE0":-74.526466,"ZIP0":7866.0,"CITY0":"ROCKAWAY","PHONE0":"973-989-6982","STORE0":"ROCKAWAY TOWN CTR","LATITUDE0":40.910625,"id":"a62c2s7f5csa","STATE0":"NJ","ADDRESS0":"301 Mt.Hope Rd.#2045"},"type":"Feature","geometry":{"type":"Point","coordinates":[-74.526466,40.910625]}},{"properties":{"LONGITUDE0":-88.720039,"ZIP0":7039.0,"CITY0":"LIVINGSTON","PHONE0":"973-992-4621","STORE0":"LIVINGSTON MALL","LATITUDE0":34.247028,"id":"a62c2s5nymaw","STATE0":"NJ","ADDRESS0":"112 Eisenhower Prkwy Ste 2015"},"type":"Feature","geometry":{"type":"Point","coordinates":[-88.720039,34.247028]}}],"is_temporal":false,"author":{"url":"","metadata":"","contact_name":"","contact_address":"","source":"","contact_phone":""},"source":"","pagination":{"sort":null,"start":0,"total":277,"limit":1000000},"state":"complete","tags":"","published":"2014-08-11T07:20:08-04:00","id":6340}