{"type":"FeatureCollection","data_type":"Dataset","url_type":null,"permissions":[{"permissions":{"download":true,"view":true},"group_id":"everyone"}],"classification":null,"title":"Top 25 Polluting Industrial Facilities, Arizona","count":25,"stream_id":6451,"contributor":{"url":"http://geocommons.com/users/2","name":"data"},"data_attributes":null,"calculation_params":null,"icon_link":null,"link":"http://geocommons.com/overlays/6451.json","extent":[-113.236,31.4287,-109.302,36.7958],"geometry_types":["point"],"unique_name":null,"name":"Top 25 Polluting Industrial Facilities, Arizona","feature_count":25,"description":"his dataset gives the top 25 polluting Industrial Facilities in the state of Arizona for 2002. The data comes from Scorecard.org who catagorize Toxics Release Inventory (TRI) reports for all reporting industrial companies.The amount of Pollution recorded was the sum of chemicals covered by TRI that industrial facilities release into the environment. This includes air releases, surface water releases, underground injection releases, and land releases.The different reporting industry sectors include: Metal Mining, Coal Mining, Food and Kindred Products, Tobacco Products, Textile Mill Products, Apparel and other Textile Products, Lumber and Wood Products, Furniture and Fixtures, Paper and Allied Products, Printing and Publishing, Chemicals and Allied Products, Petroleum and Coal Products, Rubber and Misc. Plastics Products, Leather and Leather Products, Stone, Clay, and Glass Products, Primary Metal Industries, Fabricated Metal Products, Industrial Machinery and Equipment, Electronic and other Electronic Equipment, Transportation Equipment, Instruments and Related Products, Miscellaneous Manufactoring Industries, Electric, Gas, and Sanitary Services, Wholesale Goods, Business Services10/1/2007http://www.scorecard.org/ranking/rank-facilities.tcl?how_many=100&amp;drop_down_name=Total+environmental+releases&amp;fips_state_code=04&amp;sic_2=All+reporting+sectors","next_feature":null,"is_raster":false,"short_classification":"Y","stats":{"Longitude0":{"max":-109.3019,"mean":-111.07356292,"variance":1.09273842233816,"stdev":1.045341294668,"min":-113.23583,"median":-110.98972},"Pollution0":{"max":null,"min":null,"median":null},"Zip0":{"max":86321.0,"mean":85495.8,"variance":151306.333333333,"stdev":388.981147786539,"min":85007.0,"median":85540.0},"Latitude0":{"max":36.79583,"mean":33.38813836,"variance":1.30139995834307,"stdev":1.14078918225195,"min":31.4287,"median":33.41333}},"features":[{"properties":{"State0":"AZ","City0":"SNOWFLAKE","Longitude0":-110.0055,"Pollution0":"382,999","Zip0":85937.0,"Latitude0":34.58138,"id":"a6558xwi74vj","Name0":"ABITIBI CONSOLIDATED SNOWFLAKE DIV","Address0":"HWY. 277 SPUR"},"type":"Feature","geometry":{"type":"Point","coordinates":[-110.0055,34.58138]}},{"properties":{"State0":"AZ","City0":"COCHISE","Longitude0":-109.96629,"Pollution0":"580,567","Zip0":85606.0,"Latitude0":32.09878,"id":"a6558xyspuoo","Name0":"ARIZONA ELECTRIC POWER COOPERATIVE INC","Address0":"3525 N. HWY. 191 S"},"type":"Feature","geometry":{"type":"Point","coordinates":[-109.96629,32.09878]}},{"properties":{"State0":"AZ","City0":"SAHUARITA","Longitude0":-111.05348,"Pollution0":"3,109,598","Zip0":85629.0,"Latitude0":32.0006,"id":"a6558xzk076w","Name0":"ASARCO INC. MISSION COMPLEX","Address0":"4201 W. PIMA MINE RD"},"type":"Feature","geometry":{"type":"Point","coordinates":[-111.05348,32.0006]}},{"properties":{"State0":"AZ","City0":"HAYDEN","Longitude0":-110.78917,"Pollution0":"34,941,191","Zip0":85235.0,"Latitude0":33.00193,"id":"a6558y9knsvr","Name0":"ASARCO INC. RAY COMPLEX HAYDEN SMELTER &amp; CONCENTRATOR","Address0":"640 ASARCO AVE"},"type":"Feature","geometry":{"type":"Point","coordinates":[-110.78917,33.00193]}},{"properties":{"State0":"AZ","City0":"KEARNY","Longitude0":-110.98972,"Pollution0":"2,311,980","Zip0":85237.0,"Latitude0":33.18333,"id":"a6558y14dluc","Name0":"ASARCO INC. RAY OPS. MINE","Address0":"HWY. 177 10 MI. N. OF KEARNY"},"type":"Feature","geometry":{"type":"Point","coordinates":[-110.98972,33.18333]}},{"properties":{"State0":"AZ","City0":"MESA","Longitude0":-111.84361,"Pollution0":"96,337","Zip0":85210.0,"Latitude0":33.40758,"id":"a6558xyj4e8r","Name0":"ATLAS ROOFING CORP","Address0":"222 S. DATE ST"},"type":"Feature","geometry":{"type":"Point","coordinates":[-111.84361,33.40758]}},{"properties":{"State0":"AZ","City0":"SAN MANUEL","Longitude0":-110.61888,"Pollution0":"248,695,440","Zip0":85631.0,"Latitude0":32.61528,"id":"a6558y0sx6wn","Name0":"BHP COPPER N.A. SAN MANUEL OPS","Address0":"200 S. REDDINGTON RD"},"type":"Feature","geometry":{"type":"Point","coordinates":[-110.61888,32.61528]}},{"properties":{"State0":"AZ","City0":"JOSEPH CITY","Longitude0":-110.27762,"Pollution0":"1,182,319","Zip0":86032.0,"Latitude0":34.97116,"id":"a6558y3rbx0y","Name0":"CHOLLA POWER PLANT","Address0":"OLD US 66 FRONTAGE RD"},"type":"Feature","geometry":{"type":"Point","coordinates":[-110.27762,34.97116]}},{"properties":{"State0":"AZ","City0":"SAINT JOHNS","Longitude0":-109.3019,"Pollution0":"1,126,476","Zip0":85936.0,"Latitude0":34.4631,"id":"a6558y2evzlf","Name0":"CORONADO GENERATING STATION","Address0":"7 MI. N.E. OF ST. JOHN'S AZ OFF HWY. 191"},"type":"Feature","geometry":{"type":"Point","coordinates":[-109.3019,34.4631]}},{"properties":{"State0":"AZ","City0":"PHOENIX","Longitude0":-112.06733,"Pollution0":"67,326","Zip0":85040.0,"Latitude0":33.41686,"id":"a6558xwesnw9","Name0":"GOODRICH-AIRCRAFT INTERIOR PRODS","Address0":"3414 S. 5TH ST"},"type":"Feature","geometry":{"type":"Point","coordinates":[-112.06733,33.41686]}},{"properties":{"State0":"AZ","City0":"TUCSON","Longitude0":-110.90595,"Pollution0":"94,166","Zip0":85706.0,"Latitude0":32.16295,"id":"a6558y9coc7s","Name0":"IRVINGTON GENERATING STATION","Address0":"3950 E. IRVINGTON RD"},"type":"Feature","geometry":{"type":"Point","coordinates":[-110.90595,32.16295]}},{"properties":{"State0":"AZ","City0":"CHANDLER","Longitude0":-111.84046,"Pollution0":"75,434","Zip0":85248.0,"Latitude0":33.20509,"id":"a6558xx25dc3","Name0":"MAAX SPAS ARIZONA INC","Address0":"25605 S. ARIZONA AVE"},"type":"Feature","geometry":{"type":"Point","coordinates":[-111.84046,33.20509]}},{"properties":{"State0":"AZ","City0":"PAGE","Longitude0":-111.2031,"Pollution0":"1,927,729","Zip0":86040.0,"Latitude0":36.79583,"id":"a6558xwjt1gu","Name0":"NAVAJO GENERATING STATION","Address0":"5 MI. OF PAGE AZ ON HWY. 98"},"type":"Feature","geometry":{"type":"Point","coordinates":[-111.2031,36.79583]}},{"properties":{"State0":"AZ","City0":"ELOY","Longitude0":-111.58446,"Pollution0":"83,990","Zip0":85231.0,"Latitude0":32.76302,"id":"a6558xvw6fcm","Name0":"OWENS CORNING ELOY PLANT","Address0":"1825 W. BATTAGLIA RD"},"type":"Feature","geometry":{"type":"Point","coordinates":[-111.58446,32.76302]}},{"properties":{"State0":"AZ","City0":"PHOENIX","Longitude0":-112.15528,"Pollution0":"163,061","Zip0":85043.0,"Latitude0":33.44546,"id":"a6558y4lyqsi","Name0":"PENN RACQUET SPORTS","Address0":"306 S. 45TH AVE"},"type":"Feature","geometry":{"type":"Point","coordinates":[-112.15528,33.44546]}},{"properties":{"State0":"AZ","City0":"BAGDAD","Longitude0":-113.23583,"Pollution0":"474,319","Zip0":86321.0,"Latitude0":34.59028,"id":"a6558y2pko9c","Name0":"PHELPS DODGE BAGDAD INC","Address0":"1 MAIN ST"},"type":"Feature","geometry":{"type":"Point","coordinates":[-113.23583,34.59028]}},{"properties":{"State0":"AZ","City0":"CLAYPOOL","Longitude0":-110.86139,"Pollution0":"22,764,432","Zip0":85532.0,"Latitude0":33.41333,"id":"a6558y0l9efz","Name0":"PHELPS DODGE MIAMI INC","Address0":"HWY. 60"},"type":"Feature","geometry":{"type":"Point","coordinates":[-110.86139,33.41333]}},{"properties":{"State0":"AZ","City0":"BISBEE","Longitude0":-109.89228,"Pollution0":"200,086","Zip0":85603.0,"Latitude0":31.4287,"id":"a6558xvng1o9","Name0":"PHELPS DODGE MINING CO. COPPER QUEEN BRANCH","Address0":"36 W. HWY. 92"},"type":"Feature","geometry":{"type":"Point","coordinates":[-109.89228,31.4287]}},{"properties":{"State0":"AZ","City0":"MORENCI","Longitude0":-109.3425,"Pollution0":"4,288,823","Zip0":85540.0,"Latitude0":33.06694,"id":"a6558y4gzz4u","Name0":"PHELPS DODGE MORENCI INC","Address0":"4521 U.S. HWY. 191"},"type":"Feature","geometry":{"type":"Point","coordinates":[-109.3425,33.06694]}},{"properties":{"State0":"AZ","City0":"GREEN VALLEY","Longitude0":-110.9837,"Pollution0":"1,591,201","Zip0":85614.0,"Latitude0":31.91983,"id":"a6558y1v18nv","Name0":"PHELPS DODGE SIERRITA INC","Address0":"6200 W. DUVAL MINE RD"},"type":"Feature","geometry":{"type":"Point","coordinates":[-110.9837,31.91983]}},{"properties":{"State0":"AZ","City0":"PHOENIX","Longitude0":-112.0819,"Pollution0":"65,372","Zip0":85007.0,"Latitude0":33.43091,"id":"a6558y94o5nh","Name0":"PHOENIX BRICK YARD","Address0":"1814 S. 7TH AVE"},"type":"Feature","geometry":{"type":"Point","coordinates":[-112.0819,33.43091]}},{"properties":{"State0":"AZ","City0":"PHOENIX","Longitude0":-112.1683,"Pollution0":"153,068","Zip0":85043.0,"Latitude0":33.45042,"id":"a6558y7t5qyt","Name0":"REXAM BEVERAGE CAN CO. PHOENIX AZ FACILITY","Address0":"211 N. 51ST AVE"},"type":"Feature","geometry":{"type":"Point","coordinates":[-112.1683,33.45042]}},{"properties":{"State0":"AZ","City0":"PHOENIX","Longitude0":-112.14164,"Pollution0":"56,005","Zip0":85009.0,"Latitude0":33.45156,"id":"a6558xwksseo","Name0":"SUB ZERO FREEZER CO. INC","Address0":"3865 W. VAN BUREN"},"type":"Feature","geometry":{"type":"Point","coordinates":[-112.14164,33.45156]}},{"properties":{"State0":"AZ","City0":"SPRINGERVILLE","Longitude0":-109.44545,"Pollution0":"2,754,149","Zip0":85938.0,"Latitude0":34.15525,"id":"a6558xw0hfzj","Name0":"TUCSON ELECTRIC POWER SPRINGERVILLE GENERATING STATION","Address0":"12 MILE N. 12 MILE E"},"type":"Feature","geometry":{"type":"Point","coordinates":[-109.44545,34.15525]}},{"properties":{"State0":"AZ","City0":"PHOENIX","Longitude0":-112.083333,"Pollution0":"73,964","Zip0":85027.0,"Latitude0":33.683889,"id":"a6558xzzklbz","Name0":"WALLNOX ENTERPRISES (DBA DESERT SUN FIBERGLASS)","Address0":"21412 N. 14TH AVE"},"type":"Feature","geometry":{"type":"Point","coordinates":[-112.083333,33.683889]}}],"is_temporal":false,"author":{"url":"http://www.scorecard.org/ranking/rank-facilities.tcl?how_many=100&drop_down_name=Total+environmental+releases&fips_state_code=04&sic_2=All+reporting+sectors","metadata":null,"contact_name":"","contact_address":"","source":"Scorecard.org ","contact_phone":""},"source":"http://www.scorecard.org/ranking/rank-facilities.tcl?how_many=100&drop_down_name=Total+environmental+releases&fips_state_code=04&sic_2=All+reporting+sectors","pagination":{"sort":null,"start":0,"total":25,"limit":1000000},"state":"complete","tags":"epa,inventory,jersey,new,release,toxic,tri","published":"2007-10-01T12:00:00Z","id":6451}