{"type":"FeatureCollection","data_type":"Dataset","url_type":null,"permissions":[{"permissions":{"download":true,"view":true},"group_id":"everyone"}],"classification":null,"title":"Addresses","count":1705,"stream_id":67699,"contributor":{"url":"http://geocommons.com/users/17116","name":"karlunsworth"},"data_attributes":null,"calculation_params":null,"icon_link":null,"link":"http://geocommons.com/overlays/67699.json","extent":[-91.2331,37.5552,-89.6162,38.9086],"geometry_types":["point"],"unique_name":null,"name":"Addresses","feature_count":1705,"description":"","next_feature":null,"is_raster":false,"short_classification":"Y","stats":{"id":{"max":15571,"mean":9042.36480938416,"variance":36196411.5957092,"stdev":6016.34536871922,"min":1201,"median":12926},"lat":{"max":38.908585,"mean":38.6189817741936,"variance":0.0136545343622524,"stdev":0.116852618123225,"min":37.555159,"median":38.604367},"long":{"max":-89.616243,"mean":-90.3721036686214,"variance":0.0171523679958074,"stdev":0.130967049275027,"min":-91.233056,"median":-90.338938}},"features":[{"properties":{"city":"Oakville","zip":"63129","street1":"5469 Alnwick Dr","street2":"NULL","id":"a6li1rraozfu","street3":"NULL","lat":38.474796,"state":"MO","long":-90.300874},"type":"Feature","geometry":{"type":"Point","coordinates":[-90.300874,38.474796]}},{"properties":{"city":"St Louis","zip":"63130","street1":"7522 Melrose","street2":"NULL","id":"a6li1rkeuyck","street3":"NULL","lat":38.672968,"state":"MO","long":-90.332208},"type":"Feature","geometry":{"type":"Point","coordinates":[-90.332208,38.672968]}},{"properties":{"city":"Florissant","zip":"63034","street1":"4339 Portland Manor Drive","street2":"NULL","id":"a6li1rnmx1k3","street3":"NULL","lat":38.839129,"state":"MO","long":-90.299559},"type":"Feature","geometry":{"type":"Point","coordinates":[-90.299559,38.839129]}},{"properties":{"city":"St Louis","zip":"63129","street1":"7034 Stony Ridge Rd","street2":"NULL","id":"a6li1rnb6bfs","street3":"NULL","lat":38.438271,"state":"MO","long":-90.325839},"type":"Feature","geometry":{"type":"Point","coordinates":[-90.325839,38.438271]}},{"properties":{"city":"St Louis","zip":"63129-2983","street1":"5561 Oakville Heights Court","street2":"NULL","id":"a6li1rldv14w","street3":"NULL","lat":38.469613,"state":"MO","long":-90.32775},"type":"Feature","geometry":{"type":"Point","coordinates":[-90.32775,38.469613]}},{"properties":{"city":"St Louis","zip":"63129","street1":"2542 Baltusrol Dr","street2":"NULL","id":"a6li1rflaxx8","street3":"NULL","lat":38.435639,"state":"MO","long":-90.307256},"type":"Feature","geometry":{"type":"Point","coordinates":[-90.307256,38.435639]}},{"properties":{"city":"St Louis","zip":"63114","street1":"2739 Link Road","street2":"NULL","id":"a6li1rfu0408","street3":"NULL","lat":38.707805,"state":"MO","long":-90.402786},"type":"Feature","geometry":{"type":"Point","coordinates":[-90.402786,38.707805]}},{"properties":{"city":"St Louis","zip":"63128","street1":"Apt B","street2":"5501 Ed-Lou Lane","id":"a6li1rruc38g","street3":"NULL","lat":38.498514,"state":"MO","long":-90.373776},"type":"Feature","geometry":{"type":"Point","coordinates":[-90.373776,38.498514]}},{"properties":{"city":"Ballwin","zip":"63011","street1":"587 Spragues Mill Dr","street2":"NULL","id":"a6li1req96t7","street3":"NULL","lat":38.598723,"state":"MO","long":-90.543939},"type":"Feature","geometry":{"type":"Point","coordinates":[-90.543939,38.598723]}},{"properties":{"city":"St Louis","zip":"63129","street1":"4152 A Metaxa Ln","street2":"Box 106-1","id":"a6li1rnrmmp5","street3":"NULL","lat":38.487814,"state":"MO","long":-90.348917},"type":"Feature","geometry":{"type":"Point","coordinates":[-90.348917,38.487814]}},{"properties":{"city":"Webster Groves","zip":"63119","street1":"225 Dobbin","street2":"NULL","id":"a6li1rl1dgbk","street3":"NULL","lat":38.571886,"state":"MO","long":-90.365337},"type":"Feature","geometry":{"type":"Point","coordinates":[-90.365337,38.571886]}},{"properties":{"city":"Pacific","zip":"63069","street1":"PO Box 65","street2":"NULL","id":"a6li1rmqxe4o","street3":"NULL","lat":38.485946,"state":"MO","long":-90.741444},"type":"Feature","geometry":{"type":"Point","coordinates":[-90.741444,38.485946]}},{"properties":{"city":"St Louis","zip":"63116","street1":"4280 Gertrude Apt 2E","street2":"NULL","id":"a6li1rf2yeh4","street3":"NULL","lat":38.576904,"state":"MO","long":-90.26847},"type":"Feature","geometry":{"type":"Point","coordinates":[-90.26847,38.576904]}},{"properties":{"city":"Fenton","zip":"63026","street1":"7 Worthy Ct","street2":"NULL","id":"a6li1rhjrh5n","street3":"NULL","lat":38.528861,"state":"MO","long":-90.495171},"type":"Feature","geometry":{"type":"Point","coordinates":[-90.495171,38.528861]}},{"properties":{"city":"Hazelwood","zip":"63042","street1":"5468 D Knollcreek Dr","street2":"NULL","id":"a6li1re2kj2e","street3":"NULL","lat":38.781252,"state":"MO","long":-90.390608},"type":"Feature","geometry":{"type":"Point","coordinates":[-90.390608,38.781252]}},{"properties":{"city":"St Louis","zip":"63123","street1":"9835 Tesson Creek Est Dr","street2":"NULL","id":"a6li1rdosjfc","street3":"NULL","lat":38.533411,"state":"MO","long":-90.327607},"type":"Feature","geometry":{"type":"Point","coordinates":[-90.327607,38.533411]}},{"properties":{"city":"Florissant","zip":"63033","street1":"35 Renee","street2":"NULL","id":"a6li1rmwjgbx","street3":"NULL","lat":38.794595,"state":"MO","long":-90.286749},"type":"Feature","geometry":{"type":"Point","coordinates":[-90.286749,38.794595]}},{"properties":{"city":"Ballwin","zip":"63011","street1":"824 Crestland Dr","street2":"NULL","id":"a6li1rhm8o5r","street3":"NULL","lat":38.599042,"state":"MO","long":-90.564391},"type":"Feature","geometry":{"type":"Point","coordinates":[-90.564391,38.599042]}},{"properties":{"city":"St Louis","zip":"63119","street1":"301 Reavis Place","street2":"NULL","id":"a6li1rnmyrrs","street3":"NULL","lat":38.575187,"state":"MO","long":-90.365391},"type":"Feature","geometry":{"type":"Point","coordinates":[-90.365391,38.575187]}},{"properties":{"city":"Florissant","zip":"63033","street1":"12416 Sealane Drive","street2":"NULL","id":"a6li1rds8fu4","street3":"NULL","lat":38.808477,"state":"MO","long":-90.243733},"type":"Feature","geometry":{"type":"Point","coordinates":[-90.243733,38.808477]}},{"properties":{"city":"Bridgeton","zip":"63044","street1":"14944 Sangamon","street2":"NULL","id":"a6li1rf1opiq","street3":"NULL","lat":38.760208,"state":"MO","long":-90.421693},"type":"Feature","geometry":{"type":"Point","coordinates":[-90.421693,38.760208]}},{"properties":{"city":"St Louis","zip":"63132","street1":"8646 Old Bonbomme Road","street2":"NULL","id":"a6li1rp4hx48","street3":"NULL","lat":38.668072,"state":"MO","long":-90.359401},"type":"Feature","geometry":{"type":"Point","coordinates":[-90.359401,38.668072]}},{"properties":{"city":"Maryland Heights","zip":"63043","street1":"2028 Falling Brook","street2":"NULL","id":"a6li1rh7n1w2","street3":"NULL","lat":38.71754,"state":"MO","long":-90.455232},"type":"Feature","geometry":{"type":"Point","coordinates":[-90.455232,38.71754]}},{"properties":{"city":"St Louis","zip":"63129","street1":"2825 Championship Blvd","street2":"NULL","id":"a6li1reeesc8","street3":"NULL","lat":38.429937,"state":"MO","long":-90.331733},"type":"Feature","geometry":{"type":"Point","coordinates":[-90.331733,38.429937]}},{"properties":{"city":"Kirkwood","zip":"63122","street1":"11424 Manchester Rd","street2":"NULL","id":"a6li1rff6z6s","street3":"NULL","lat":38.59924,"state":"MO","long":-90.423474},"type":"Feature","geometry":{"type":"Point","coordinates":[-90.423474,38.59924]}},{"properties":{"city":"Affton","zip":"63123","street1":"Apt B","street2":"6740 Highland House","id":"a6li1rk54b3i","street3":"NULL","lat":38.549897,"state":"MO","long":-90.325556},"type":"Feature","geometry":{"type":"Point","coordinates":[-90.325556,38.549897]}},{"properties":{"city":"St Ann","zip":"63074","street1":"3139 St David","street2":"NULL","id":"a6li1rpiajvs","street3":"NULL","lat":38.713373,"state":"MO","long":-90.383721},"type":"Feature","geometry":{"type":"Point","coordinates":[-90.383721,38.713373]}},{"properties":{"city":"Florissant","zip":"63033","street1":"3058 Sir Christopher Lane","street2":"NULL","id":"a6li1rofaukf","street3":"NULL","lat":38.80295,"state":"MO","long":-90.297298},"type":"Feature","geometry":{"type":"Point","coordinates":[-90.297298,38.80295]}},{"properties":{"city":"Florissant","zip":"63034","street1":"1001 Advocate Ct","street2":"NULL","id":"a6li1rhqjjma","street3":"NULL","lat":38.835277,"state":"MO","long":-90.314726},"type":"Feature","geometry":{"type":"Point","coordinates":[-90.314726,38.835277]}},{"properties":{"city":"Chesterfield","zip":"63017","street1":"14529 Wellington Est","street2":"NULL","id":"a6li1rorw7r0","street3":"NULL","lat":38.629532,"state":"MO","long":-90.500065},"type":"Feature","geometry":{"type":"Point","coordinates":[-90.500065,38.629532]}},{"properties":{"city":"St Louis","zip":"63136","street1":"5533 Wilborn Drive","street2":"NULL","id":"a6li1rsmr3e2","street3":"NULL","lat":38.709955,"state":"MO","long":-90.260403},"type":"Feature","geometry":{"type":"Point","coordinates":[-90.260403,38.709955]}},{"properties":{"city":"University City","zip":"63130","street1":"7206 Dartmouth Ave","street2":"NULL","id":"a6li1re75e8b","street3":"NULL","lat":38.662572,"state":"MO","long":-90.321507},"type":"Feature","geometry":{"type":"Point","coordinates":[-90.321507,38.662572]}},{"properties":{"city":"St Louis","zip":"63114","street1":"11026-I Clear Skies Dr","street2":"NULL","id":"a6li1rf52o2c","street3":"NULL","lat":38.703077,"state":"MO","long":-90.407214},"type":"Feature","geometry":{"type":"Point","coordinates":[-90.407214,38.703077]}},{"properties":{"city":"St Louis","zip":"63119","street1":"7638 Watson Rd Apt 207C","street2":"NULL","id":"a6li1rohky7t","street3":"NULL","lat":38.576792,"state":"MO","long":-90.329289},"type":"Feature","geometry":{"type":"Point","coordinates":[-90.329289,38.576792]}},{"properties":{"city":"St Louis","zip":"63128","street1":"4587 Tawneybrook","street2":"NULL","id":"a6li1ro5huzy","street3":"NULL","lat":38.507917,"state":"MO","long":-90.3652},"type":"Feature","geometry":{"type":"Point","coordinates":[-90.3652,38.507917]}},{"properties":{"city":"Fenton","zip":"63026","street1":"505 Winter Bluff","street2":"NULL","id":"a6li1rljqumn","street3":"NULL","lat":38.502067,"state":"MO","long":-90.464803},"type":"Feature","geometry":{"type":"Point","coordinates":[-90.464803,38.502067]}},{"properties":{"city":"St Louis","zip":"63112","street1":"5622 Delmar","street2":"NULL","id":"a6li1rifbx5w","street3":"NULL","lat":38.653627,"state":"MO","long":-90.282947},"type":"Feature","geometry":{"type":"Point","coordinates":[-90.282947,38.653627]}},{"properties":{"city":"St Louis","zip":"63118","street1":"3159 South Grand Blvd","street2":"NULL","id":"a6li1re6suw2","street3":"NULL","lat":38.600945,"state":"MO","long":-90.242636},"type":"Feature","geometry":{"type":"Point","coordinates":[-90.242636,38.600945]}},{"properties":{"city":"St Louis","zip":"63118","street1":"3819 Minnesota Ave","street2":"NULL","id":"a6li1riytksk","street3":"NULL","lat":38.586948,"state":"MO","long":-90.236234},"type":"Feature","geometry":{"type":"Point","coordinates":[-90.236234,38.586948]}},{"properties":{"city":"St Louis","zip":"63109","street1":"4917 Lindenwood","street2":"NULL","id":"a6li1riuvcmw","street3":"NULL","lat":38.591849,"state":"MO","long":-90.273889},"type":"Feature","geometry":{"type":"Point","coordinates":[-90.273889,38.591849]}},{"properties":{"city":"St Louis","zip":"63123","street1":"Apt 201","street2":"7337 Fernbrook Dr","id":"a6li1ren9gcm","street3":"NULL","lat":38.549897,"state":"MO","long":-90.325556},"type":"Feature","geometry":{"type":"Point","coordinates":[-90.325556,38.549897]}},{"properties":{"city":"Manchester","zip":"63021","street1":"563 Larksmore Ct","street2":"NULL","id":"a6li1rolnnir","street3":"NULL","lat":38.578333,"state":"MO","long":-90.523743},"type":"Feature","geometry":{"type":"Point","coordinates":[-90.523743,38.578333]}},{"properties":{"city":"Florissant","zip":"63031","street1":"2147 Keeven Ln","street2":"NULL","id":"a6li1rcv01oy","street3":"NULL","lat":38.806958,"state":"MO","long":-90.363292},"type":"Feature","geometry":{"type":"Point","coordinates":[-90.363292,38.806958]}},{"properties":{"city":"St Louis","zip":"63146","street1":"1948 Marine Terrace","street2":"NULL","id":"a6li1rcb9eb9","street3":"NULL","lat":38.703129,"state":"MO","long":-90.457647},"type":"Feature","geometry":{"type":"Point","coordinates":[-90.457647,38.703129]}},{"properties":{"city":"Chesterfield","zip":"63017","street1":"15992 Trowbridge","street2":"NULL","id":"a6li1rriftuj","street3":"NULL","lat":38.614134,"state":"MO","long":-90.585344},"type":"Feature","geometry":{"type":"Point","coordinates":[-90.585344,38.614134]}},{"properties":{"city":"St Louis","zip":"63123","street1":"6726 Colony Acres Drive Apt C","street2":"NULL","id":"a6li1rhb6je9","street3":"NULL","lat":38.559605,"state":"MO","long":-90.328677},"type":"Feature","geometry":{"type":"Point","coordinates":[-90.328677,38.559605]}},{"properties":{"city":"Florissant","zip":"63034","street1":"4012 Affirmed Dr","street2":"NULL","id":"a6li1rqsipjp","street3":"NULL","lat":38.843266,"state":"MO","long":-90.314888},"type":"Feature","geometry":{"type":"Point","coordinates":[-90.314888,38.843266]}},{"properties":{"city":"Grover","zip":"63040","street1":"16800 Old Manchester","street2":"NULL","id":"a6li1rou8tmz","street3":"NULL","lat":38.575071,"state":"MO","long":-90.622051},"type":"Feature","geometry":{"type":"Point","coordinates":[-90.622051,38.575071]}},{"properties":{"city":"St Louis","zip":"63123","street1":"9956 Markhall Ln","street2":"NULL","id":"a6li1reu4qcv","street3":"NULL","lat":38.537944,"state":"MO","long":-90.332534},"type":"Feature","geometry":{"type":"Point","coordinates":[-90.332534,38.537944]}},{"properties":{"city":"Shrewsbury","zip":"63119","street1":"6 St Charles Place","street2":"NULL","id":"a6li1rdep3qn","street3":"NULL","lat":38.629522,"state":"MO","long":-90.188406},"type":"Feature","geometry":{"type":"Point","coordinates":[-90.188406,38.629522]}},{"properties":{"city":"St Louis","zip":"63139","street1":"1372 Kraft Ave","street2":"NULL","id":"a6li1rp60svd","street3":"NULL","lat":38.626725,"state":"MO","long":-90.301001},"type":"Feature","geometry":{"type":"Point","coordinates":[-90.301001,38.626725]}},{"properties":{"city":"Ballwin","zip":"63011","street1":"726 Henry Ave","street2":"NULL","id":"a6li1reg68kb","street3":"NULL","lat":38.613659,"state":"MO","long":-90.521465},"type":"Feature","geometry":{"type":"Point","coordinates":[-90.521465,38.613659]}},{"properties":{"city":"Chesterfield","zip":"63005","street1":"17209 Bluff View Ridge Pl","street2":"NULL","id":"a6li1rsigb53","street3":"NULL","lat":38.657402,"state":"MO","long":-90.611716},"type":"Feature","geometry":{"type":"Point","coordinates":[-90.611716,38.657402]}},{"properties":{"city":"St Louis","zip":"63124","street1":"9241 Clayton Rd","street2":"NULL","id":"a6li1rnc0en9","street3":"NULL","lat":38.64133,"state":"MO","long":-90.369447},"type":"Feature","geometry":{"type":"Point","coordinates":[-90.369447,38.64133]}},{"properties":{"city":"Ballwin","zip":"63021","street1":"717 Cascade Terrace Ct","street2":"NULL","id":"a6li1rj8e3od","street3":"NULL","lat":38.564768,"state":"MO","long":-90.5432},"type":"Feature","geometry":{"type":"Point","coordinates":[-90.5432,38.564768]}},{"properties":{"city":"St Louis","zip":"63122","street1":"138 Manlyn","street2":"NULL","id":"a6li1rh63g72","street3":"NULL","lat":38.59663,"state":"MO","long":-90.405431},"type":"Feature","geometry":{"type":"Point","coordinates":[-90.405431,38.59663]}},{"properties":{"city":"St Louis","zip":"63147","street1":"5946 N Pointe","street2":"NULL","id":"a6li1rop2z5w","street3":"NULL","lat":38.710517,"state":"MO","long":-90.247886},"type":"Feature","geometry":{"type":"Point","coordinates":[-90.247886,38.710517]}},{"properties":{"city":"St Louis","zip":"63138","street1":"Apt 4","street2":"11208 Ruesta","id":"a6li1rqo2q42","street3":"NULL","lat":38.788348,"state":"MO","long":-90.211268},"type":"Feature","geometry":{"type":"Point","coordinates":[-90.211268,38.788348]}},{"properties":{"city":"Saint Charles","zip":"63304","street1":"1805 Britany Way","street2":"NULL","id":"a6li1ri5zhg7","street3":"NULL","lat":38.747681,"state":"MO","long":-90.639676},"type":"Feature","geometry":{"type":"Point","coordinates":[-90.639676,38.747681]}},{"properties":{"city":"St Louis","zip":"63110","street1":"2519 S Kingshighway","street2":"NULL","id":"a6li1rdkeg9i","street3":"NULL","lat":38.61144,"state":"MO","long":-90.267777},"type":"Feature","geometry":{"type":"Point","coordinates":[-90.267777,38.61144]}},{"properties":{"city":"Chesterfield","zip":"63017","street1":"15984 Trowbridge Rd","street2":"NULL","id":"a6li1rht7gd0","street3":"NULL","lat":38.614126,"state":"MO","long":-90.585046},"type":"Feature","geometry":{"type":"Point","coordinates":[-90.585046,38.614126]}},{"properties":{"city":"St Louis","zip":"63106","street1":"1211 N 11th St","street2":"NULL","id":"a6li1rh3iuh7","street3":"NULL","lat":38.637168,"state":"MO","long":-90.193049},"type":"Feature","geometry":{"type":"Point","coordinates":[-90.193049,38.637168]}},{"properties":{"city":"St Louis","zip":"63116","street1":"3711 Juniata St","street2":"NULL","id":"a6li1rjwj5mo","street3":"NULL","lat":38.601242,"state":"MO","long":-90.244615},"type":"Feature","geometry":{"type":"Point","coordinates":[-90.244615,38.601242]}},{"properties":{"city":"St Louis","zip":"63114","street1":"3527 Boswell Ave","street2":"NULL","id":"a6li1ri6k4zo","street3":"NULL","lat":38.714824,"state":"MO","long":-90.356105},"type":"Feature","geometry":{"type":"Point","coordinates":[-90.356105,38.714824]}},{"properties":{"city":"St Louis","zip":"63112","street1":"Apt 203","street2":"5322 Savoy Ct","id":"a6li1rde7mhc","street3":"NULL","lat":38.662911,"state":"MO","long":-90.282718},"type":"Feature","geometry":{"type":"Point","coordinates":[-90.282718,38.662911]}},{"properties":{"city":"High Ridge","zip":"63049","street1":"2016 Hillsboro Valley Pk","street2":"NULL","id":"a6li1roecwx4","street3":"NULL","lat":38.493899,"state":"MO","long":-90.510875},"type":"Feature","geometry":{"type":"Point","coordinates":[-90.510875,38.493899]}},{"properties":{"city":"St Louis","zip":"63146","street1":"Apt 6","street2":"10314 Briar Hollow Dr","id":"a6li1rou6pss","street3":"NULL","lat":38.688737,"state":"MO","long":-90.448635},"type":"Feature","geometry":{"type":"Point","coordinates":[-90.448635,38.688737]}},{"properties":{"city":"Ballwin","zip":"63021","street1":"353 Messina","street2":"NULL","id":"a6li1ro3uo8o","street3":"NULL","lat":38.5788,"state":"MO","long":-90.534268},"type":"Feature","geometry":{"type":"Point","coordinates":[-90.534268,38.5788]}},{"properties":{"city":"Maryland Heights","zip":"63043","street1":"11329 Brierhall Circle","street2":"NULL","id":"a6li1ro4i0rz","street3":"NULL","lat":38.722286,"state":"MO","long":-90.409632},"type":"Feature","geometry":{"type":"Point","coordinates":[-90.409632,38.722286]}},{"properties":{"city":"St Louis","zip":"63146","street1":"2074 A Tauel Ct","street2":"NULL","id":"a6li1rcr3n9u","street3":"NULL","lat":38.688737,"state":"MO","long":-90.448635},"type":"Feature","geometry":{"type":"Point","coordinates":[-90.448635,38.688737]}},{"properties":{"city":"St Louis","zip":"63118","street1":"3324 Humphery","street2":"NULL","id":"a6li1ro22rls","street3":"NULL","lat":38.593653,"state":"MO","long":-90.229098},"type":"Feature","geometry":{"type":"Point","coordinates":[-90.229098,38.593653]}},{"properties":{"city":"Ballwin","zip":"63011","street1":"317 Fawn Meadows","street2":"NULL","id":"a6li1rel0yx5","street3":"NULL","lat":38.602382,"state":"MO","long":-90.537616},"type":"Feature","geometry":{"type":"Point","coordinates":[-90.537616,38.602382]}},{"properties":{"city":"St Louis","zip":"63128","street1":"6542 Suson Oaks","street2":"NULL","id":"a6li1rj7d94g","street3":"NULL","lat":38.464095,"state":"MO","long":-90.391218},"type":"Feature","geometry":{"type":"Point","coordinates":[-90.391218,38.464095]}},{"properties":{"city":"St Louis","zip":"63129","street1":"7502 Woodbridge Estates","street2":"NULL","id":"a6li1rfsz1xu","street3":"NULL","lat":38.421674,"state":"MO","long":-90.330297},"type":"Feature","geometry":{"type":"Point","coordinates":[-90.330297,38.421674]}},{"properties":{"city":"Fenton","zip":"63026","street1":"1223 Pine Trails Ct","street2":"NULL","id":"a6li1rd6iw5x","street3":"NULL","lat":38.502067,"state":"MO","long":-90.464803},"type":"Feature","geometry":{"type":"Point","coordinates":[-90.464803,38.502067]}},{"properties":{"city":"St Louis","zip":"63117","street1":"7423 Arlington","street2":"NULL","id":"a6li1rfmb9mp","street3":"NULL","lat":38.625245,"state":"MO","long":-90.318071},"type":"Feature","geometry":{"type":"Point","coordinates":[-90.318071,38.625245]}},{"properties":{"city":"St Louis","zip":"63129","street1":"5025 Faust Ct","street2":"NULL","id":"a6li1rdmrydc","street3":"NULL","lat":38.486779,"state":"MO","long":-90.332707},"type":"Feature","geometry":{"type":"Point","coordinates":[-90.332707,38.486779]}},{"properties":{"city":"High Ridge","zip":"63049","street1":"4980 Country Club Dr.","street2":"NULL","id":"a6li1reipt3m","street3":"NULL","lat":38.469598,"state":"MO","long":-90.51029},"type":"Feature","geometry":{"type":"Point","coordinates":[-90.51029,38.469598]}},{"properties":{"city":"St Louis","zip":"63146","street1":"1135 Crested View Dr","street2":"NULL","id":"a6li1rlk57dq","street3":"NULL","lat":38.681225,"state":"MO","long":-90.419752},"type":"Feature","geometry":{"type":"Point","coordinates":[-90.419752,38.681225]}},{"properties":{"city":"Wildwood","zip":"63038","street1":"2317 Ossenfort Rd","street2":"NULL","id":"a6li1re1siez","street3":"NULL","lat":38.604179,"state":"MO","long":-90.714405},"type":"Feature","geometry":{"type":"Point","coordinates":[-90.714405,38.604179]}},{"properties":{"city":"St Louis","zip":"63129","street1":"2577 Bluffwood","street2":"NULL","id":"a6li1rcf7mc7","street3":"NULL","lat":38.466402,"state":"MO","long":-90.321803},"type":"Feature","geometry":{"type":"Point","coordinates":[-90.321803,38.466402]}},{"properties":{"city":"St Louis","zip":"63125","street1":"37 Buckley Meadows","street2":"NULL","id":"a6li1rdaafvi","street3":"NULL","lat":38.501658,"state":"MO","long":-90.310421},"type":"Feature","geometry":{"type":"Point","coordinates":[-90.310421,38.501658]}},{"properties":{"city":"St Louis","zip":"63125","street1":"672 Bellsworth","street2":"NULL","id":"a6li1rroidc8","street3":"NULL","lat":38.512034,"state":"MO","long":-90.292769},"type":"Feature","geometry":{"type":"Point","coordinates":[-90.292769,38.512034]}},{"properties":{"city":"St Louis","zip":"63129","street1":"2806 Springwater Dr","street2":"NULL","id":"a6li1rfy5s3o","street3":"NULL","lat":38.423207,"state":"MO","long":-90.31871},"type":"Feature","geometry":{"type":"Point","coordinates":[-90.31871,38.423207]}},{"properties":{"city":"St Ann","zip":"63074","street1":"3102 St Nathan Ln","street2":"NULL","id":"a6li1roreq6b","street3":"NULL","lat":38.713248,"state":"MO","long":-90.381827},"type":"Feature","geometry":{"type":"Point","coordinates":[-90.381827,38.713248]}},{"properties":{"city":"St Louis","zip":"63129","street1":"2732 Cherry Bud Ct","street2":"NULL","id":"a6li1rl7fo9j","street3":"NULL","lat":38.464792,"state":"MO","long":-90.314346},"type":"Feature","geometry":{"type":"Point","coordinates":[-90.314346,38.464792]}},{"properties":{"city":"St Louis","zip":"63129","street1":"7302 Summertime Dr","street2":"NULL","id":"a6li1rfxbl3g","street3":"NULL","lat":38.422728,"state":"MO","long":-90.32152},"type":"Feature","geometry":{"type":"Point","coordinates":[-90.32152,38.422728]}},{"properties":{"city":"St Louis","zip":"63137","street1":"1006 Bakewell Dr","street2":"NULL","id":"a6li1rrnm93x","street3":"NULL","lat":38.757024,"state":"MO","long":-90.223754},"type":"Feature","geometry":{"type":"Point","coordinates":[-90.223754,38.757024]}},{"properties":{"city":"Fenton","zip":"63026","street1":"2029 Saline","street2":"NULL","id":"a6li1rnba7kp","street3":"NULL","lat":38.47846,"state":"MO","long":-90.462409},"type":"Feature","geometry":{"type":"Point","coordinates":[-90.462409,38.47846]}},{"properties":{"city":"St Louis","zip":"63114","street1":"9506 Theodosia Ave","street2":"NULL","id":"a6li1rqb7osv","street3":"NULL","lat":38.692638,"state":"MO","long":-90.366848},"type":"Feature","geometry":{"type":"Point","coordinates":[-90.366848,38.692638]}},{"properties":{"city":"Ballwin","zip":"63011","street1":"2 Forrester","street2":"NULL","id":"a6li1rlcke98","street3":"NULL","lat":38.603787,"state":"MO","long":-90.51618},"type":"Feature","geometry":{"type":"Point","coordinates":[-90.51618,38.603787]}},{"properties":{"city":"St Louis","zip":"63116","street1":"4132 Neosho Ave","street2":"NULL","id":"a6li1rdmld6p","street3":"NULL","lat":38.582976,"state":"MO","long":-90.262207},"type":"Feature","geometry":{"type":"Point","coordinates":[-90.262207,38.582976]}},{"properties":{"city":"St Louis","zip":"63126","street1":"1441 Bali Ct","street2":"NULL","id":"a6li1rg0uhzg","street3":"NULL","lat":38.559549,"state":"MO","long":-90.388291},"type":"Feature","geometry":{"type":"Point","coordinates":[-90.388291,38.559549]}},{"properties":{"city":"St Louis","zip":"63139","street1":"1121 Graham","street2":"NULL","id":"a6li1repslyk","street3":"NULL","lat":38.629593,"state":"MO","long":-90.291251},"type":"Feature","geometry":{"type":"Point","coordinates":[-90.291251,38.629593]}},{"properties":{"city":"Ballwin","zip":"63011","street1":"704 Bitterfield Dr","street2":"NULL","id":"a6li1rqihgan","street3":"NULL","lat":38.605928,"state":"MO","long":-90.516076},"type":"Feature","geometry":{"type":"Point","coordinates":[-90.516076,38.605928]}},{"properties":{"city":"St Louis","zip":"63114","street1":"20 St Gabriel Ct","street2":"NULL","id":"a6li1rq9qyko","street3":"NULL","lat":38.711411,"state":"MO","long":-90.367355},"type":"Feature","geometry":{"type":"Point","coordinates":[-90.367355,38.711411]}},{"properties":{"city":"Fenton","zip":"63026","street1":"1223 Kings Trail Ln","street2":"NULL","id":"a6li1rev2uuu","street3":"NULL","lat":38.502067,"state":"MO","long":-90.464803},"type":"Feature","geometry":{"type":"Point","coordinates":[-90.464803,38.502067]}},{"properties":{"city":"St Louis","zip":"63129","street1":"5706 Suncrest Way","street2":"NULL","id":"a6li1rep14g5","street3":"NULL","lat":38.47729,"state":"MO","long":-90.358691},"type":"Feature","geometry":{"type":"Point","coordinates":[-90.358691,38.47729]}},{"properties":{"city":"St Louis","zip":"63129","street1":"177 E Donaldson","street2":"NULL","id":"a6li1rikn4do","street3":"NULL","lat":38.488132,"state":"MO","long":-90.290068},"type":"Feature","geometry":{"type":"Point","coordinates":[-90.290068,38.488132]}},{"properties":{"city":"St Louis","zip":"63129","street1":"4523 Old Baumgartner Rd","street2":"NULL","id":"a6li1rf9dcy6","street3":"NULL","lat":38.46017,"state":"MO","long":-90.338046},"type":"Feature","geometry":{"type":"Point","coordinates":[-90.338046,38.46017]}},{"properties":{"city":"St Louis","zip":"63123","street1":"707 Henlin","street2":"NULL","id":"a6li1rkco3hr","street3":"NULL","lat":38.551884,"state":"MO","long":-90.304143},"type":"Feature","geometry":{"type":"Point","coordinates":[-90.304143,38.551884]}},{"properties":{"city":"St Louis","zip":"63125","street1":"Apt D","street2":"3438 Evergreen Lane","id":"a6li1rj9rpy4","street3":"NULL","lat":38.522907,"state":"MO","long":-90.29516},"type":"Feature","geometry":{"type":"Point","coordinates":[-90.29516,38.522907]}},{"properties":{"city":"Florissant","zip":"63031","street1":"1060 Loekes","street2":"NULL","id":"a6li1rgamk7x","street3":"NULL","lat":38.80391,"state":"MO","long":-90.348112},"type":"Feature","geometry":{"type":"Point","coordinates":[-90.348112,38.80391]}},{"properties":{"city":"St Louis","zip":"63122","street1":"2012 Oaktimber Ct","street2":"NULL","id":"a6li1ri5exf3","street3":"NULL","lat":38.56134,"state":"MO","long":-90.443672},"type":"Feature","geometry":{"type":"Point","coordinates":[-90.443672,38.56134]}},{"properties":{"city":"Arnold","zip":"63010","street1":"3204 Bayshore Parkway","street2":"NULL","id":"a6li1reuhx4g","street3":"NULL","lat":38.415298,"state":"MO","long":-90.357269},"type":"Feature","geometry":{"type":"Point","coordinates":[-90.357269,38.415298]}},{"properties":{"city":"Chesterfield","zip":"63017","street1":"15484 Long Castle Forest","street2":"NULL","id":"a6li1rjdk71i","street3":"NULL","lat":38.629395,"state":"MO","long":-90.562601},"type":"Feature","geometry":{"type":"Point","coordinates":[-90.562601,38.629395]}},{"properties":{"city":"St Louis","zip":"63129","street1":"650 Susan Rd","street2":"NULL","id":"a6li1rhqbpxo","street3":"NULL","lat":38.456552,"state":"MO","long":-90.292848},"type":"Feature","geometry":{"type":"Point","coordinates":[-90.292848,38.456552]}},{"properties":{"city":"St Louis","zip":"63114","street1":"9756 Lynntown Ct","street2":"NULL","id":"a6li1rqks5q5","street3":"NULL","lat":38.724355,"state":"MO","long":-90.369406},"type":"Feature","geometry":{"type":"Point","coordinates":[-90.369406,38.724355]}},{"properties":{"city":"Fenton","zip":"63026","street1":"1805 San Luis Rey","street2":"NULL","id":"a6li1rnfgg36","street3":"NULL","lat":38.513869,"state":"MO","long":-90.483771},"type":"Feature","geometry":{"type":"Point","coordinates":[-90.483771,38.513869]}},{"properties":{"city":"Arnold","zip":"63010","street1":"3460 Cascade Dr","street2":"NULL","id":"a6li1rif4xwx","street3":"NULL","lat":38.415279,"state":"MO","long":-90.375155},"type":"Feature","geometry":{"type":"Point","coordinates":[-90.375155,38.415279]}},{"properties":{"city":"Arnold","zip":"63010","street1":"1084 Deborah Dr","street2":"NULL","id":"a6li1rnitht7","street3":"NULL","lat":38.43532,"state":"MO","long":-90.363371},"type":"Feature","geometry":{"type":"Point","coordinates":[-90.363371,38.43532]}},{"properties":{"city":"St Louis","zip":"63129","street1":"2734 Mountain Top Dr","street2":"NULL","id":"a6li1rkrlis2","street3":"NULL","lat":38.467199,"state":"MO","long":-90.312089},"type":"Feature","geometry":{"type":"Point","coordinates":[-90.312089,38.467199]}},{"properties":{"city":"Valley Park","zip":"63088","street1":"49 Boyd","street2":"NULL","id":"a6li1rgbot60","street3":"NULL","lat":38.559102,"state":"MO","long":-90.500464},"type":"Feature","geometry":{"type":"Point","coordinates":[-90.500464,38.559102]}},{"properties":{"city":"St Louis","zip":"63143","street1":"7028 Stanley","street2":"NULL","id":"a6li1rqs8sgm","street3":"NULL","lat":38.619848,"state":"MO","long":-90.309021},"type":"Feature","geometry":{"type":"Point","coordinates":[-90.309021,38.619848]}},{"properties":{"city":"St Louis","zip":"63109","street1":"6339 Sutherland","street2":"NULL","id":"a6li1rl5e8h9","street3":"NULL","lat":38.591167,"state":"MO","long":-90.298171},"type":"Feature","geometry":{"type":"Point","coordinates":[-90.298171,38.591167]}},{"properties":{"city":"St Louis","zip":"63146","street1":"12073 Craig View Dr","street2":"NULL","id":"a6li1rhb1i31","street3":"NULL","lat":38.678699,"state":"MO","long":-90.441086},"type":"Feature","geometry":{"type":"Point","coordinates":[-90.441086,38.678699]}},{"properties":{"city":"St Louis","zip":"63128","street1":"5035 Sherborne Drive","street2":"NULL","id":"a6li1rn5f2oq","street3":"NULL","lat":38.504473,"state":"MO","long":-90.370921},"type":"Feature","geometry":{"type":"Point","coordinates":[-90.370921,38.504473]}},{"properties":{"city":"St Louis","zip":"63146","street1":"6 Quiet Lane","street2":"NULL","id":"a6li1rdrj1li","street3":"NULL","lat":38.682421,"state":"MO","long":-90.429547},"type":"Feature","geometry":{"type":"Point","coordinates":[-90.429547,38.682421]}},{"properties":{"city":"Pevely","zip":"63070","street1":"1524 Glenoma","street2":"NULL","id":"a6li1rcdiidq","street3":"NULL","lat":38.299783,"state":"MO","long":-90.396496},"type":"Feature","geometry":{"type":"Point","coordinates":[-90.396496,38.299783]}},{"properties":{"city":"St Louis","zip":"63109","street1":"4962 Tyrolean Ave","street2":"NULL","id":"a6li1rmrn3qe","street3":"NULL","lat":38.571658,"state":"MO","long":-90.286239},"type":"Feature","geometry":{"type":"Point","coordinates":[-90.286239,38.571658]}},{"properties":{"city":"St Louis","zip":"63120","street1":"5077 Genevieve","street2":"NULL","id":"a6li1rpxuh44","street3":"NULL","lat":38.695619,"state":"MO","long":-90.252006},"type":"Feature","geometry":{"type":"Point","coordinates":[-90.252006,38.695619]}},{"properties":{"city":"St Louis","zip":"63116","street1":"4118 Federer Pl","street2":"NULL","id":"a6li1rk9pxfz","street3":"NULL","lat":38.569448,"state":"MO","long":-90.271008},"type":"Feature","geometry":{"type":"Point","coordinates":[-90.271008,38.569448]}},{"properties":{"city":"Fenton","zip":"63026","street1":"375 Pinetree Ridge Ln Apt","street2":"NULL","id":"a6li1rdkvkds","street3":"NULL","lat":38.502067,"state":"MO","long":-90.464803},"type":"Feature","geometry":{"type":"Point","coordinates":[-90.464803,38.502067]}},{"properties":{"city":"Arnold","zip":"63010","street1":"2641 Kimberly Ann Ln","street2":"NULL","id":"a6li1rowu914","street3":"NULL","lat":38.40553,"state":"MO","long":-90.402206},"type":"Feature","geometry":{"type":"Point","coordinates":[-90.402206,38.40553]}},{"properties":{"city":"Fenton","zip":"63026","street1":"1981 Centurion Dr","street2":"NULL","id":"a6li1roho123","street3":"NULL","lat":38.533474,"state":"MO","long":-90.490288},"type":"Feature","geometry":{"type":"Point","coordinates":[-90.490288,38.533474]}},{"properties":{"city":"St Louis","zip":"63137","street1":"909 Marias Drive","street2":"NULL","id":"a6li1rop24mz","street3":"NULL","lat":38.731596,"state":"MO","long":-90.222464},"type":"Feature","geometry":{"type":"Point","coordinates":[-90.222464,38.731596]}},{"properties":{"city":"St Louis","zip":"63109","street1":"4932 Lindenwood","street2":"NULL","id":"a6li1rfxjpdv","street3":"NULL","lat":38.591897,"state":"MO","long":-90.274428},"type":"Feature","geometry":{"type":"Point","coordinates":[-90.274428,38.591897]}},{"properties":{"city":"St Louis","zip":"63143","street1":"Apt A","street2":"7268 Gayola Place","id":"a6li1rpl8rr8","street3":"NULL","lat":38.612623,"state":"MO","long":-90.319853},"type":"Feature","geometry":{"type":"Point","coordinates":[-90.319853,38.612623]}},{"properties":{"city":"St Louis","zip":"63116","street1":"4839 Terrace Ave","street2":"NULL","id":"a6li1rjs7q9v","street3":"NULL","lat":38.577823,"state":"MO","long":-90.279355},"type":"Feature","geometry":{"type":"Point","coordinates":[-90.279355,38.577823]}},{"properties":{"city":"Florissant","zip":"63031","street1":"2355 Teakwood Manor Dr","street2":"NULL","id":"a6li1rfz0fig","street3":"NULL","lat":38.816726,"state":"MO","long":-90.354111},"type":"Feature","geometry":{"type":"Point","coordinates":[-90.354111,38.816726]}},{"properties":{"city":"St Louis","zip":"63125","street1":"937 Wachtel","street2":"NULL","id":"a6li1rp533zp","street3":"NULL","lat":38.534801,"state":"MO","long":-90.282004},"type":"Feature","geometry":{"type":"Point","coordinates":[-90.282004,38.534801]}},{"properties":{"city":"St Louis","zip":"63144","street1":"2428 Remington","street2":"NULL","id":"a6li1rgd4ibr","street3":"NULL","lat":38.617918,"state":"MO","long":-90.357511},"type":"Feature","geometry":{"type":"Point","coordinates":[-90.357511,38.617918]}},{"properties":{"city":"Kirkwood","zip":"63122","street1":"1053 Pinegate Dr","street2":"NULL","id":"a6li1rmdg23c","street3":"NULL","lat":38.583693,"state":"MO","long":-90.412196},"type":"Feature","geometry":{"type":"Point","coordinates":[-90.412196,38.583693]}},{"properties":{"city":"Ballwin","zip":"63011","street1":"323 Blue Ridge Pl Ct","street2":"NULL","id":"a6li1rrx2zqw","street3":"NULL","lat":38.6031,"state":"MO","long":-90.558215},"type":"Feature","geometry":{"type":"Point","coordinates":[-90.558215,38.6031]}},{"properties":{"city":"High Ridge","zip":"63049","street1":"2409 Water Tower","street2":"NULL","id":"a6li1rlm5hy3","street3":"NULL","lat":38.472416,"state":"MO","long":-90.52886},"type":"Feature","geometry":{"type":"Point","coordinates":[-90.52886,38.472416]}},{"properties":{"city":"St Louis","zip":"63129","street1":"5244 Sir Bors Drive Apt 1","street2":"NULL","id":"a6li1rd9j0rw","street3":"NULL","lat":38.482617,"state":"MO","long":-90.35013},"type":"Feature","geometry":{"type":"Point","coordinates":[-90.35013,38.482617]}},{"properties":{"city":"Florissant","zip":"63034","street1":"4220 Inlet Isle Drive","street2":"NULL","id":"a6li1rg72f6j","street3":"NULL","lat":38.81706,"state":"MO","long":-90.280457},"type":"Feature","geometry":{"type":"Point","coordinates":[-90.280457,38.81706]}},{"properties":{"city":"St Louis","zip":"63121","street1":"6468 Myron Ave","street2":"NULL","id":"a6li1rmc11yc","street3":"NULL","lat":38.689001,"state":"MO","long":-90.284372},"type":"Feature","geometry":{"type":"Point","coordinates":[-90.284372,38.689001]}},{"properties":{"city":"St Louis","zip":"63128","street1":"4533 Bryncastle Place","street2":"NULL","id":"a6li1rfjeppi","street3":"NULL","lat":38.486145,"state":"MO","long":-90.367542},"type":"Feature","geometry":{"type":"Point","coordinates":[-90.367542,38.486145]}},{"properties":{"city":"St Louis","zip":"63129","street1":"2618 C Deloak Dr","street2":"NULL","id":"a6li1rm5368m","street3":"NULL","lat":38.46965,"state":"MO","long":-90.308592},"type":"Feature","geometry":{"type":"Point","coordinates":[-90.308592,38.46965]}},{"properties":{"city":"Manchester","zip":"63021","street1":"966 Woodside Village Lane","street2":"NULL","id":"a6li1rlb004w","street3":"NULL","lat":38.571064,"state":"MO","long":-90.484994},"type":"Feature","geometry":{"type":"Point","coordinates":[-90.484994,38.571064]}},{"properties":{"city":"St Louis","zip":"63122","street1":"2912 Barrett Station Rd","street2":"NULL","id":"a6li1rrr33u5","street3":"NULL","lat":38.574962,"state":"MO","long":-90.46411},"type":"Feature","geometry":{"type":"Point","coordinates":[-90.46411,38.574962]}},{"properties":{"city":"Chesterfield","zip":"63017","street1":"2150 Fairway Bend","street2":"NULL","id":"a6li1rinip4k","street3":"NULL","lat":38.624399,"state":"MO","long":-90.567419},"type":"Feature","geometry":{"type":"Point","coordinates":[-90.567419,38.624399]}},{"properties":{"city":"Ellisville","zip":"63021","street1":"151 Tartan Green Blvd","street2":"NULL","id":"a6li1rg67s93","street3":"NULL","lat":38.585063,"state":"MO","long":-90.602396},"type":"Feature","geometry":{"type":"Point","coordinates":[-90.602396,38.585063]}},{"properties":{"city":"Florissant","zip":"63034","street1":"635 Foxtail Drive","street2":"NULL","id":"a6li1rsajtz3","street3":"NULL","lat":38.83417,"state":"MO","long":-90.305845},"type":"Feature","geometry":{"type":"Point","coordinates":[-90.305845,38.83417]}},{"properties":{"city":"Valley Park","zip":"63088","street1":"257 Crescent Ave","street2":"NULL","id":"a6li1ro8mf9l","street3":"NULL","lat":38.555614,"state":"MO","long":-90.505687},"type":"Feature","geometry":{"type":"Point","coordinates":[-90.505687,38.555614]}},{"properties":{"city":"St Louis","zip":"63134","street1":"Apt A","street2":"1948 Savterne Ct","id":"a6li1rii93jm","street3":"NULL","lat":38.739643,"state":"MO","long":-90.338938},"type":"Feature","geometry":{"type":"Point","coordinates":[-90.338938,38.739643]}},{"properties":{"city":"Pacific","zip":"63069","street1":"2210 Erik Ln","street2":"NULL","id":"a6li1rql8k5z","street3":"NULL","lat":38.492713,"state":"MO","long":-90.78757},"type":"Feature","geometry":{"type":"Point","coordinates":[-90.78757,38.492713]}},{"properties":{"city":"St Louis","zip":"63129","street1":"2727 Yaeger Rd","street2":"NULL","id":"a6li1rht20wh","street3":"NULL","lat":38.477962,"state":"MO","long":-90.313844},"type":"Feature","geometry":{"type":"Point","coordinates":[-90.313844,38.477962]}},{"properties":{"city":"Florissant","zip":"63033","street1":"3220 Willington","street2":"NULL","id":"a6li1re2em8y","street3":"NULL","lat":38.81732,"state":"MO","long":-90.310294},"type":"Feature","geometry":{"type":"Point","coordinates":[-90.310294,38.81732]}},{"properties":{"city":"St Louis","zip":"63111","street1":"7850 Rio Silva D","street2":"NULL","id":"a6li1rni5ze4","street3":"NULL","lat":38.551872,"state":"MO","long":-90.26956},"type":"Feature","geometry":{"type":"Point","coordinates":[-90.26956,38.551872]}},{"properties":{"city":"St Louis","zip":"63116","street1":"3961 Tholozan","street2":"NULL","id":"a6li1rmy35gi","street3":"NULL","lat":38.592122,"state":"MO","long":-90.253082},"type":"Feature","geometry":{"type":"Point","coordinates":[-90.253082,38.592122]}},{"properties":{"city":"Webster Groves","zip":"63119","street1":"7 Oak Tree Dr","street2":"NULL","id":"a6li1rqtlvov","street3":"NULL","lat":38.575366,"state":"MO","long":-90.358615},"type":"Feature","geometry":{"type":"Point","coordinates":[-90.358615,38.575366]}},{"properties":{"city":"Pacific","zip":"63069","street1":"102 Reed Rd","street2":"NULL","id":"a6li1rmfuyjv","street3":"NULL","lat":38.485946,"state":"MO","long":-90.741444},"type":"Feature","geometry":{"type":"Point","coordinates":[-90.741444,38.485946]}},{"properties":{"city":"St Louis","zip":"63129","street1":"2916 Woodbridge Est Dr","street2":"NULL","id":"a6li1rnpquzi","street3":"NULL","lat":38.42045,"state":"MO","long":-90.319199},"type":"Feature","geometry":{"type":"Point","coordinates":[-90.319199,38.42045]}},{"properties":{"city":"Florissant","zip":"63031","street1":"2117 Lehne Ct","street2":"NULL","id":"a6li1rg2yg23","street3":"NULL","lat":38.801362,"state":"MO","long":-90.383457},"type":"Feature","geometry":{"type":"Point","coordinates":[-90.383457,38.801362]}},{"properties":{"city":"St Louis","zip":"63146","street1":"10332 Sannois Apt 7","street2":"NULL","id":"a6li1rr1qhv4","street3":"NULL","lat":38.677624,"state":"MO","long":-90.405765},"type":"Feature","geometry":{"type":"Point","coordinates":[-90.405765,38.677624]}},{"properties":{"city":"Florissant","zip":"63033","street1":"2265 Cherry Ln","street2":"NULL","id":"a6li1rhbjo5z","street3":"NULL","lat":38.787456,"state":"MO","long":-90.310371},"type":"Feature","geometry":{"type":"Point","coordinates":[-90.310371,38.787456]}},{"properties":{"city":"St Louis","zip":"63123","street1":"8019 Lakewood","street2":"NULL","id":"a6li1rlvqc9a","street3":"NULL","lat":38.562636,"state":"MO","long":-90.308145},"type":"Feature","geometry":{"type":"Point","coordinates":[-90.308145,38.562636]}},{"properties":{"city":"Maryland Hgts","zip":"63043","street1":"12431-H Whisper Hollow Dr","street2":"NULL","id":"a6li1rs8gq34","street3":"NULL","lat":38.702765,"state":"MO","long":-90.454698},"type":"Feature","geometry":{"type":"Point","coordinates":[-90.454698,38.702765]}},{"properties":{"city":"St Louis","zip":"63118","street1":"2755 Wyoming St","street2":"NULL","id":"a6li1rjju6g8","street3":"NULL","lat":38.597443,"state":"MO","long":-90.228493},"type":"Feature","geometry":{"type":"Point","coordinates":[-90.228493,38.597443]}},{"properties":{"city":"Affton","zip":"63123","street1":"8809 Ivy Ave","street2":"NULL","id":"a6li1rs8re2i","street3":"NULL","lat":38.55261,"state":"MO","long":-90.326166},"type":"Feature","geometry":{"type":"Point","coordinates":[-90.326166,38.55261]}},{"properties":{"city":"St Louis","zip":"63134","street1":"6625 Thurston","street2":"NULL","id":"a6li1rqfzfu0","street3":"NULL","lat":38.75765,"state":"MO","long":-90.319672},"type":"Feature","geometry":{"type":"Point","coordinates":[-90.319672,38.75765]}},{"properties":{"city":"St Louis","zip":"63110","street1":"Apt D","street2":"5405 Bischoff Ave","id":"a6li1rkmbhk6","street3":"NULL","lat":38.62187,"state":"MO","long":-90.260808},"type":"Feature","geometry":{"type":"Point","coordinates":[-90.260808,38.62187]}},{"properties":{"city":"Oakville","zip":"63129","street1":"3640 Lemay Woods Dr","street2":"NULL","id":"a6li1rj6j5az","street3":"NULL","lat":38.471926,"state":"MO","long":-90.346625},"type":"Feature","geometry":{"type":"Point","coordinates":[-90.346625,38.471926]}},{"properties":{"city":"Valley Park","zip":"63088","street1":"301 Valparaiso","street2":"NULL","id":"a6li1rgaywi5","street3":"NULL","lat":38.548133,"state":"MO","long":-90.5067},"type":"Feature","geometry":{"type":"Point","coordinates":[-90.5067,38.548133]}},{"properties":{"city":"Kirkwood","zip":"63122","street1":"2047 Oaktimber","street2":"NULL","id":"a6li1roci2t6","street3":"NULL","lat":38.561515,"state":"MO","long":-90.443839},"type":"Feature","geometry":{"type":"Point","coordinates":[-90.443839,38.561515]}},{"properties":{"city":"St Louis","zip":"63105","street1":"340 N Forsyth","street2":"NULL","id":"a6li1rjlcln1","street3":"NULL","lat":38.657033,"state":"MO","long":-90.344882},"type":"Feature","geometry":{"type":"Point","coordinates":[-90.344882,38.657033]}},{"properties":{"city":"Ballwin","zip":"63021","street1":"937 Barcroft Woods Ct","street2":"NULL","id":"a6li1rh8gxsm","street3":"NULL","lat":38.569825,"state":"MO","long":-90.488143},"type":"Feature","geometry":{"type":"Point","coordinates":[-90.488143,38.569825]}},{"properties":{"city":"St Louis","zip":"63116","street1":"4710 Ray Avenue","street2":"NULL","id":"a6li1rj0irbt","street3":"NULL","lat":38.580343,"state":"MO","long":-90.261432},"type":"Feature","geometry":{"type":"Point","coordinates":[-90.261432,38.580343]}},{"properties":{"city":"Chesterfield","zip":"63005","street1":"17618 Ailanthus Dr","street2":"NULL","id":"a6li1rqu0lk1","street3":"NULL","lat":38.638928,"state":"MO","long":-90.630066},"type":"Feature","geometry":{"type":"Point","coordinates":[-90.630066,38.638928]}},{"properties":{"city":"Ballwin","zip":"63011","street1":"479 Ironwood Dr","street2":"NULL","id":"a6li1reep26w","street3":"NULL","lat":38.611305,"state":"MO","long":-90.522942},"type":"Feature","geometry":{"type":"Point","coordinates":[-90.522942,38.611305]}},{"properties":{"city":"St Louis","zip":"63141","street1":"844 Somerton Ridge Dr","street2":"NULL","id":"a6li1rl4r7wt","street3":"NULL","lat":38.676353,"state":"MO","long":-90.476078},"type":"Feature","geometry":{"type":"Point","coordinates":[-90.476078,38.676353]}},{"properties":{"city":"Fenton","zip":"63026","street1":"309 Main St","street2":"NULL","id":"a6li1rg2g6o4","street3":"NULL","lat":38.512677,"state":"MO","long":-90.435071},"type":"Feature","geometry":{"type":"Point","coordinates":[-90.435071,38.512677]}},{"properties":{"city":"Wildwood","zip":"63011","street1":"701 Oaksdale Summit Ct","street2":"NULL","id":"a6li1rcdd00o","street3":"NULL","lat":38.623561,"state":"MO","long":-90.622252},"type":"Feature","geometry":{"type":"Point","coordinates":[-90.622252,38.623561]}},{"properties":{"city":"St Louis","zip":"63132","street1":"149 Heatherwood","street2":"NULL","id":"a6li1rs4rurw","street3":"NULL","lat":38.662772,"state":"MO","long":-90.387277},"type":"Feature","geometry":{"type":"Point","coordinates":[-90.387277,38.662772]}},{"properties":{"city":"Maryland Heights","zip":"63043","street1":"2462 Wesington Dr","street2":"NULL","id":"a6li1ri54qtn","street3":"NULL","lat":38.729429,"state":"MO","long":-90.461793},"type":"Feature","geometry":{"type":"Point","coordinates":[-90.461793,38.729429]}},{"properties":{"city":"Ballwin","zip":"63021","street1":"808 H Overlook Circle Lane","street2":"NULL","id":"a6li1rep6sn7","street3":"NULL","lat":38.573247,"state":"MO","long":-90.479938},"type":"Feature","geometry":{"type":"Point","coordinates":[-90.479938,38.573247]}},{"properties":{"city":"Florissant","zip":"63031","street1":"1243 Advance Drive","street2":"NULL","id":"a6li1rn487ue","street3":"NULL","lat":38.828056,"state":"MO","long":-90.323109},"type":"Feature","geometry":{"type":"Point","coordinates":[-90.323109,38.828056]}},{"properties":{"city":"Imperial","zip":"63052","street1":"4231 Hwy 21","street2":"NULL","id":"a6li1rm66lpl","street3":"NULL","lat":38.388239,"state":"MO","long":-90.420627},"type":"Feature","geometry":{"type":"Point","coordinates":[-90.420627,38.388239]}},{"properties":{"city":"Ellisville","zip":"63021","street1":"905 Salem Way","street2":"NULL","id":"a6li1rk3cxqn","street3":"NULL","lat":38.589156,"state":"MO","long":-90.567252},"type":"Feature","geometry":{"type":"Point","coordinates":[-90.567252,38.589156]}},{"properties":{"city":"Fenton","zip":"63026","street1":"1879 Smizermill Ct","street2":"NULL","id":"a6li1rgxjl4h","street3":"NULL","lat":38.522076,"state":"MO","long":-90.49191},"type":"Feature","geometry":{"type":"Point","coordinates":[-90.49191,38.522076]}},{"properties":{"city":"St Louis","zip":"63128","street1":"5344 Hamlin Ct","street2":"NULL","id":"a6li1rqevgei","street3":"NULL","lat":38.490692,"state":"MO","long":-90.375636},"type":"Feature","geometry":{"type":"Point","coordinates":[-90.375636,38.490692]}},{"properties":{"city":"Fenton","zip":"63026","street1":"1607 La Palma Dr","street2":"NULL","id":"a6li1rejzq2y","street3":"NULL","lat":38.524915,"state":"MO","long":-90.467065},"type":"Feature","geometry":{"type":"Point","coordinates":[-90.467065,38.524915]}},{"properties":{"city":"St Louis","zip":"63110","street1":"2631 Gurney Ct","street2":"NULL","id":"a6li1rlskizp","street3":"NULL","lat":38.610174,"state":"MO","long":-90.266827},"type":"Feature","geometry":{"type":"Point","coordinates":[-90.266827,38.610174]}},{"properties":{"city":"Imperial","zip":"63052","street1":"3592 Sunrise Dr","street2":"NULL","id":"a6li1rhuyldq","street3":"NULL","lat":38.441016,"state":"MO","long":-90.474443},"type":"Feature","geometry":{"type":"Point","coordinates":[-90.474443,38.441016]}},{"properties":{"city":"Valley Park","zip":"63088","street1":"1 Moray Ct","street2":"NULL","id":"a6li1rfz80r5","street3":"NULL","lat":38.548791,"state":"MO","long":-90.498705},"type":"Feature","geometry":{"type":"Point","coordinates":[-90.498705,38.548791]}},{"properties":{"city":"Ballwin","zip":"63011","street1":"197 Gilla Drive","street2":"NULL","id":"a6li1rlizu3m","street3":"NULL","lat":38.598194,"state":"MO","long":-90.540897},"type":"Feature","geometry":{"type":"Point","coordinates":[-90.540897,38.598194]}},{"properties":{"city":"St Louis","zip":"63139","street1":"5641 Hancock Ave","street2":"NULL","id":"a6li1riayg7s","street3":"NULL","lat":38.599446,"state":"MO","long":-90.285295},"type":"Feature","geometry":{"type":"Point","coordinates":[-90.285295,38.599446]}},{"properties":{"city":"Jennings","zip":"63136","street1":"7105 Idlewild","street2":"NULL","id":"a6li1rsl3tgj","street3":"NULL","lat":38.710646,"state":"MO","long":-90.269933},"type":"Feature","geometry":{"type":"Point","coordinates":[-90.269933,38.710646]}},{"properties":{"city":"St Louis","zip":"63138","street1":"12383 Santa Maria Dr","street2":"NULL","id":"a6li1rgop1u3","street3":"NULL","lat":38.796534,"state":"MO","long":-90.20792},"type":"Feature","geometry":{"type":"Point","coordinates":[-90.20792,38.796534]}},{"properties":{"city":"Florissant","zip":"63033","street1":"Apt C","street2":"1720 Woodridge","id":"a6li1rmw7qzs","street3":"NULL","lat":38.794776,"state":"MO","long":-90.281738},"type":"Feature","geometry":{"type":"Point","coordinates":[-90.281738,38.794776]}},{"properties":{"city":"Columbia","zip":"62236","street1":"9662 State Rte 3","street2":"NULL","id":"a6li1rqj2vk5","street3":"NULL","lat":38.452721,"state":"IL","long":-90.219691},"type":"Feature","geometry":{"type":"Point","coordinates":[-90.219691,38.452721]}},{"properties":{"city":"Manchester","zip":"63021","street1":"119 Orchard Village Ct","street2":"NULL","id":"a6li1rmld2ki","street3":"NULL","lat":38.591793,"state":"MO","long":-90.49589},"type":"Feature","geometry":{"type":"Point","coordinates":[-90.49589,38.591793]}},{"properties":{"city":"St Louis","zip":"63127","street1":"264 Floralea Place","street2":"NULL","id":"a6li1rmuamv2","street3":"NULL","lat":38.55833,"state":"MO","long":-90.401174},"type":"Feature","geometry":{"type":"Point","coordinates":[-90.401174,38.55833]}},{"properties":{"city":"St Louis","zip":"63128","street1":"5198 Hollow Wood Apt D","street2":"NULL","id":"a6li1rjei41m","street3":"NULL","lat":38.468382,"state":"MO","long":-90.388046},"type":"Feature","geometry":{"type":"Point","coordinates":[-90.388046,38.468382]}},{"properties":{"city":"St Louis","zip":"63104","street1":"Apt A","street2":"1625 Carroll Street","id":"a6li1rihnmxm","street3":"NULL","lat":38.613047,"state":"MO","long":-90.215687},"type":"Feature","geometry":{"type":"Point","coordinates":[-90.215687,38.613047]}},{"properties":{"city":"St Louis","zip":"63119","street1":"Apt 208","street2":"7001 Weil","id":"a6li1rlmli1q","street3":"NULL","lat":38.588001,"state":"MO","long":-90.352364},"type":"Feature","geometry":{"type":"Point","coordinates":[-90.352364,38.588001]}},{"properties":{"city":"Glencoe","zip":"63038","street1":"611 Ridgewoods Manor Dr","street2":"NULL","id":"a6li1rgn99ss","street3":"NULL","lat":38.573433,"state":"MO","long":-90.60366},"type":"Feature","geometry":{"type":"Point","coordinates":[-90.60366,38.573433]}},{"properties":{"city":"Granite City","zip":"62040","street1":"83 Shirlwin Dr","street2":"NULL","id":"a6li1rsm64ak","street3":"NULL","lat":38.709736,"state":"IL","long":-90.039778},"type":"Feature","geometry":{"type":"Point","coordinates":[-90.039778,38.709736]}},{"properties":{"city":"St Louis","zip":"63123","street1":"11101 Marley Rd","street2":"NULL","id":"a6li1rizr9bh","street3":"NULL","lat":38.526923,"state":"MO","long":-90.347629},"type":"Feature","geometry":{"type":"Point","coordinates":[-90.347629,38.526923]}},{"properties":{"city":"Fairview Heights","zip":"62208","street1":"334 Frey Lane","street2":"NULL","id":"a6li1rq7if0y","street3":"NULL","lat":38.585805,"state":"IL","long":-89.979251},"type":"Feature","geometry":{"type":"Point","coordinates":[-89.979251,38.585805]}},{"properties":{"city":"Ballwin","zip":"63011","street1":"803 Villette Court","street2":"NULL","id":"a6li1rr6mplo","street3":"NULL","lat":38.604904,"state":"MO","long":-90.50953},"type":"Feature","geometry":{"type":"Point","coordinates":[-90.50953,38.604904]}},{"properties":{"city":"St Louis","zip":"63136","street1":"1507 St Ives Drive","street2":"NULL","id":"a6li1rlpsf71","street3":"NULL","lat":38.761712,"state":"MO","long":-90.277671},"type":"Feature","geometry":{"type":"Point","coordinates":[-90.277671,38.761712]}},{"properties":{"city":"St Louis","zip":"63130","street1":"738 Interdrive Apt 1South","street2":"NULL","id":"a6li1reqk7f6","street3":"NULL","lat":38.657461,"state":"MO","long":-90.303126},"type":"Feature","geometry":{"type":"Point","coordinates":[-90.303126,38.657461]}},{"properties":{"city":"Oakville","zip":"63129","street1":"2818 Buckfield Ct","street2":"NULL","id":"a6li1rja77j6","street3":"NULL","lat":38.436442,"state":"MO","long":-90.317762},"type":"Feature","geometry":{"type":"Point","coordinates":[-90.317762,38.436442]}},{"properties":{"city":"Manchester","zip":"63021","street1":"931 Pheasant Woods Dr","street2":"NULL","id":"a6li1rs7yk84","street3":"NULL","lat":38.572073,"state":"MO","long":-90.521643},"type":"Feature","geometry":{"type":"Point","coordinates":[-90.521643,38.572073]}},{"properties":{"city":"Fenton","zip":"63026","street1":"1626 Coronita Dr","street2":"NULL","id":"a6li1rps8hsy","street3":"NULL","lat":38.52884,"state":"MO","long":-90.471335},"type":"Feature","geometry":{"type":"Point","coordinates":[-90.471335,38.52884]}},{"properties":{"city":"St Louis","zip":"63129","street1":"3037 Woodbridge Ests Dr","street2":"NULL","id":"a6li1rgdi6uv","street3":"NULL","lat":38.42045,"state":"MO","long":-90.319199},"type":"Feature","geometry":{"type":"Point","coordinates":[-90.319199,38.42045]}},{"properties":{"city":"St Louis","zip":"63125","street1":"Apt D","street2":"168 Kingston Dr","id":"a6li1rc5ba69","street3":"NULL","lat":38.522907,"state":"MO","long":-90.29516},"type":"Feature","geometry":{"type":"Point","coordinates":[-90.29516,38.522907]}},{"properties":{"city":"Chesterfield","zip":"63017","street1":"14355 White Birch Valley","street2":"NULL","id":"a6li1rr4ornb","street3":"NULL","lat":38.656648,"state":"MO","long":-90.527603},"type":"Feature","geometry":{"type":"Point","coordinates":[-90.527603,38.656648]}},{"properties":{"city":"University City","zip":"63130","street1":"7123 Cambridge Avenue","street2":"NULL","id":"a6li1rdx0h4z","street3":"NULL","lat":38.658922,"state":"MO","long":-90.317881},"type":"Feature","geometry":{"type":"Point","coordinates":[-90.317881,38.658922]}},{"properties":{"city":"St Louis","zip":"63139","street1":"6731 Nashville Avenue","street2":"NULL","id":"a6li1rke4urt","street3":"NULL","lat":38.627401,"state":"MO","long":-90.301793},"type":"Feature","geometry":{"type":"Point","coordinates":[-90.301793,38.627401]}},{"properties":{"city":"Ellisville","zip":"63021","street1":"708 Summer Oak Dr","street2":"NULL","id":"a6li1rke43au","street3":"NULL","lat":38.573452,"state":"MO","long":-90.599608},"type":"Feature","geometry":{"type":"Point","coordinates":[-90.599608,38.573452]}},{"properties":{"city":"St Louis","zip":"63137","street1":"9743 Durham","street2":"NULL","id":"a6li1rco9vgo","street3":"NULL","lat":38.744696,"state":"MO","long":-90.235965},"type":"Feature","geometry":{"type":"Point","coordinates":[-90.235965,38.744696]}},{"properties":{"city":"Collinsville","zip":"62234","street1":"215 Woodridge Ct","street2":"NULL","id":"a6li1rsa9ohn","street3":"NULL","lat":38.715273,"state":"IL","long":-89.940072},"type":"Feature","geometry":{"type":"Point","coordinates":[-89.940072,38.715273]}},{"properties":{"city":"East Alton","zip":"62024","street1":"492 Valley Dr","street2":"NULL","id":"a6li1rfxhejg","street3":"NULL","lat":38.879094,"state":"IL","long":-90.065925},"type":"Feature","geometry":{"type":"Point","coordinates":[-90.065925,38.879094]}},{"properties":{"city":"University City","zip":"63130","street1":"7414 Trenton","street2":"NULL","id":"a6li1rnvpncr","street3":"NULL","lat":38.6807,"state":"MO","long":-90.329372},"type":"Feature","geometry":{"type":"Point","coordinates":[-90.329372,38.6807]}},{"properties":{"city":"Valley Park","zip":"63088","street1":"Apt A","street2":"1025 Stonetree Dr","id":"a6li1rduo231","street3":"NULL","lat":38.553278,"state":"MO","long":-90.492429},"type":"Feature","geometry":{"type":"Point","coordinates":[-90.492429,38.553278]}},{"properties":{"city":"Florissant","zip":"63033","street1":"Apt 4","street2":"4675 Whisper Lake Drive","id":"a6li1ri8nkn8","street3":"NULL","lat":38.794776,"state":"MO","long":-90.281738},"type":"Feature","geometry":{"type":"Point","coordinates":[-90.281738,38.794776]}},{"properties":{"city":"Manchester","zip":"63021","street1":"835 Heron Woods Dr","street2":"NULL","id":"a6li1rqzgdav","street3":"NULL","lat":38.575207,"state":"MO","long":-90.532816},"type":"Feature","geometry":{"type":"Point","coordinates":[-90.532816,38.575207]}},{"properties":{"city":"St Louis","zip":"63131","street1":"2242 Viewroyal","street2":"NULL","id":"a6li1rrrtj4k","street3":"NULL","lat":38.595378,"state":"MO","long":-90.465367},"type":"Feature","geometry":{"type":"Point","coordinates":[-90.465367,38.595378]}},{"properties":{"city":"Chesterfield","zip":"63017","street1":"1806 Cayman Ct","street2":"NULL","id":"a6li1reei4fs","street3":"NULL","lat":38.640394,"state":"MO","long":-90.562285},"type":"Feature","geometry":{"type":"Point","coordinates":[-90.562285,38.640394]}},{"properties":{"city":"St Louis","zip":"63104","street1":"2303 Park Avenue","street2":"NULL","id":"a6li1rlnp1ci","street3":"NULL","lat":38.618103,"state":"MO","long":-90.217993},"type":"Feature","geometry":{"type":"Point","coordinates":[-90.217993,38.618103]}},{"properties":{"city":"St Louis","zip":"63114-5738","street1":"9000 Hurstgreen Drive","street2":"NULL","id":"a6li1rk7k7mp","street3":"NULL","lat":38.689275,"state":"MO","long":-90.357578},"type":"Feature","geometry":{"type":"Point","coordinates":[-90.357578,38.689275]}},{"properties":{"city":"Florissant","zip":"63031","street1":"1582 Barkwood","street2":"NULL","id":"a6li1rgufzvk","street3":"NULL","lat":38.837843,"state":"MO","long":-90.322466},"type":"Feature","geometry":{"type":"Point","coordinates":[-90.322466,38.837843]}},{"properties":{"city":"Kirkwood","zip":"63122","street1":"Apt 412","street2":"2300 Timberview Rd","id":"a6li1rcc311h","street3":"NULL","lat":38.574283,"state":"MO","long":-90.413885},"type":"Feature","geometry":{"type":"Point","coordinates":[-90.413885,38.574283]}},{"properties":{"city":"St Louis","zip":"63125","street1":"2549 Buckley Ridge Ct","street2":"NULL","id":"a6li1rf69105","street3":"NULL","lat":38.524734,"state":"MO","long":-90.316305},"type":"Feature","geometry":{"type":"Point","coordinates":[-90.316305,38.524734]}},{"properties":{"city":"St Louis","zip":"63117","street1":"1530 Collins","street2":"NULL","id":"a6li1rei67nn","street3":"NULL","lat":38.625235,"state":"MO","long":-90.324651},"type":"Feature","geometry":{"type":"Point","coordinates":[-90.324651,38.625235]}},{"properties":{"city":"St Louis","zip":"63123","street1":"4945 Seibert","street2":"NULL","id":"a6li1rov3yml","street3":"NULL","lat":38.558259,"state":"MO","long":-90.299137},"type":"Feature","geometry":{"type":"Point","coordinates":[-90.299137,38.558259]}},{"properties":{"city":"St Louis","zip":"63129","street1":"3628 White Bark Ct","street2":"NULL","id":"a6li1rhrjum6","street3":"NULL","lat":38.467765,"state":"MO","long":-90.347512},"type":"Feature","geometry":{"type":"Point","coordinates":[-90.347512,38.467765]}},{"properties":{"city":"Florissant","zip":"63033","street1":"11755 Carolview Drive","street2":"NULL","id":"a6li1rjiy6nm","street3":"NULL","lat":38.786256,"state":"MO","long":-90.267137},"type":"Feature","geometry":{"type":"Point","coordinates":[-90.267137,38.786256]}},{"properties":{"city":"St Louis","zip":"63130","street1":"6648 Washington Ave No A4","street2":"NULL","id":"a6li1rmonv2s","street3":"NULL","lat":38.654727,"state":"MO","long":-90.306378},"type":"Feature","geometry":{"type":"Point","coordinates":[-90.306378,38.654727]}},{"properties":{"city":"St Louis","zip":"63135","street1":"212 Wedge Dr","street2":"NULL","id":"a6li1rhagxg3","street3":"NULL","lat":38.749623,"state":"MO","long":-90.286077},"type":"Feature","geometry":{"type":"Point","coordinates":[-90.286077,38.749623]}},{"properties":{"city":"St Louis","zip":"63134","street1":"4439 Edmundson Road","street2":"NULL","id":"a6li1rn0lr8t","street3":"NULL","lat":38.731681,"state":"MO","long":-90.365333},"type":"Feature","geometry":{"type":"Point","coordinates":[-90.365333,38.731681]}},{"properties":{"city":"St Louis","zip":"63139","street1":"Apt 4","street2":"3276 Sulphur","id":"a6li1rmcgomm","street3":"NULL","lat":38.611205,"state":"MO","long":-90.291397},"type":"Feature","geometry":{"type":"Point","coordinates":[-90.291397,38.611205]}},{"properties":{"city":"Ferguson","zip":"63135","street1":"436 South Clark Ave","street2":"NULL","id":"a6li1rogae5z","street3":"NULL","lat":38.738137,"state":"MO","long":-90.305441},"type":"Feature","geometry":{"type":"Point","coordinates":[-90.305441,38.738137]}},{"properties":{"city":"St Louis","zip":"63121","street1":"115 Emerling","street2":"NULL","id":"a6li1rd5tdo7","street3":"NULL","lat":38.724041,"state":"MO","long":-90.306125},"type":"Feature","geometry":{"type":"Point","coordinates":[-90.306125,38.724041]}},{"properties":{"city":"Arnold","zip":"63010","street1":"3518 Cascade Court","street2":"NULL","id":"a6li1rfdjsfa","street3":"NULL","lat":38.413312,"state":"MO","long":-90.377215},"type":"Feature","geometry":{"type":"Point","coordinates":[-90.377215,38.413312]}},{"properties":{"city":"Chesterfield","zip":"63006","street1":"PO  Box 4474","street2":"NULL","id":"a6li1rhbcjtj","street3":"NULL","lat":38.640656,"state":"MO","long":-90.513563},"type":"Feature","geometry":{"type":"Point","coordinates":[-90.513563,38.640656]}},{"properties":{"city":"Florissant","zip":"63033","street1":"4763 Bristol Rock","street2":"NULL","id":"a6li1rje62bb","street3":"NULL","lat":38.78754,"state":"MO","long":-90.269518},"type":"Feature","geometry":{"type":"Point","coordinates":[-90.269518,38.78754]}},{"properties":{"city":"Jennings","zip":"63136","street1":"8786 Darnell Pl","street2":"NULL","id":"a6li1rkz1nis","street3":"NULL","lat":38.733944,"state":"MO","long":-90.258917},"type":"Feature","geometry":{"type":"Point","coordinates":[-90.258917,38.733944]}},{"properties":{"city":"Eureka","zip":"63025","street1":"17303 Hilltop Ridge Dr","street2":"NULL","id":"a6li1rfuo8rr","street3":"NULL","lat":38.515493,"state":"MO","long":-90.645111},"type":"Feature","geometry":{"type":"Point","coordinates":[-90.645111,38.515493]}},{"properties":{"city":"St Louis","zip":"63136","street1":"9800 Cambria","street2":"NULL","id":"a6li1rhj2p4j","street3":"NULL","lat":38.745426,"state":"MO","long":-90.241886},"type":"Feature","geometry":{"type":"Point","coordinates":[-90.241886,38.745426]}},{"properties":{"city":"St Louis","zip":"63109","street1":"3621 Childress","street2":"NULL","id":"a6li1rc8c2i9","street3":"NULL","lat":38.597206,"state":"MO","long":-90.299534},"type":"Feature","geometry":{"type":"Point","coordinates":[-90.299534,38.597206]}},{"properties":{"city":"Hazelwood","zip":"63042","street1":"PO Box 478","street2":"NULL","id":"a6li1rmm5fda","street3":"NULL","lat":38.780475,"state":"MO","long":-90.368124},"type":"Feature","geometry":{"type":"Point","coordinates":[-90.368124,38.780475]}},{"properties":{"city":"O'Fallon","zip":"63366","street1":"229 Westridge","street2":"NULL","id":"a6li1rghezhy","street3":"NULL","lat":38.809989,"state":"MO","long":-90.712021},"type":"Feature","geometry":{"type":"Point","coordinates":[-90.712021,38.809989]}},{"properties":{"city":"Florissant","zip":"63031","street1":"2237 Larbrook Dr","street2":"NULL","id":"a6li1re1g1w6","street3":"NULL","lat":38.831258,"state":"MO","long":-90.343063},"type":"Feature","geometry":{"type":"Point","coordinates":[-90.343063,38.831258]}},{"properties":{"city":"St Louis","zip":"63136","street1":"9221 Shadydale","street2":"NULL","id":"a6li1rdpduco","street3":"NULL","lat":38.7338,"state":"MO","long":-90.249875},"type":"Feature","geometry":{"type":"Point","coordinates":[-90.249875,38.7338]}},{"properties":{"city":"St Louis","zip":"63117","street1":"1215 Bellevue Ave","street2":"NULL","id":"a6li1ro61cmf","street3":"NULL","lat":38.630048,"state":"MO","long":-90.312328},"type":"Feature","geometry":{"type":"Point","coordinates":[-90.312328,38.630048]}},{"properties":{"city":"Pacific","zip":"63069","street1":"18606 Hawks Trail Dr","street2":"NULL","id":"a6li1rcssf8h","street3":"NULL","lat":38.563353,"state":"MO","long":-90.714992},"type":"Feature","geometry":{"type":"Point","coordinates":[-90.714992,38.563353]}},{"properties":{"city":"Wildwood","zip":"63038","street1":"1403 Bald Eagle Rd","street2":"NULL","id":"a6li1rcfw4pl","street3":"NULL","lat":38.545428,"state":"MO","long":-90.611064},"type":"Feature","geometry":{"type":"Point","coordinates":[-90.611064,38.545428]}},{"properties":{"city":"Manchester","zip":"63021","street1":"936 Brookvale Terrace","street2":"NULL","id":"a6li1rs7ysfi","street3":"NULL","lat":38.573175,"state":"MO","long":-90.507158},"type":"Feature","geometry":{"type":"Point","coordinates":[-90.507158,38.573175]}},{"properties":{"city":"Farmington","zip":"63640","street1":"3625 Dogwood Ln","street2":"NULL","id":"a6li1rp91hjp","street3":"NULL","lat":37.745132,"state":"MO","long":-90.473102},"type":"Feature","geometry":{"type":"Point","coordinates":[-90.473102,37.745132]}},{"properties":{"city":"Imperial","zip":"63052","street1":"2115 Larkspur","street2":"NULL","id":"a6li1rq5c35e","street3":"NULL","lat":38.408027,"state":"MO","long":-90.407864},"type":"Feature","geometry":{"type":"Point","coordinates":[-90.407864,38.408027]}},{"properties":{"city":"Florissant","zip":"63031","street1":"1018 Rosary Tree Ct","street2":"NULL","id":"a6li1rffca91","street3":"NULL","lat":38.799305,"state":"MO","long":-90.366022},"type":"Feature","geometry":{"type":"Point","coordinates":[-90.366022,38.799305]}},{"properties":{"city":"Fenton","zip":"63026","street1":"663 Greenbrae Ct","street2":"NULL","id":"a6li1rma0hcb","street3":"NULL","lat":38.514514,"state":"MO","long":-90.471752},"type":"Feature","geometry":{"type":"Point","coordinates":[-90.471752,38.514514]}},{"properties":{"city":"Florissant","zip":"63033","street1":"4419 Papal","street2":"NULL","id":"a6li1rle2spu","street3":"NULL","lat":38.781898,"state":"MO","long":-90.271879},"type":"Feature","geometry":{"type":"Point","coordinates":[-90.271879,38.781898]}},{"properties":{"city":"St Louis","zip":"63118","street1":"3450 Magnolia","street2":"NULL","id":"a6li1re8katu","street3":"NULL","lat":38.60573,"state":"MO","long":-90.238098},"type":"Feature","geometry":{"type":"Point","coordinates":[-90.238098,38.60573]}},{"properties":{"city":"St Louis","zip":"63108","street1":"Apt 211","street2":"4490 West Pine","id":"a6li1rgpltlr","street3":"NULL","lat":38.645249,"state":"MO","long":-90.253293},"type":"Feature","geometry":{"type":"Point","coordinates":[-90.253293,38.645249]}},{"properties":{"city":"St Louis","zip":"63143","street1":"7312 Lynndover","street2":"NULL","id":"a6li1rihdfak","street3":"NULL","lat":38.615448,"state":"MO","long":-90.317753},"type":"Feature","geometry":{"type":"Point","coordinates":[-90.317753,38.615448]}},{"properties":{"city":"Florissant","zip":"63034","street1":"3716 Argonne Forest","street2":"NULL","id":"a6li1rjusw2x","street3":"NULL","lat":38.821683,"state":"MO","long":-90.290225},"type":"Feature","geometry":{"type":"Point","coordinates":[-90.290225,38.821683]}},{"properties":{"city":"St Louis","zip":"63123","street1":"9875 Musick Ave","street2":"NULL","id":"a6li1rg2t4nj","street3":"NULL","lat":38.540271,"state":"MO","long":-90.352042},"type":"Feature","geometry":{"type":"Point","coordinates":[-90.352042,38.540271]}},{"properties":{"city":"St Louis","zip":"63144","street1":"8614 Henrietta Ave","street2":"NULL","id":"a6li1rrplxfn","street3":"NULL","lat":38.61553,"state":"MO","long":-90.343928},"type":"Feature","geometry":{"type":"Point","coordinates":[-90.343928,38.61553]}},{"properties":{"city":"Florissant","zip":"63031","street1":"1024 Keenland Road","street2":"NULL","id":"a6li1reoai6j","street3":"NULL","lat":38.836945,"state":"MO","long":-90.305822},"type":"Feature","geometry":{"type":"Point","coordinates":[-90.305822,38.836945]}},{"properties":{"city":"Olivette","zip":"63132","street1":"1116 F Indian Circle Drive","street2":"NULL","id":"a6li1rqr93nn","street3":"NULL","lat":38.674494,"state":"MO","long":-90.384152},"type":"Feature","geometry":{"type":"Point","coordinates":[-90.384152,38.674494]}},{"properties":{"city":"St Louis","zip":"63104","street1":"2022-B Sidney","street2":"NULL","id":"a6li1rpf7blj","street3":"NULL","lat":38.603564,"state":"MO","long":-90.21785},"type":"Feature","geometry":{"type":"Point","coordinates":[-90.21785,38.603564]}},{"properties":{"city":"St Louis","zip":"63188","street1":"PO  Box 1253","street2":"NULL","id":"a6li1rj69k71","street3":"NULL","lat":38.632307,"state":"MO","long":-90.192162},"type":"Feature","geometry":{"type":"Point","coordinates":[-90.192162,38.632307]}},{"properties":{"city":"St Louis","zip":"63109","street1":"4915 Loughborough","street2":"NULL","id":"a6li1rhmbdsh","street3":"NULL","lat":38.570297,"state":"MO","long":-90.285144},"type":"Feature","geometry":{"type":"Point","coordinates":[-90.285144,38.570297]}},{"properties":{"city":"St Louis","zip":"63147","street1":"963 Riverview","street2":"NULL","id":"a6li1rpoibsd","street3":"NULL","lat":38.723897,"state":"MO","long":-90.233926},"type":"Feature","geometry":{"type":"Point","coordinates":[-90.233926,38.723897]}},{"properties":{"city":"St Louis","zip":"63125","street1":"3621 Bobring Ave","street2":"NULL","id":"a6li1rq626m7","street3":"NULL","lat":38.534873,"state":"MO","long":-90.28614},"type":"Feature","geometry":{"type":"Point","coordinates":[-90.28614,38.534873]}},{"properties":{"city":"St Louis","zip":"63109","street1":"5750 Rhodes Ave","street2":"NULL","id":"a6li1rrgrgyx","street3":"NULL","lat":38.57879,"state":"MO","long":-90.292853},"type":"Feature","geometry":{"type":"Point","coordinates":[-90.292853,38.57879]}},{"properties":{"city":"Arnold","zip":"63010","street1":"3868 Petrified Forest","street2":"NULL","id":"a6li1rrfjqk5","street3":"NULL","lat":38.406605,"state":"MO","long":-90.396184},"type":"Feature","geometry":{"type":"Point","coordinates":[-90.396184,38.406605]}},{"properties":{"city":"St Louis","zip":"63112","street1":"1214 Clara","street2":"NULL","id":"a6li1roxzx2g","street3":"NULL","lat":38.663687,"state":"MO","long":-90.280455},"type":"Feature","geometry":{"type":"Point","coordinates":[-90.280455,38.663687]}},{"properties":{"city":"St Louis","zip":"63116","street1":"3551 Giles Ave","street2":"NULL","id":"a6li1rrigdty","street3":"NULL","lat":38.592981,"state":"MO","long":-90.24646},"type":"Feature","geometry":{"type":"Point","coordinates":[-90.24646,38.592981]}},{"properties":{"city":"Florissant","zip":"63033","street1":"5 Glasgow Ct","street2":"NULL","id":"a6li1rpr9n07","street3":"NULL","lat":38.793411,"state":"MO","long":-90.239257},"type":"Feature","geometry":{"type":"Point","coordinates":[-90.239257,38.793411]}},{"properties":{"city":"St Louis","zip":"63125","street1":"3440 Glen Arbor","street2":"NULL","id":"a6li1rfoyqxx","street3":"NULL","lat":38.508783,"state":"MO","long":-90.312338},"type":"Feature","geometry":{"type":"Point","coordinates":[-90.312338,38.508783]}},{"properties":{"city":"St Louis","zip":"63118","street1":"3405 Mckean","street2":"NULL","id":"a6li1rqm6qvn","street3":"NULL","lat":38.596014,"state":"MO","long":-90.239494},"type":"Feature","geometry":{"type":"Point","coordinates":[-90.239494,38.596014]}},{"properties":{"city":"St Louis","zip":"63122","street1":"1059 Huthmaker","street2":"NULL","id":"a6li1ro4wzmr","street3":"NULL","lat":38.565711,"state":"MO","long":-90.423581},"type":"Feature","geometry":{"type":"Point","coordinates":[-90.423581,38.565711]}},{"properties":{"city":"St Louis","zip":"63136","street1":"7335 Esterbrook Dr","street2":"NULL","id":"a6li1rjeg2yp","street3":"NULL","lat":38.715946,"state":"MO","long":-90.27462},"type":"Feature","geometry":{"type":"Point","coordinates":[-90.27462,38.715946]}},{"properties":{"city":"St Louis","zip":"63128","street1":"10359 Schuessler","street2":"NULL","id":"a6li1rhqvypu","street3":"NULL","lat":38.504848,"state":"MO","long":-90.397332},"type":"Feature","geometry":{"type":"Point","coordinates":[-90.397332,38.504848]}},{"properties":{"city":"De Soto","zip":"63020","street1":"12824 Hencher Rd","street2":"NULL","id":"a6li1ro5aqih","street3":"NULL","lat":38.138068,"state":"MO","long":-90.507486},"type":"Feature","geometry":{"type":"Point","coordinates":[-90.507486,38.138068]}},{"properties":{"city":"Valley Park","zip":"63088","street1":"154 Forest Pkwy  Apt I","street2":"NULL","id":"a6li1rs522bc","street3":"NULL","lat":38.56493,"state":"MO","long":-90.493461},"type":"Feature","geometry":{"type":"Point","coordinates":[-90.493461,38.56493]}},{"properties":{"city":"Eureka","zip":"63025","street1":"151 Shaw Dr","street2":"NULL","id":"a6li1rewfqdl","street3":"NULL","lat":38.509948,"state":"MO","long":-90.639738},"type":"Feature","geometry":{"type":"Point","coordinates":[-90.639738,38.509948]}},{"properties":{"city":"Florissant","zip":"63031","street1":"730 Loekes Dr","street2":"NULL","id":"a6li1rcak1ly","street3":"NULL","lat":38.798998,"state":"MO","long":-90.340789},"type":"Feature","geometry":{"type":"Point","coordinates":[-90.340789,38.798998]}},{"properties":{"city":"Florissant","zip":"63031","street1":"2493 Soundview","street2":"NULL","id":"a6li1rql4ljp","street3":"NULL","lat":38.815389,"state":"MO","long":-90.358712},"type":"Feature","geometry":{"type":"Point","coordinates":[-90.358712,38.815389]}},{"properties":{"city":"St Louis","zip":"63121","street1":"8300 Hill Ave","street2":"NULL","id":"a6li1rsdwbbn","street3":"NULL","lat":38.72795,"state":"MO","long":-90.308108},"type":"Feature","geometry":{"type":"Point","coordinates":[-90.308108,38.72795]}},{"properties":{"city":"St Louis","zip":"63123","street1":"10731 Corning Dr","street2":"NULL","id":"a6li1rl6zvcl","street3":"NULL","lat":38.533741,"state":"MO","long":-90.351375},"type":"Feature","geometry":{"type":"Point","coordinates":[-90.351375,38.533741]}},{"properties":{"city":"St Louis","zip":"63115","street1":"3015 Walton Place","street2":"NULL","id":"a6li1rh356zy","street3":"NULL","lat":38.671321,"state":"MO","long":-90.250798},"type":"Feature","geometry":{"type":"Point","coordinates":[-90.250798,38.671321]}},{"properties":{"city":"Maryland Hgts","zip":"63043","street1":"12234 Hillcrest Place","street2":"NULL","id":"a6li1rndutk7","street3":"NULL","lat":38.737514,"state":"MO","long":-90.453236},"type":"Feature","geometry":{"type":"Point","coordinates":[-90.453236,38.737514]}},{"properties":{"city":"St Louis","zip":"63116","street1":"4079 Quincy","street2":"NULL","id":"a6li1rfj4f5e","street3":"NULL","lat":38.563887,"state":"MO","long":-90.274723},"type":"Feature","geometry":{"type":"Point","coordinates":[-90.274723,38.563887]}},{"properties":{"city":"St Louis","zip":"63137","street1":"10816 Glen Garry","street2":"NULL","id":"a6li1rmkxkk1","street3":"NULL","lat":38.759017,"state":"MO","long":-90.196089},"type":"Feature","geometry":{"type":"Point","coordinates":[-90.196089,38.759017]}},{"properties":{"city":"Hazelwood","zip":"63042","street1":"Apt 1811","street2":"6006 Boulder Creek","id":"a6li1riwfyhi","street3":"NULL","lat":38.573653,"state":"MO","long":-90.414129},"type":"Feature","geometry":{"type":"Point","coordinates":[-90.414129,38.573653]}},{"properties":{"city":"St Louis","zip":"63033","street1":"Apt 7","street2":"11828 Strand","id":"a6li1rrgpvt6","street3":"NULL","lat":38.794776,"state":"MO","long":-90.281738},"type":"Feature","geometry":{"type":"Point","coordinates":[-90.281738,38.794776]}},{"properties":{"city":"St Louis","zip":"63134","street1":"8132 January","street2":"NULL","id":"a6li1riwayy8","street3":"NULL","lat":38.754504,"state":"MO","long":-90.325826},"type":"Feature","geometry":{"type":"Point","coordinates":[-90.325826,38.754504]}},{"properties":{"city":"St Charles","zip":"63304","street1":"243 Towers Creek Ct","street2":"NULL","id":"a6li1rsbyqmj","street3":"NULL","lat":38.719962,"state":"MO","long":-90.613562},"type":"Feature","geometry":{"type":"Point","coordinates":[-90.613562,38.719962]}},{"properties":{"city":"Creve Coeur","zip":"63146","street1":"12633 Whispering Hills","street2":"NULL","id":"a6li1rm6ovpd","street3":"NULL","lat":38.684013,"state":"MO","long":-90.463614},"type":"Feature","geometry":{"type":"Point","coordinates":[-90.463614,38.684013]}},{"properties":{"city":"St Louis","zip":"63122","street1":"937 Dwyer","street2":"NULL","id":"a6li1rhnf3ne","street3":"NULL","lat":38.592729,"state":"MO","long":-90.383548},"type":"Feature","geometry":{"type":"Point","coordinates":[-90.383548,38.592729]}},{"properties":{"city":"St Louis","zip":"63132","street1":"Apt H","street2":"1114 Indian Circle","id":"a6li1rgdgwt6","street3":"NULL","lat":38.67454,"state":"MO","long":-90.373963},"type":"Feature","geometry":{"type":"Point","coordinates":[-90.373963,38.67454]}},{"properties":{"city":"St Louis","zip":"63125","street1":"1935 Mansard Dr","street2":"NULL","id":"a6li1rlmyzf0","street3":"NULL","lat":38.532826,"state":"MO","long":-90.306484},"type":"Feature","geometry":{"type":"Point","coordinates":[-90.306484,38.532826]}},{"properties":{"city":"St Louis","zip":"63147","street1":"8531 Park Lane","street2":"NULL","id":"a6li1rpp1y84","street3":"NULL","lat":38.714431,"state":"MO","long":-90.247825},"type":"Feature","geometry":{"type":"Point","coordinates":[-90.247825,38.714431]}},{"properties":{"city":"St Louis","zip":"63114","street1":"8915 Windom Ave","street2":"NULL","id":"a6li1ro4dtre","street3":"NULL","lat":38.70837,"state":"MO","long":-90.351457},"type":"Feature","geometry":{"type":"Point","coordinates":[-90.351457,38.70837]}},{"properties":{"city":"Manchester","zip":"63021","street1":"1492 Sandpointe Ct","street2":"NULL","id":"a6li1ron4629","street3":"NULL","lat":38.57079,"state":"MO","long":-90.489266},"type":"Feature","geometry":{"type":"Point","coordinates":[-90.489266,38.57079]}},{"properties":{"city":"St Louis","zip":"63128","street1":"4633 Aspen Hollow","street2":"NULL","id":"a6li1rgsa7un","street3":"NULL","lat":38.48535,"state":"MO","long":-90.37394},"type":"Feature","geometry":{"type":"Point","coordinates":[-90.37394,38.48535]}},{"properties":{"city":"St Louis","zip":"63136","street1":"8857 May Ave","street2":"NULL","id":"a6li1rhv69tm","street3":"NULL","lat":38.724812,"state":"MO","long":-90.254157},"type":"Feature","geometry":{"type":"Point","coordinates":[-90.254157,38.724812]}},{"properties":{"city":"Festus","zip":"63028","street1":"805 Virginia Ave","street2":"NULL","id":"a6li1rowekka","street3":"NULL","lat":38.227345,"state":"MO","long":-90.403096},"type":"Feature","geometry":{"type":"Point","coordinates":[-90.403096,38.227345]}},{"properties":{"city":"Florissant","zip":"63031","street1":"1920 Riverwood Trails Dri","street2":"NULL","id":"a6li1rc4b84b","street3":"NULL","lat":38.805738,"state":"MO","long":-90.338386},"type":"Feature","geometry":{"type":"Point","coordinates":[-90.338386,38.805738]}},{"properties":{"city":"Washington","zip":"63090","street1":"21 Jade Ln","street2":"NULL","id":"a6li1rem718r","street3":"NULL","lat":38.548311,"state":"MO","long":-91.021928},"type":"Feature","geometry":{"type":"Point","coordinates":[-91.021928,38.548311]}},{"properties":{"city":"St Louis","zip":"63119","street1":"304 South Elm","street2":"NULL","id":"a6li1rrdi2q1","street3":"NULL","lat":38.586571,"state":"MO","long":-90.357706},"type":"Feature","geometry":{"type":"Point","coordinates":[-90.357706,38.586571]}},{"properties":{"city":"Kirkwood","zip":"63122","street1":"881 Dewberry Ct","street2":"NULL","id":"a6li1rnxliur","street3":"NULL","lat":38.596118,"state":"MO","long":-90.398984},"type":"Feature","geometry":{"type":"Point","coordinates":[-90.398984,38.596118]}},{"properties":{"city":"St Louis","zip":"63117","street1":"1707 Banneker Ave","street2":"NULL","id":"a6li1rfmbyki","street3":"NULL","lat":38.623813,"state":"MO","long":-90.333619},"type":"Feature","geometry":{"type":"Point","coordinates":[-90.333619,38.623813]}},{"properties":{"city":"St Louis","zip":"63139","street1":"5504 Columbia Avenue","street2":"NULL","id":"a6li1re41ls7","street3":"NULL","lat":38.611376,"state":"MO","long":-90.280367},"type":"Feature","geometry":{"type":"Point","coordinates":[-90.280367,38.611376]}},{"properties":{"city":"St Louis","zip":"63144","street1":"8737 Covington court","street2":"NULL","id":"a6li1rhin8fp","street3":"NULL","lat":38.615564,"state":"MO","long":-90.346955},"type":"Feature","geometry":{"type":"Point","coordinates":[-90.346955,38.615564]}},{"properties":{"city":"St Louis","zip":"63123","street1":"8164 Grant Colonial Dr Apt C","street2":"NULL","id":"a6li1ri56igu","street3":"NULL","lat":38.565891,"state":"MO","long":-90.345681},"type":"Feature","geometry":{"type":"Point","coordinates":[-90.345681,38.565891]}},{"properties":{"city":"St Louis","zip":"63125","street1":"3655 Navajo Dr","street2":"NULL","id":"a6li1rm5yzqy","street3":"NULL","lat":38.523672,"state":"MO","long":-90.301042},"type":"Feature","geometry":{"type":"Point","coordinates":[-90.301042,38.523672]}},{"properties":{"city":"St Louis","zip":"63130","street1":"1518 Lyndale Avenue","street2":"NULL","id":"a6li1riolb0a","street3":"NULL","lat":38.679032,"state":"MO","long":-90.336672},"type":"Feature","geometry":{"type":"Point","coordinates":[-90.336672,38.679032]}},{"properties":{"city":"St Louis","zip":"63114","street1":"2497 Ashland","street2":"NULL","id":"a6li1rpqa9m9","street3":"NULL","lat":38.702568,"state":"MO","long":-90.348051},"type":"Feature","geometry":{"type":"Point","coordinates":[-90.348051,38.702568]}},{"properties":{"city":"St Louis","zip":"63128","street1":"4832 Berrywick Terr","street2":"NULL","id":"a6li1rnb8msw","street3":"NULL","lat":38.509925,"state":"MO","long":-90.349305},"type":"Feature","geometry":{"type":"Point","coordinates":[-90.349305,38.509925]}},{"properties":{"city":"Crestwood","zip":"63126","street1":"12138 Lowill Ln","street2":"NULL","id":"a6li1rg121ha","street3":"NULL","lat":38.545713,"state":"MO","long":-90.393983},"type":"Feature","geometry":{"type":"Point","coordinates":[-90.393983,38.545713]}},{"properties":{"city":"St Louis","zip":"63119","street1":"1525 Grant Rd","street2":"NULL","id":"a6li1rok4pv1","street3":"NULL","lat":38.566801,"state":"MO","long":-90.370765},"type":"Feature","geometry":{"type":"Point","coordinates":[-90.370765,38.566801]}},{"properties":{"city":"St Louis","zip":"63111","street1":"4727 Michigan Avenue","street2":"NULL","id":"a6li1rjl7l6t","street3":"NULL","lat":38.571081,"state":"MO","long":-90.240708},"type":"Feature","geometry":{"type":"Point","coordinates":[-90.240708,38.571081]}},{"properties":{"city":"St Louis","zip":"63122","street1":"944 Harvey","street2":"NULL","id":"a6li1rkdfpe1","street3":"NULL","lat":38.567716,"state":"MO","long":-90.426337},"type":"Feature","geometry":{"type":"Point","coordinates":[-90.426337,38.567716]}},{"properties":{"city":"Florissant","zip":"63033","street1":"1935 Woodridge","street2":"NULL","id":"a6li1re1sbqt","street3":"NULL","lat":38.802304,"state":"MO","long":-90.317806},"type":"Feature","geometry":{"type":"Point","coordinates":[-90.317806,38.802304]}},{"properties":{"city":"St Louis","zip":"63129","street1":"2731 China Lake Dr","street2":"NULL","id":"a6li1recfw7m","street3":"NULL","lat":38.435975,"state":"MO","long":-90.316855},"type":"Feature","geometry":{"type":"Point","coordinates":[-90.316855,38.435975]}},{"properties":{"city":"Chesterfield","zip":"63017","street1":"14061 Boxford Ct","street2":"NULL","id":"a6li1rpn9g5l","street3":"NULL","lat":38.661566,"state":"MO","long":-90.513678},"type":"Feature","geometry":{"type":"Point","coordinates":[-90.513678,38.661566]}},{"properties":{"city":"Ballwin","zip":"63011","street1":"158 Spring Leigh Ct","street2":"NULL","id":"a6li1rmramye","street3":"NULL","lat":38.598588,"state":"MO","long":-90.532495},"type":"Feature","geometry":{"type":"Point","coordinates":[-90.532495,38.598588]}},{"properties":{"city":"House Springs","zip":"63051","street1":"4935 Benmyr Drive","street2":"NULL","id":"a6li1rpunpps","street3":"NULL","lat":38.397119,"state":"MO","long":-90.505224},"type":"Feature","geometry":{"type":"Point","coordinates":[-90.505224,38.397119]}},{"properties":{"city":"St Louis","zip":"63141","street1":"12338 Wild Turkey Ct.","street2":"NULL","id":"a6li1rd0ff1d","street3":"NULL","lat":38.667967,"state":"MO","long":-90.456211},"type":"Feature","geometry":{"type":"Point","coordinates":[-90.456211,38.667967]}},{"properties":{"city":"Florissant","zip":"63033","street1":"4763 Bristol Rock","street2":"NULL","id":"a6li1rhtv3e7","street3":"NULL","lat":38.78754,"state":"MO","long":-90.269518},"type":"Feature","geometry":{"type":"Point","coordinates":[-90.269518,38.78754]}},{"properties":{"city":"St Louis","zip":"63129","street1":"5328 Royal Hills","street2":"NULL","id":"a6li1rrqz046","street3":"NULL","lat":38.481132,"state":"MO","long":-90.338312},"type":"Feature","geometry":{"type":"Point","coordinates":[-90.338312,38.481132]}},{"properties":{"city":"Ellisville","zip":"63021","street1":"16236 Castlerea Blvd","street2":"NULL","id":"a6li1re1y60r","street3":"NULL","lat":38.583669,"state":"MO","long":-90.603659},"type":"Feature","geometry":{"type":"Point","coordinates":[-90.603659,38.583669]}},{"properties":{"city":"St Louis","zip":"63118-2049","street1":"3451 Connecticut St. Apt 204","street2":"NULL","id":"a6li1rfdxafa","street3":"NULL","lat":38.599733,"state":"MO","long":-90.23937},"type":"Feature","geometry":{"type":"Point","coordinates":[-90.23937,38.599733]}},{"properties":{"city":"Maryland Heights","zip":"63043","street1":"11833 Smokerise Ct","street2":"NULL","id":"a6li1rm2cmng","street3":"NULL","lat":38.731004,"state":"MO","long":-90.446379},"type":"Feature","geometry":{"type":"Point","coordinates":[-90.446379,38.731004]}},{"properties":{"city":"St Louis","zip":"63129","street1":"3020 Cambridge Pointe Dr","street2":"NULL","id":"a6li1rj5l6jv","street3":"NULL","lat":38.458094,"state":"MO","long":-90.326907},"type":"Feature","geometry":{"type":"Point","coordinates":[-90.326907,38.458094]}},{"properties":{"city":"Arnold","zip":"63010","street1":"1264 New Towne","street2":"NULL","id":"a6li1royogj6","street3":"NULL","lat":38.39448,"state":"MO","long":-90.368676},"type":"Feature","geometry":{"type":"Point","coordinates":[-90.368676,38.39448]}},{"properties":{"city":"Florissant","zip":"63033","street1":"2995 Delaware Dr","street2":"NULL","id":"a6li1rktzpvd","street3":"NULL","lat":38.802474,"state":"MO","long":-90.297943},"type":"Feature","geometry":{"type":"Point","coordinates":[-90.297943,38.802474]}},{"properties":{"city":"St Louis","zip":"63116","street1":"4215 Osceola","street2":"NULL","id":"a6li1ridhl43","street3":"NULL","lat":38.587745,"state":"MO","long":-90.262926},"type":"Feature","geometry":{"type":"Point","coordinates":[-90.262926,38.587745]}},{"properties":{"city":"St Louis","zip":"63116","street1":"6920 Salzburger Ave","street2":"NULL","id":"a6li1rsi52cm","street3":"NULL","lat":38.568431,"state":"MO","long":-90.283004},"type":"Feature","geometry":{"type":"Point","coordinates":[-90.283004,38.568431]}},{"properties":{"city":"St Louis","zip":"63129","street1":"3562 Brookstone South Drive","street2":"NULL","id":"a6li1rs6zia6","street3":"NULL","lat":38.462908,"state":"MO","long":-90.337515},"type":"Feature","geometry":{"type":"Point","coordinates":[-90.337515,38.462908]}},{"properties":{"city":"Fenton","zip":"63026","street1":"117 Apostle Circle","street2":"NULL","id":"a6li1rcu3kt5","street3":"NULL","lat":38.526554,"state":"MO","long":-90.496531},"type":"Feature","geometry":{"type":"Point","coordinates":[-90.496531,38.526554]}},{"properties":{"city":"Chesterfield","zip":"63017","street1":"2203 Clayville Ct","street2":"NULL","id":"a6li1rpi711o","street3":"NULL","lat":38.623556,"state":"MO","long":-90.520123},"type":"Feature","geometry":{"type":"Point","coordinates":[-90.520123,38.623556]}},{"properties":{"city":"Florissant","zip":"63031","street1":"1121 Garden Village Dr","street2":"NULL","id":"a6li1roy3d6l","street3":"NULL","lat":38.825133,"state":"MO","long":-90.326232},"type":"Feature","geometry":{"type":"Point","coordinates":[-90.326232,38.825133]}},{"properties":{"city":"St Louis","zip":"63121","street1":"8406 Norine Drive","street2":"NULL","id":"a6li1rq09w12","street3":"NULL","lat":38.724766,"state":"MO","long":-90.310172},"type":"Feature","geometry":{"type":"Point","coordinates":[-90.310172,38.724766]}},{"properties":{"city":"Ballwin","zip":"63011","street1":"Apt C","street2":"106 Shadalane Walk","id":"a6li1rqn23u8","street3":"NULL","lat":38.608439,"state":"MO","long":-90.545196},"type":"Feature","geometry":{"type":"Point","coordinates":[-90.545196,38.608439]}},{"properties":{"city":"Fenton","zip":"63026","street1":"982 Winter Park Drive","street2":"NULL","id":"a6li1ro7qp6b","street3":"NULL","lat":38.489845,"state":"MO","long":-90.435384},"type":"Feature","geometry":{"type":"Point","coordinates":[-90.435384,38.489845]}},{"properties":{"city":"St Louis","zip":"63139","street1":"3276 Sulphur Ave 4","street2":"NULL","id":"a6li1rn7z9dg","street3":"NULL","lat":38.611205,"state":"MO","long":-90.291397},"type":"Feature","geometry":{"type":"Point","coordinates":[-90.291397,38.611205]}},{"properties":{"city":"St Louis","zip":"63116","street1":"Apt C","street2":"4771 South Spring Avenue","id":"a6li1rdlgoke","street3":"NULL","lat":38.580188,"state":"MO","long":-90.263851},"type":"Feature","geometry":{"type":"Point","coordinates":[-90.263851,38.580188]}},{"properties":{"city":"St Louis","zip":"63138","street1":"1531 Redman Blvd","street2":"NULL","id":"a6li1rjsnv84","street3":"NULL","lat":38.785791,"state":"MO","long":-90.214191},"type":"Feature","geometry":{"type":"Point","coordinates":[-90.214191,38.785791]}},{"properties":{"city":"St Louis","zip":"63132","street1":"4 Blackpool Ln","street2":"NULL","id":"a6li1rnvy3xb","street3":"NULL","lat":38.667018,"state":"MO","long":-90.390753},"type":"Feature","geometry":{"type":"Point","coordinates":[-90.390753,38.667018]}},{"properties":{"city":"St Louis","zip":"63137","street1":"Apt C","street2":"10056 Toelle Lane","id":"a6li1rprx96n","street3":"NULL","lat":38.747916,"state":"MO","long":-90.219634},"type":"Feature","geometry":{"type":"Point","coordinates":[-90.219634,38.747916]}},{"properties":{"city":"St Louis","zip":"63146","street1":"11930 Greenwalk Dr","street2":"NULL","id":"a6li1rq5k4k4","street3":"NULL","lat":38.687939,"state":"MO","long":-90.440881},"type":"Feature","geometry":{"type":"Point","coordinates":[-90.440881,38.687939]}},{"properties":{"city":"St Louis","zip":"63114","street1":"2708 Francis Ave","street2":"NULL","id":"a6li1rrfh0h0","street3":"NULL","lat":38.707775,"state":"MO","long":-90.404191},"type":"Feature","geometry":{"type":"Point","coordinates":[-90.404191,38.707775]}},{"properties":{"city":"St Louis","zip":"63129","street1":"6781 Bear Creek Dr","street2":"NULL","id":"a6li1rchhbwl","street3":"NULL","lat":38.440608,"state":"MO","long":-90.318657},"type":"Feature","geometry":{"type":"Point","coordinates":[-90.318657,38.440608]}},{"properties":{"city":"Fenton","zip":"63026","street1":"834 Matthews Dr","street2":"NULL","id":"a6li1rrz7auv","street3":"NULL","lat":38.493079,"state":"MO","long":-90.458706},"type":"Feature","geometry":{"type":"Point","coordinates":[-90.458706,38.493079]}},{"properties":{"city":"Florissant","zip":"63033","street1":"1887 Monfort Dr","street2":"NULL","id":"a6li1rp7rkq2","street3":"NULL","lat":38.803978,"state":"MO","long":-90.300698},"type":"Feature","geometry":{"type":"Point","coordinates":[-90.300698,38.803978]}},{"properties":{"city":"St Louis","zip":"63123","street1":"9202 Lemona Drive","street2":"NULL","id":"a6li1rnb0xm6","street3":"NULL","lat":38.541266,"state":"MO","long":-90.315947},"type":"Feature","geometry":{"type":"Point","coordinates":[-90.315947,38.541266]}},{"properties":{"city":"Florissant","zip":"63033","street1":"1160 Bluefield Dr","street2":"NULL","id":"a6li1rs3yswt","street3":"NULL","lat":38.794029,"state":"MO","long":-90.312865},"type":"Feature","geometry":{"type":"Point","coordinates":[-90.312865,38.794029]}},{"properties":{"city":"Chesterfield","zip":"63017","street1":"15752 Heathercroft","street2":"NULL","id":"a6li1re5chsr","street3":"NULL","lat":38.63814,"state":"MO","long":-90.565113},"type":"Feature","geometry":{"type":"Point","coordinates":[-90.565113,38.63814]}},{"properties":{"city":"Chesterfield","zip":"63005","street1":"16304 Wilson Creek Ct","street2":"NULL","id":"a6li1rrz8020","street3":"NULL","lat":38.631784,"state":"MO","long":-90.593289},"type":"Feature","geometry":{"type":"Point","coordinates":[-90.593289,38.631784]}},{"properties":{"city":"Chesterfield","zip":"63017","street1":"No 10","street2":"14513 Bantry","id":"a6li1rgbo2tu","street3":"NULL","lat":38.645811,"state":"MO","long":-90.537874},"type":"Feature","geometry":{"type":"Point","coordinates":[-90.537874,38.645811]}},{"properties":{"city":"Ellisville","zip":"63021","street1":"548 Woodhill Est Dr","street2":"NULL","id":"a6li1rml401u","street3":"NULL","lat":38.579962,"state":"MO","long":-90.583303},"type":"Feature","geometry":{"type":"Point","coordinates":[-90.583303,38.579962]}},{"properties":{"city":"Creve Coeur","zip":"63141","street1":"Apt A","street2":"506 Sarah Lane","id":"a6li1rn2ce39","street3":"NULL","lat":38.661131,"state":"MO","long":-90.456915},"type":"Feature","geometry":{"type":"Point","coordinates":[-90.456915,38.661131]}},{"properties":{"city":"Valley Park","zip":"63088","street1":"1294 Big Bend Xing Ct","street2":"NULL","id":"a6li1rsjtq4n","street3":"NULL","lat":38.566542,"state":"MO","long":-90.482701},"type":"Feature","geometry":{"type":"Point","coordinates":[-90.482701,38.566542]}},{"properties":{"city":"St Louis","zip":"63135","street1":"6012 Bermuda Apt F","street2":"NULL","id":"a6li1rgrrt0y","street3":"NULL","lat":38.730182,"state":"MO","long":-90.294689},"type":"Feature","geometry":{"type":"Point","coordinates":[-90.294689,38.730182]}},{"properties":{"city":"Crestwood","zip":"63126","street1":"9020 Mountainair Tr","street2":"NULL","id":"a6li1rpropsp","street3":"NULL","lat":38.550538,"state":"MO","long":-90.362433},"type":"Feature","geometry":{"type":"Point","coordinates":[-90.362433,38.550538]}},{"properties":{"city":"Florissant","zip":"63031","street1":"705 Kostka Lane","street2":"NULL","id":"a6li1rjaj5sx","street3":"NULL","lat":38.790628,"state":"MO","long":-90.349553},"type":"Feature","geometry":{"type":"Point","coordinates":[-90.349553,38.790628]}},{"properties":{"city":"Cedar Hill","zip":"63016","street1":"7239 Hickory Hill Ln","street2":"NULL","id":"a6li1ri35psb","street3":"NULL","lat":38.354756,"state":"MO","long":-90.641027},"type":"Feature","geometry":{"type":"Point","coordinates":[-90.641027,38.354756]}},{"properties":{"city":"St Louis","zip":"63103","street1":"Apt 708","street2":"40 Plaza Square","id":"a6li1rdj8i85","street3":"NULL","lat":38.630688,"state":"MO","long":-90.213009},"type":"Feature","geometry":{"type":"Point","coordinates":[-90.213009,38.630688]}},{"properties":{"city":"St Louis","zip":"63110","street1":"Apt A","street2":"4541 Flora Ave","id":"a6li1rmrxfao","street3":"NULL","lat":38.62187,"state":"MO","long":-90.260808},"type":"Feature","geometry":{"type":"Point","coordinates":[-90.260808,38.62187]}},{"properties":{"city":"Chesterfield","zip":"63005","street1":"1911 Falling Tree Ct","street2":"NULL","id":"a6li1rdwxe39","street3":"NULL","lat":38.633858,"state":"MO","long":-90.577144},"type":"Feature","geometry":{"type":"Point","coordinates":[-90.577144,38.633858]}},{"properties":{"city":"St Louis","zip":"63137","street1":"1139 Bliss Dr","street2":"NULL","id":"a6li1rnkcwpf","street3":"NULL","lat":38.758737,"state":"MO","long":-90.226021},"type":"Feature","geometry":{"type":"Point","coordinates":[-90.226021,38.758737]}},{"properties":{"city":"St Louis","zip":"63112","street1":"Apt 7","street2":"6145 Waterman Blvd","id":"a6li1rlhb4rs","street3":"NULL","lat":38.662911,"state":"MO","long":-90.282718},"type":"Feature","geometry":{"type":"Point","coordinates":[-90.282718,38.662911]}},{"properties":{"city":"St Louis","zip":"63125","street1":"2646 Carousel","street2":"NULL","id":"a6li1re4hdyb","street3":"NULL","lat":38.522225,"state":"MO","long":-90.31384},"type":"Feature","geometry":{"type":"Point","coordinates":[-90.31384,38.522225]}},{"properties":{"city":"St Louis","zip":"63111","street1":"7518 A Pennsylvania","street2":"NULL","id":"a6li1rer1be9","street3":"NULL","lat":38.548577,"state":"MO","long":-90.258118},"type":"Feature","geometry":{"type":"Point","coordinates":[-90.258118,38.548577]}},{"properties":{"city":"St Louis","zip":"63117","street1":"1308 McCausland","street2":"NULL","id":"a6li1rk32pc0","street3":"NULL","lat":38.62836,"state":"MO","long":-90.30674},"type":"Feature","geometry":{"type":"Point","coordinates":[-90.30674,38.62836]}},{"properties":{"city":"St Louis","zip":"63109","street1":"5612 Sutherland Ave","street2":"NULL","id":"a6li1rpiqu4h","street3":"NULL","lat":38.589891,"state":"MO","long":-90.288053},"type":"Feature","geometry":{"type":"Point","coordinates":[-90.288053,38.589891]}},{"properties":{"city":"St Louis","zip":"63108","street1":"4208 West Pine","street2":"NULL","id":"a6li1rniep2m","street3":"NULL","lat":38.639233,"state":"MO","long":-90.25025},"type":"Feature","geometry":{"type":"Point","coordinates":[-90.25025,38.639233]}},