{"type":"FeatureCollection","data_type":"Dataset","url_type":null,"permissions":[{"permissions":{"download":true,"view":true},"group_id":"everyone"}],"classification":null,"title":"Origens AMI 2010 \t\t\t","count":13,"stream_id":68552,"contributor":{"url":"http://geocommons.com/users/14331","name":"hyrangodinho"},"data_attributes":null,"calculation_params":null,"icon_link":null,"link":"http://geocommons.com/overlays/68552.json","extent":[-48.0539,-24.7102,-45.0857,-20.7204],"geometry_types":["point"],"unique_name":null,"name":"Origens AMI 2010 \t\t\t","feature_count":13,"description":"","next_feature":null,"is_raster":false,"short_classification":"Y","stats":{},"features":[{"properties":{"name":"Amil Resgate Saúde","id":"a6efuqtyorpf"},"type":"Feature","geometry":{"type":"Point","coordinates":[-46.8483187306448,-23.4935007023891]}},{"properties":{"name":"Atibaia (2)","id":"a6efuqynjzlw"},"type":"Feature","geometry":{"type":"Point","coordinates":[-46.5502159913168,-23.1171159982761]}},{"properties":{"name":"Cerquilho (1)","id":"a6efuqp1hooo"},"type":"Feature","geometry":{"type":"Point","coordinates":[-47.7474320020009,-23.1674849962667]}},{"properties":{"name":"Guaratinguetá (2)","id":"a6efuqsqdknb"},"type":"Feature","geometry":{"type":"Point","coordinates":[-45.1934649761206,-22.8161700001959]}},{"properties":{"name":"Guarujá (1)","id":"a6efuqr0waja"},"type":"Feature","geometry":{"type":"Point","coordinates":[-46.2568670002379,-23.9946009965518]}},{"properties":{"name":"Ibiúna (1)","id":"a6efuqwwzn32"},"type":"Feature","geometry":{"type":"Point","coordinates":[-47.2257340072237,-23.6568620062587]}},{"properties":{"name":"Ilha Bela (2)","id":"a6efur1q0nvm"},"type":"Feature","geometry":{"type":"Point","coordinates":[-45.3238850007808,-23.917075999236]}},{"properties":{"name":"Itajubá (1)","id":"a6efuqqjzbt1"},"type":"Feature","geometry":{"type":"Point","coordinates":[-45.452991000797,-22.4268979957326]}},{"properties":{"name":"Itapetininga (1)","id":"a6efuqvdh9vy"},"type":"Feature","geometry":{"type":"Point","coordinates":[-48.0539030080326,-23.5944790153261]}},{"properties":{"name":"Orlândia (1)","id":"a6efuqsva75i"},"type":"Feature","geometry":{"type":"Point","coordinates":[-47.887597996829,-20.7203940012541]}},{"properties":{"name":"Pariquera-Açu (1)","id":"a6efuqzouv0n"},"type":"Feature","geometry":{"type":"Point","coordinates":[-47.883993000915,-24.7102189997816]}},{"properties":{"name":"Porto Feliz (1)","id":"a6efuqtcicnw"},"type":"Feature","geometry":{"type":"Point","coordinates":[-47.5239630073887,-23.2151949995344]}},{"properties":{"name":"Ubatuba (2)","id":"a6efuqsvehbz"},"type":"Feature","geometry":{"type":"Point","coordinates":[-45.0857099805127,-23.4338609876702]}}],"is_temporal":false,"author":{"url":"","metadata":"","contact_name":"","contact_address":"","source":"","contact_phone":""},"source":"","pagination":{"sort":null,"start":0,"total":13,"limit":1000000},"state":"complete","tags":"","published":"2014-08-10T21:53:41-04:00","id":68552}