{"type":"FeatureCollection","data_type":"Dataset","url_type":null,"permissions":[{"permissions":{"download":true,"view":true},"group_id":"everyone"}],"classification":null,"title":"Agencies","count":19,"stream_id":9090,"contributor":{"url":"http://geocommons.com/users/3718","name":"anpaly"},"data_attributes":null,"calculation_params":null,"icon_link":null,"link":"http://geocommons.com/overlays/9090.json","extent":[-86.254,41.2386,-85.837,41.9507],"geometry_types":["point"],"unique_name":null,"name":"Agencies","feature_count":19,"description":"","next_feature":null,"is_raster":false,"short_classification":"Y","stats":{"zip":{"max":49120,"mean":46851.5263157895,"variance":616078.152046784,"stdev":784.906460698842,"min":46516,"median":46613},"latitude":{"max":41.950737,"mean":41.6715146842105,"variance":0.0158985443251167,"stdev":0.126089429870694,"min":41.238565,"median":41.679058},"longitude":{"max":-85.836954,"mean":-86.1520453157895,"variance":0.0238334643874492,"stdev":0.154380906809907,"min":-86.254044,"median":-86.254044}},"features":[{"properties":{"address1":"721 Riverview Ave.","address2":"","zip":46516,"latitude":41.67536,"agency":"American Red Cross - Elkhart Co.","longitude":-85.956019,"id":"a659y3njthr5","citystate":"Elkhart, IN 46516"},"type":"Feature","geometry":{"type":"Point","coordinates":[-85.956019,41.67536]}},{"properties":{"address1":"3220 E. Jefferson Blvd.","address2":"","zip":46615,"latitude":41.679058,"agency":"American Red Cross - St. Joseph Co.","longitude":-86.254044,"id":"a659y3ux4lf2","citystate":"South Bend, IN  46615"},"type":"Feature","geometry":{"type":"Point","coordinates":[-86.254044,41.679058]}},{"properties":{"address1":"306 Crescent Street","address2":"","zip":46526,"latitude":41.58918,"agency":"Boys and Girls Club of Goshen","longitude":-85.836954,"id":"a659y3yocr6d","citystate":"Goshen, IN  46526"},"type":"Feature","geometry":{"type":"Point","coordinates":[-85.836954,41.58918]}},{"properties":{"address1":"504 North Bay Dr.","address2":"","zip":46580,"latitude":41.238565,"agency":"Cardinal Center","longitude":-85.852799,"id":"a659y3wi44xj","citystate":"Warsaw, IN  46580"},"type":"Feature","geometry":{"type":"Point","coordinates":[-85.852799,41.238565]}},{"properties":{"address1":"110 N. Broadway","address2":"","zip":49031,"latitude":41.950737,"agency":"Cass County CASA","longitude":-86.04046,"id":"a659y3ox4h57","citystate":"Cassopolis, MI  49031"},"type":"Feature","geometry":{"type":"Point","coordinates":[-86.04046,41.950737]}},{"properties":{"address1":"1817 Miami","address2":"","zip":46613,"latitude":41.679058,"agency":"Catholic Charities","longitude":-86.254044,"id":"a659y3psu2rl","citystate":"South Bend, IN  46613"},"type":"Feature","geometry":{"type":"Point","coordinates":[-86.254044,41.679058]}},{"properties":{"address1":"813 S. Michigan St.","address2":"","zip":46601,"latitude":41.679058,"agency":"Center for the Homeless","longitude":-86.254044,"id":"a659y3t820f9","citystate":"South Bend, IN  46601"},"type":"Feature","geometry":{"type":"Point","coordinates":[-86.254044,41.679058]}},{"properties":{"address1":"629 South Third Street","address2":"","zip":46516,"latitude":41.686765,"agency":"Church Community Services, Inc.","longitude":-85.975674,"id":"a659y3scp3p9","citystate":"Elkhart, IN  46516"},"type":"Feature","geometry":{"type":"Point","coordinates":[-85.975674,41.686765]}},{"properties":{"address1":"702 Chapin St.","address2":"","zip":46601,"latitude":41.679058,"agency":"Food Bank of Northern Indiana","longitude":-86.254044,"id":"a659y3rf4q1v","citystate":"South Bend, IN  46601"},"type":"Feature","geometry":{"type":"Point","coordinates":[-86.254044,41.679058]}},{"properties":{"address1":"2811 Beechwood Lane","address2":"","zip":46615,"latitude":41.676899,"agency":"Foundation for Music and Healing","longitude":-86.206268,"id":"a659y3nq88do","citystate":"South Bend, IN  46615"},"type":"Feature","geometry":{"type":"Point","coordinates":[-86.206268,41.676899]}},{"properties":{"address1":"3620 Deahl Court","address2":"","zip":46628,"latitude":41.679058,"agency":"Girls Scouts of Singing Sands Council, Inc.","longitude":-86.254044,"id":"a659y3vkkv2t","citystate":"South Bend, IN  46628"},"type":"Feature","geometry":{"type":"Point","coordinates":[-86.254044,41.679058]}},{"properties":{"address1":"216 N. Second Street","address2":"","zip":46516,"latitude":41.686765,"agency":"Guidance Ministries","longitude":-85.975674,"id":"a659y3z331vf","citystate":"Elkhart, IN  46516"},"type":"Feature","geometry":{"type":"Point","coordinates":[-85.975674,41.686765]}},{"properties":{"address1":"2004 Ironwood Circle","address2":"Ste. 140","zip":46635,"latitude":41.679058,"agency":"Juvenile Diabetes Assoc.","longitude":-86.254044,"id":"a659y3tkj96f","citystate":"South Bend, IN  46635"},"type":"Feature","geometry":{"type":"Point","coordinates":[-86.254044,41.679058]}},{"properties":{"address1":"401 E. Colfax","address2":"Suite 303","zip":46617,"latitude":41.679058,"agency":"KidsPeace","longitude":-86.254044,"id":"a659y3xdv2uv","citystate":"South Bend, IN  46617"},"type":"Feature","geometry":{"type":"Point","coordinates":[-86.254044,41.679058]}},{"properties":{"address1":"1402 S. Michigan St.","address2":"","zip":46613,"latitude":41.679058,"agency":"Life Treatment Centers","longitude":-86.254044,"id":"a659y3sfahpk","citystate":"South Bend, IN  46613"},"type":"Feature","geometry":{"type":"Point","coordinates":[-86.254044,41.679058]}},{"properties":{"address1":"P. O. Box 4073","address2":"","zip":46634,"latitude":41.679058,"agency":"Make a Difference Michiana","longitude":-86.254044,"id":"a659y3kyu56r","citystate":"South Bend, IN  46634"},"type":"Feature","geometry":{"type":"Point","coordinates":[-86.254044,41.679058]}},{"properties":{"address1":"117 N. Lafayette Blvd.","address2":"","zip":46601,"latitude":41.679058,"agency":"St. Margaret's House","longitude":-86.254044,"id":"a659y3te01mx","citystate":"South Bend, IN  46601"},"type":"Feature","geometry":{"type":"Point","coordinates":[-86.254044,41.679058]}},{"properties":{"address1":"1213 Oak Street","address2":"","zip":49120,"latitude":41.78487,"agency":"Volunteer Center of Southwestern Michigan","longitude":-86.250529,"id":"a659y3m0855u","citystate":"Niles, MI  49120"},"type":"Feature","geometry":{"type":"Point","coordinates":[-86.250529,41.78487]}},{"properties":{"address1":"1102 S. Fellows St.","address2":"","zip":46601,"latitude":41.679058,"agency":"YWCA of St. Joseph County","longitude":-86.254044,"id":"a659y3myw8vm","citystate":"South Bend, IN  46601"},"type":"Feature","geometry":{"type":"Point","coordinates":[-86.254044,41.679058]}}],"is_temporal":false,"author":{"url":"","metadata":"","contact_name":"","contact_address":"","source":"","contact_phone":""},"source":"","pagination":{"sort":null,"start":0,"total":19,"limit":1000000},"state":"complete","tags":"","published":"2014-08-11T10:26:38-04:00","id":9090}