{"type":"FeatureCollection","data_type":"Dataset","url_type":null,"permissions":[{"permissions":{"download":true,"view":true},"group_id":"everyone"}],"classification":null,"title":"Swine Operations      ","count":147,"stream_id":96103,"contributor":{"url":"http://geocommons.com/users/22318","name":"xinhao"},"data_attributes":null,"calculation_params":null,"icon_link":null,"link":"http://geocommons.com/overlays/96103.json","extent":[-78.2653,35.3644,-77.4825,35.8568],"geometry_types":["point"],"unique_name":null,"name":"Swine Operations      ","feature_count":147,"description":"","next_feature":null,"is_raster":false,"short_classification":"Y","stats":{},"features":[{"properties":{"name":"Four Hart Farms, Inc.","id":"a629vn3l75ym"},"type":"Feature","geometry":{"type":"Point","coordinates":[-77.4994,35.3644]}},{"properties":{"name":"Robert Wooten Jr. Farm","id":"a629vn5h99bp"},"type":"Feature","geometry":{"type":"Point","coordinates":[-77.6175,35.3708]}},{"properties":{"name":"Billy Dail Swine Farm","id":"a629vmw4jb6o"},"type":"Feature","geometry":{"type":"Point","coordinates":[-77.6639,35.3728]}},{"properties":{"name":"Mike Lancaster Swine Farm","id":"a629vn6dezuj"},"type":"Feature","geometry":{"type":"Point","coordinates":[-77.595,35.375]}},{"properties":{"name":"Henry Heath Farms","id":"a629vn4l3h3d"},"type":"Feature","geometry":{"type":"Point","coordinates":[-77.5903,35.3797]}},{"properties":{"name":"Carroll/DeWitt Jones Hog","id":"a629vn9vwchu"},"type":"Feature","geometry":{"type":"Point","coordinates":[-77.6633,35.3833]}},{"properties":{"name":"Jesse Oakes Nursery 1 &amp; 2","id":"a629vn0hj8ih"},"type":"Feature","geometry":{"type":"Point","coordinates":[-77.5739,35.3839]}},{"properties":{"name":"Dail Farm #2","id":"a629vmw14dso"},"type":"Feature","geometry":{"type":"Point","coordinates":[-77.6747,35.3847]}},{"properties":{"name":"Roger Johnson Swine Farm","id":"a629vn784bnp"},"type":"Feature","geometry":{"type":"Point","coordinates":[-77.7319,35.3847]}},{"properties":{"name":"Hardy Swine Farm","id":"a629vn34dwhj"},"type":"Feature","geometry":{"type":"Point","coordinates":[-77.6311,35.3856]}},{"properties":{"name":"Chapman Nursery","id":"a629vn9794i0"},"type":"Feature","geometry":{"type":"Point","coordinates":[-77.5686,35.3936]}},{"properties":{"name":"Gary Askew Swine Farm","id":"a629vn0s7puh"},"type":"Feature","geometry":{"type":"Point","coordinates":[-77.7431,35.3972]}},{"properties":{"name":"Hill Brothers Swine Farm","id":"a629vn26yc2f"},"type":"Feature","geometry":{"type":"Point","coordinates":[-77.6869,35.3992]}},{"properties":{"name":"Pine Ridge Farm","id":"a629vn14nlyg"},"type":"Feature","geometry":{"type":"Point","coordinates":[-77.5817,35.4011]}},{"properties":{"name":"Linwood Hall Farm","id":"a629vn56yhlh"},"type":"Feature","geometry":{"type":"Point","coordinates":[-77.7494,35.4056]}},{"properties":{"name":"Clay Ridge Farm","id":"a629vn00ixqh"},"type":"Feature","geometry":{"type":"Point","coordinates":[-77.5819,35.4194]}},{"properties":{"name":"Case Farm","id":"a629vn4979w7"},"type":"Feature","geometry":{"type":"Point","coordinates":[-77.7681,35.4225]}},{"properties":{"name":"Ham Town Farm","id":"a629vnazx5i2"},"type":"Feature","geometry":{"type":"Point","coordinates":[-77.7681,35.4225]}},{"properties":{"name":"Moye Farm","id":"a629vmxxjlv7"},"type":"Feature","geometry":{"type":"Point","coordinates":[-77.5367,35.4233]}},{"properties":{"name":"Windsor Barrow Swine Farm","id":"a629vn3shhc5"},"type":"Feature","geometry":{"type":"Point","coordinates":[-77.75,35.4256]}},{"properties":{"name":"Clifton Creech Farm","id":"a629vn9uh5q0"},"type":"Feature","geometry":{"type":"Point","coordinates":[-77.7839,35.4286]}},{"properties":{"name":"Chris Murphy Swine Farm","id":"a629vn71wmfd"},"type":"Feature","geometry":{"type":"Point","coordinates":[-77.75,35.4311]}},{"properties":{"name":"Virgil Turnage Farm","id":"a629vn4vq93u"},"type":"Feature","geometry":{"type":"Point","coordinates":[-77.8,35.4311]}},{"properties":{"name":"Best House Farm","id":"a629vn82osi7"},"type":"Feature","geometry":{"type":"Point","coordinates":[-77.7689,35.4317]}},{"properties":{"name":"Little Creek Hog Farm","id":"a629vmz2dtyo"},"type":"Feature","geometry":{"type":"Point","coordinates":[-77.5011,35.4347]}},{"properties":{"name":"Kearney Farms Inc","id":"a629vnaxrg51"},"type":"Feature","geometry":{"type":"Point","coordinates":[-77.7206,35.4358]}},{"properties":{"name":"Triple S Swine Farm","id":"a629vn2m1qvi"},"type":"Feature","geometry":{"type":"Point","coordinates":[-77.8153,35.4364]}},{"properties":{"name":"Harris Sandhill Sow","id":"a629vmxrndyx"},"type":"Feature","geometry":{"type":"Point","coordinates":[-77.7481,35.4367]}},{"properties":{"name":"Harper Brothers 1, 2, 3","id":"a629vmzck71j"},"type":"Feature","geometry":{"type":"Point","coordinates":[-77.7131,35.4372]}},{"properties":{"name":"Miller Farm","id":"a629vn0ctbmn"},"type":"Feature","geometry":{"type":"Point","coordinates":[-77.5603,35.4378]}},{"properties":{"name":"Edward's Bridge Farm","id":"a629vn1mapzd"},"type":"Feature","geometry":{"type":"Point","coordinates":[-77.4825,35.4394]}},{"properties":{"name":"Earl Barrow Farm","id":"a629vmyzsxpb"},"type":"Feature","geometry":{"type":"Point","coordinates":[-77.6567,35.44]}},{"properties":{"name":"M &amp; M Swine Farm","id":"a629vn11234d"},"type":"Feature","geometry":{"type":"Point","coordinates":[-77.7289,35.4408]}},{"properties":{"name":"Triple M Farms","id":"a629vmx6x7ry"},"type":"Feature","geometry":{"type":"Point","coordinates":[-77.5067,35.4425]}},{"properties":{"name":"Dirt Road #1, #2 &amp;#3","id":"a629vmzkafsj"},"type":"Feature","geometry":{"type":"Point","coordinates":[-77.5269,35.4431]}},{"properties":{"name":"Rick Harper Farm","id":"a629vnax83j8"},"type":"Feature","geometry":{"type":"Point","coordinates":[-77.6592,35.4519]}},{"properties":{"name":"Jimmy Dail Farm","id":"a629vn1qe9v6"},"type":"Feature","geometry":{"type":"Point","coordinates":[-77.5811,35.4533]}},{"properties":{"name":"Wood Lyon","id":"a629vmvvh1jz"},"type":"Feature","geometry":{"type":"Point","coordinates":[-77.5236,35.4556]}},{"properties":{"name":"Cross Creek Farm","id":"a629vn77nvvk"},"type":"Feature","geometry":{"type":"Point","coordinates":[-77.8169,35.4569]}},{"properties":{"name":"Piney Bottom Farm","id":"a629vn9h9ips"},"type":"Feature","geometry":{"type":"Point","coordinates":[-77.5208,35.4583]}},{"properties":{"name":"Barrow Nursery","id":"a629vmyacuzp"},"type":"Feature","geometry":{"type":"Point","coordinates":[-77.7847,35.4583]}},{"properties":{"name":"Ervin Wood &amp; Son Farms, Inc.","id":"a629vn6z8nct"},"type":"Feature","geometry":{"type":"Point","coordinates":[-77.5464,35.4603]}},{"properties":{"name":"H &amp; B Farms","id":"a629vnaah4sj"},"type":"Feature","geometry":{"type":"Point","coordinates":[-77.7686,35.4625]}},{"properties":{"name":"Kendall Howell Farm","id":"a629vn04jows"},"type":"Feature","geometry":{"type":"Point","coordinates":[-77.5578,35.4633]}},{"properties":{"name":"Exum Mills Sow","id":"a629vn1h4kln"},"type":"Feature","geometry":{"type":"Point","coordinates":[-77.8778,35.4653]}},{"properties":{"name":"John Gurley Finishing","id":"a629vmx7awzi"},"type":"Feature","geometry":{"type":"Point","coordinates":[-77.8287,35.4655]}},{"properties":{"name":"Danny Miller Swine Farm","id":"a629vmywqqv5"},"type":"Feature","geometry":{"type":"Point","coordinates":[-77.7447,35.4675]}},{"properties":{"name":"Red Hill Farm","id":"a629vn6hleyl"},"type":"Feature","geometry":{"type":"Point","coordinates":[-77.5089,35.4686]}},{"properties":{"name":"Dixon Swine Farm #1","id":"a629vna04ekk"},"type":"Feature","geometry":{"type":"Point","coordinates":[-77.6356,35.4714]}},{"properties":{"name":"Albritton Farm","id":"a629vn7pr3aa"},"type":"Feature","geometry":{"type":"Point","coordinates":[-77.6536,35.4722]}},{"properties":{"name":"Sandy Ridge Farm","id":"a629vn454xlb"},"type":"Feature","geometry":{"type":"Point","coordinates":[-77.4992,35.4731]}},{"properties":{"name":"Daw &amp; Son Farm","id":"a629vmzlylpw"},"type":"Feature","geometry":{"type":"Point","coordinates":[-77.9433,35.4736]}},{"properties":{"name":"Fort Run Sow Farm","id":"a629vn4d8r7w"},"type":"Feature","geometry":{"type":"Point","coordinates":[-77.7517,35.4744]}},{"properties":{"name":"Bullhead Farm","id":"a629vmuvqsev"},"type":"Feature","geometry":{"type":"Point","coordinates":[-77.7967,35.4744]}},{"properties":{"name":"Ralph Noble Farm","id":"a629vmyy169w"},"type":"Feature","geometry":{"type":"Point","coordinates":[-77.5731,35.4756]}},{"properties":{"name":"Ephraigm Smith Farm","id":"a629vmxxszui"},"type":"Feature","geometry":{"type":"Point","coordinates":[-77.9633,35.4756]}},{"properties":{"name":"Della Ginn Farm","id":"a629vn2v70bj"},"type":"Feature","geometry":{"type":"Point","coordinates":[-77.7425,35.4758]}},{"properties":{"name":"Rouse_s Chapel Farm","id":"a629vmvnpr4k"},"type":"Feature","geometry":{"type":"Point","coordinates":[-77.5228,35.4764]}},{"properties":{"name":"Seymour Farms","id":"a629vn7jyvfz"},"type":"Feature","geometry":{"type":"Point","coordinates":[-77.8028,35.4778]}},{"properties":{"name":"Wood Farms","id":"a629vn82bcaa"},"type":"Feature","geometry":{"type":"Point","coordinates":[-77.5806,35.4783]}},{"properties":{"name":"Nathan Smith Farm","id":"a629vn82hyu3"},"type":"Feature","geometry":{"type":"Point","coordinates":[-77.7806,35.4792]}},{"properties":{"name":"Robert Grant Farm","id":"a629vn9p3u00"},"type":"Feature","geometry":{"type":"Point","coordinates":[-77.7733,35.48]}},{"properties":{"name":"Pork Company Farm","id":"a629vmv1hqth"},"type":"Feature","geometry":{"type":"Point","coordinates":[-77.5867,35.4867]}},{"properties":{"name":"Rex Smith Farms Inc","id":"a629vmvrf05x"},"type":"Feature","geometry":{"type":"Point","coordinates":[-77.4972,35.4875]}},{"properties":{"name":"E.H. Dixon Swine Farm #2","id":"a629vn5a2bao"},"type":"Feature","geometry":{"type":"Point","coordinates":[-77.6103,35.4894]}},{"properties":{"name":"Blizzard Nursery &amp; Finishing","id":"a629vn8q7mt8"},"type":"Feature","geometry":{"type":"Point","coordinates":[-77.7408,35.4911]}},{"properties":{"name":"B&amp;P Pig Farm","id":"a629vmw9s9ol"},"type":"Feature","geometry":{"type":"Point","coordinates":[-77.8883,35.4961]}},{"properties":{"name":"C&amp;G Swine","id":"a629vn453u6h"},"type":"Feature","geometry":{"type":"Point","coordinates":[-77.8883,35.4961]}},{"properties":{"name":"Kenneth Dail Farm","id":"a629vn04pfoy"},"type":"Feature","geometry":{"type":"Point","coordinates":[-77.6383,35.4978]}},{"properties":{"name":"Edwards &amp; Edwards Farm","id":"a629vn8zastt"},"type":"Feature","geometry":{"type":"Point","coordinates":[-77.6417,35.5]}},{"properties":{"name":"Charles Chapman Nursery #1 - Nahunta #1","id":"a629vmx0yufl"},"type":"Feature","geometry":{"type":"Point","coordinates":[-77.7717,35.5]}},{"properties":{"name":"Dorothy Turnage Farm","id":"a629vn0ptudp"},"type":"Feature","geometry":{"type":"Point","coordinates":[-77.7833,35.5]}},{"properties":{"name":"T.E. Dawson Farm","id":"a629vn3jk2i1"},"type":"Feature","geometry":{"type":"Point","coordinates":[-77.7833,35.5]}},{"properties":{"name":"M &amp; M Hog Farm","id":"a629vn7l9evf"},"type":"Feature","geometry":{"type":"Point","coordinates":[-77.5075,35.5014]}},{"properties":{"name":"Wayne Lane Swine Farms","id":"a629vn5kq6i2"},"type":"Feature","geometry":{"type":"Point","coordinates":[-77.6711,35.5028]}},{"properties":{"name":"Smith Person Farm","id":"a629vmvn9gv8"},"type":"Feature","geometry":{"type":"Point","coordinates":[-77.9058,35.5061]}},{"properties":{"name":"Triple H #1","id":"a629vn10sovb"},"type":"Feature","geometry":{"type":"Point","coordinates":[-77.6897,35.5081]}},{"properties":{"name":"Flynn Grove","id":"a629vnac6y22"},"type":"Feature","geometry":{"type":"Point","coordinates":[-77.7028,35.5083]}},{"properties":{"name":"Brightleaf Farms I &amp; II","id":"a629vn8tgly3"},"type":"Feature","geometry":{"type":"Point","coordinates":[-77.8878,35.5111]}},{"properties":{"name":"Nahunta Sow #1, #2 &amp; Isolation","id":"a629vmzqh80p"},"type":"Feature","geometry":{"type":"Point","coordinates":[-77.9217,35.5111]}},{"properties":{"name":"Lindell 1&amp;2","id":"a629vnb26aug"},"type":"Feature","geometry":{"type":"Point","coordinates":[-77.8019,35.5119]}},{"properties":{"name":"Harper Swine Farm","id":"a629vmzx6z62"},"type":"Feature","geometry":{"type":"Point","coordinates":[-77.6044,35.5139]}},{"properties":{"name":"John Adams Swine Farm","id":"a629vn9menaj"},"type":"Feature","geometry":{"type":"Point","coordinates":[-77.6689,35.5153]}},{"properties":{"name":"White Oaks Farm Inc","id":"a629vmvjfkhf"},"type":"Feature","geometry":{"type":"Point","coordinates":[-77.9231,35.5161]}},{"properties":{"name":"J&amp;J Swine Farm","id":"a629vmxmts39"},"type":"Feature","geometry":{"type":"Point","coordinates":[-77.6431,35.5175]}},{"properties":{"name":"Triple H #2","id":"a629vn9ck0hz"},"type":"Feature","geometry":{"type":"Point","coordinates":[-77.6847,35.5181]}},{"properties":{"name":"Carson/Collyn Beaman Farm","id":"a629vmybsej9"},"type":"Feature","geometry":{"type":"Point","coordinates":[-77.6917,35.5194]}},{"properties":{"name":"Yelverton Farms Ltd","id":"a629vmzzv5mo"},"type":"Feature","geometry":{"type":"Point","coordinates":[-77.8653,35.5194]}},{"properties":{"name":"David Murphrey Farm","id":"a629vn651eln"},"type":"Feature","geometry":{"type":"Point","coordinates":[-77.62,35.52]}},{"properties":{"name":"Russ Jones Farm","id":"a629vn4j2anb"},"type":"Feature","geometry":{"type":"Point","coordinates":[-77.6333,35.5203]}},{"properties":{"name":"Vandiford Swine Farm","id":"a629vn582d17"},"type":"Feature","geometry":{"type":"Point","coordinates":[-77.5994,35.5231]}},{"properties":{"name":"Thomas Hardy Farms","id":"a629vmylpqr9"},"type":"Feature","geometry":{"type":"Point","coordinates":[-77.5819,35.5247]}},{"properties":{"name":"Lee T. Jones Farm","id":"a629vn21rq2w"},"type":"Feature","geometry":{"type":"Point","coordinates":[-77.5881,35.525]}},{"properties":{"name":"Sugg Farm","id":"a629vn34krvi"},"type":"Feature","geometry":{"type":"Point","coordinates":[-77.6389,35.5258]}},{"properties":{"name":"Vance Taylor Swine Farm","id":"a629vn1cwxpk"},"type":"Feature","geometry":{"type":"Point","coordinates":[-77.6408,35.5272]}},{"properties":{"name":"Carroll Farm","id":"a629vn696fho"},"type":"Feature","geometry":{"type":"Point","coordinates":[-77.5847,35.53]}},{"properties":{"name":"N &amp; W Pig Farms","id":"a629vmznxgue"},"type":"Feature","geometry":{"type":"Point","coordinates":[-77.9078,35.5311]}},{"properties":{"name":"Cunningham Farms #1 &amp; 2","id":"a629vn7drv1v"},"type":"Feature","geometry":{"type":"Point","coordinates":[-77.7403,35.5317]}},{"properties":{"name":"Cunningham Hog Farm","id":"a629vmy0g6i1"},"type":"Feature","geometry":{"type":"Point","coordinates":[-77.6956,35.5319]}},{"properties":{"name":"B &amp; W Swine Farm","id":"a629vn3jxq4l"},"type":"Feature","geometry":{"type":"Point","coordinates":[-77.7153,35.5319]}},{"properties":{"name":"Everette Murphrey Farm","id":"a629vn9l8f8m"},"type":"Feature","geometry":{"type":"Point","coordinates":[-77.5619,35.5333]}},{"properties":{"name":"Roy Jones Farm","id":"a629vmvfhh1t"},"type":"Feature","geometry":{"type":"Point","coordinates":[-77.7256,35.5336]}},{"properties":{"name":"Collyn Beaman Farm","id":"a629vmx4er8n"},"type":"Feature","geometry":{"type":"Point","coordinates":[-77.6228,35.5344]}},{"properties":{"name":"Hinson Nursery #1 &amp; #2","id":"a629vmxwbmx3"},"type":"Feature","geometry":{"type":"Point","coordinates":[-77.9433,35.5347]}},{"properties":{"name":"J.L.M. Parker Farms LLC","id":"a629vn5o52kf"},"type":"Feature","geometry":{"type":"Point","coordinates":[-77.6347,35.5353]}},{"properties":{"name":"Hinson Farm","id":"a629vn9vvpft"},"type":"Feature","geometry":{"type":"Point","coordinates":[-77.66,35.5433]}},{"properties":{"name":"Roy Jones Farm #2","id":"a629vn5r5ofi"},"type":"Feature","geometry":{"type":"Point","coordinates":[-77.7256,35.5442]}},{"properties":{"name":"Jack &amp; Jerry Cunningham Farms","id":"a629vn4hl9t5"},"type":"Feature","geometry":{"type":"Point","coordinates":[-77.7278,35.5456]}},{"properties":{"name":"Al Murray Farm","id":"a629vnaos399"},"type":"Feature","geometry":{"type":"Point","coordinates":[-77.7917,35.5486]}},{"properties":{"name":"Maranatha Nursery #1 &amp; #2","id":"a629vn6hcuml"},"type":"Feature","geometry":{"type":"Point","coordinates":[-78.0686,35.5492]}},{"properties":{"name":"Crossroads Farm","id":"a629vmw7r0w9"},"type":"Feature","geometry":{"type":"Point","coordinates":[-77.8167,35.55]}},{"properties":{"name":"H.F. Strickland Farm","id":"a629vn95rhpy"},"type":"Feature","geometry":{"type":"Point","coordinates":[-77.5722,35.5567]}},{"properties":{"name":"Sauls Nursery","id":"a629vmwwu1yc"},"type":"Feature","geometry":{"type":"Point","coordinates":[-77.8803,35.5642]}},{"properties":{"name":"J&amp;H Milling Co - Shirley Farm","id":"a629vn5lv0bk"},"type":"Feature","geometry":{"type":"Point","coordinates":[-77.7056,35.5664]}},{"properties":{"name":"Gay Farms","id":"a629vn6dsiw8"},"type":"Feature","geometry":{"type":"Point","coordinates":[-77.7439,35.5708]}},{"properties":{"name":"Hooks Nursery","id":"a629vn8vu49t"},"type":"Feature","geometry":{"type":"Point","coordinates":[-78.005,35.5708]}},{"properties":{"name":"Ballance Brothers Partnership","id":"a629vn7giye3"},"type":"Feature","geometry":{"type":"Point","coordinates":[-77.9283,35.5736]}},{"properties":{"name":"Stantonsburg Farm","id":"a629vn23cpvm"},"type":"Feature","geometry":{"type":"Point","coordinates":[-77.7722,35.5917]}},{"properties":{"name":"Joyner Daniels","id":"a629vn1jbftu"},"type":"Feature","geometry":{"type":"Point","coordinates":[-77.6667,35.5958]}},{"properties":{"name":"Allen Farm","id":"a629vn4cq657"},"type":"Feature","geometry":{"type":"Point","coordinates":[-77.5489,35.5997]}},{"properties":{"name":"J.R. Lewis Farms","id":"a629vn6dts7p"},"type":"Feature","geometry":{"type":"Point","coordinates":[-77.6506,35.6072]}},{"properties":{"name":"BNJ Farms","id":"a629vn5ecws7"},"type":"Feature","geometry":{"type":"Point","coordinates":[-77.8792,35.6208]}},{"properties":{"name":"Evans &amp; Sons Topping","id":"a629vn6nd3nd"},"type":"Feature","geometry":{"type":"Point","coordinates":[-77.5967,35.6297]}},{"properties":{"name":"Holloman Farm","id":"a629vn544kik"},"type":"Feature","geometry":{"type":"Point","coordinates":[-77.7342,35.63]}},{"properties":{"name":"George Bailey Farms (Galloway Farm)","id":"a629vn0t09th"},"type":"Feature","geometry":{"type":"Point","coordinates":[-77.7047,35.6431]}},{"properties":{"name":"Evans &amp; Sons Farm #2","id":"a629vn5itbpa"},"type":"Feature","geometry":{"type":"Point","coordinates":[-77.6,35.6433]}},{"properties":{"name":"Evans &amp; Sons Farm #1","id":"a629vn3acsxs"},"type":"Feature","geometry":{"type":"Point","coordinates":[-77.5881,35.6467]}},{"properties":{"name":"Bailey Swine Farm","id":"a629vn74xw7h"},"type":"Feature","geometry":{"type":"Point","coordinates":[-77.7044,35.6467]}},{"properties":{"name":"Chester Ray Norville Farm","id":"a629vn1j4a33"},"type":"Feature","geometry":{"type":"Point","coordinates":[-77.6767,35.6494]}},{"properties":{"name":"Beaver Branch Farm","id":"a629vn9mhx19"},"type":"Feature","geometry":{"type":"Point","coordinates":[-77.8222,35.7]}},{"properties":{"name":"Kathy Eatmon #1","id":"a629vn7ul4l1"},"type":"Feature","geometry":{"type":"Point","coordinates":[-77.8117,35.705]}},{"properties":{"name":"Sharp Farms","id":"a629vn9twjw8"},"type":"Feature","geometry":{"type":"Point","coordinates":[-78.115,35.7086]}},{"properties":{"name":"Billy T. Nichols Farm","id":"a629vn4x94vf"},"type":"Feature","geometry":{"type":"Point","coordinates":[-78.0583,35.7167]}},{"properties":{"name":"Strother Swine Farm","id":"a629vn3wy8xl"},"type":"Feature","geometry":{"type":"Point","coordinates":[-78.085,35.7181]}},{"properties":{"name":"Moore Farm","id":"a629vn9ms0af"},"type":"Feature","geometry":{"type":"Point","coordinates":[-77.8681,35.7208]}},{"properties":{"name":"Bill_s Pig Farm","id":"a629vn6jzara"},"type":"Feature","geometry":{"type":"Point","coordinates":[-78.0806,35.725]}},{"properties":{"name":"Lawton &amp; Bradley Nichols Farm","id":"a629vn94qr1i"},"type":"Feature","geometry":{"type":"Point","coordinates":[-78.0917,35.7417]}},{"properties":{"name":"Spring Branch Farm","id":"a629vn4rxkav"},"type":"Feature","geometry":{"type":"Point","coordinates":[-78.2278,35.7647]}},{"properties":{"name":"Murray Swine Enterprises Inc","id":"a629vn2v98k3"},"type":"Feature","geometry":{"type":"Point","coordinates":[-78.0667,35.7667]}},{"properties":{"name":"Three G Farms","id":"a629vnaocx7l"},"type":"Feature","geometry":{"type":"Point","coordinates":[-78.2361,35.7672]}},{"properties":{"name":"Wilbur Creech Farm","id":"a629vmz7a99k"},"type":"Feature","geometry":{"type":"Point","coordinates":[-78.2433,35.7683]}},{"properties":{"name":"Brooks Creech Farm","id":"a629vmydhj3h"},"type":"Feature","geometry":{"type":"Point","coordinates":[-78.2653,35.7892]}},{"properties":{"name":"Brantley Farm","id":"a629vn2su7aj"},"type":"Feature","geometry":{"type":"Point","coordinates":[-78.0592,35.8078]}},{"properties":{"name":"Green Pond Farm","id":"a629vmyxfp7y"},"type":"Feature","geometry":{"type":"Point","coordinates":[-78.0475,35.8156]}},{"properties":{"name":"Perry Farm","id":"a629vn49kvly"},"type":"Feature","geometry":{"type":"Point","coordinates":[-78.0475,35.8156]}},{"properties":{"name":"Harris Farming Corp.","id":"a629vmxt5cqh"},"type":"Feature","geometry":{"type":"Point","coordinates":[-78.1454,35.827]}},{"properties":{"name":"Middlesex Sow Farm","id":"a629vmz5fyb8"},"type":"Feature","geometry":{"type":"Point","coordinates":[-78.1358,35.8568]}}],"is_temporal":false,"author":{"url":"","metadata":"","contact_name":"","contact_address":"","source":"","contact_phone":""},"source":"","pagination":{"sort":null,"start":0,"total":147,"limit":1000000},"state":"complete","tags":"operations,swine","published":"2014-08-10T20:07:04-04:00","id":96103}