{"type":"FeatureCollection","data_type":"Dataset","url_type":null,"permissions":[{"permissions":{"download":true,"view":true},"group_id":"everyone"}],"classification":null,"title":"Reg07","count":9,"stream_id":98334,"contributor":{"url":"http://geocommons.com/users/22816","name":"Tomscarr"},"data_attributes":null,"calculation_params":null,"icon_link":null,"link":"http://geocommons.com/overlays/98334.json","extent":[-9.10652,51.8983,-6.22505,53.4603],"geometry_types":["point"],"unique_name":null,"name":"Reg07","feature_count":9,"description":"","next_feature":null,"is_raster":false,"short_classification":"Y","stats":{"latitude":{"max":53.46027,"mean":52.9831003333333,"variance":0.324602999032,"stdev":0.569739413268908,"min":51.898338,"median":53.287991},"longitude":{"max":-6.22505,"mean":-7.43316322222222,"variance":1.24621041552344,"stdev":1.11633794861746,"min":-9.10652,"median":-7.11087}},"features":[{"properties":{"latitude":53.42326,"region":"Reg07","store name":"ATHLONE","store code":"ATH991","division":"ROI","longitude":-7.9371,"id":"a6hszmmpj0f3","store address":"Unit 1, Arcadia Centre, One Mile Round Road,  Athlone, Co. Westmeath, EIRE."},"type":"Feature","geometry":{"type":"Point","coordinates":[-7.9371,53.42326]}},{"properties":{"latitude":53.217731,"region":"Reg07","store name":"NAAS","store code":"CCS411","division":"ROI","longitude":-6.66384,"id":"a6hszmj0uqyn","store address":"Newhall Retail Park, Newbridge Road, Jigginston, Naas. Co Kildare"},"type":"Feature","geometry":{"type":"Point","coordinates":[-6.66384,53.217731]}},{"properties":{"latitude":53.289478,"region":"Reg07","store name":"GALWAY","store code":"GAL850","division":"ROI","longitude":-9.10652,"id":"a6hszmqq1jy8","store address":"Galway West District Centre, Western Distributor Road, Rahoon, County Galway. EIRE."},"type":"Feature","geometry":{"type":"Point","coordinates":[-9.10652,53.289478]}},{"properties":{"latitude":53.347865,"region":"Reg07","store name":"LIFFEY VALLEY DUBLIN","store code":"LIF722","division":"ROI","longitude":-6.395469,"id":"a6hszmqdsifp","store address":"Liffey Valley Retail Park East, Coldcut Road, Clondalkin, Dublin. 22"},"type":"Feature","geometry":{"type":"Point","coordinates":[-6.395469,53.347865]}},{"properties":{"latitude":52.660969,"region":"Reg07","store name":"LIMERICK","store code":"LIM993","division":"ROI","longitude":-8.63261,"id":"a6hszmplmq5u","store address":"City East Retail Park, Tipperary Road, Limerick, EIRE."},"type":"Feature","geometry":{"type":"Point","coordinates":[-8.63261,52.660969]}},{"properties":{"latitude":51.898338,"region":"Reg07","store name":"CORK","store code":"SCO441","division":"ROI","longitude":-8.47277,"id":"a6hszmpb0z0g","store address":"Mahon Point, Mahon, Cork, Eire"},"type":"Feature","geometry":{"type":"Point","coordinates":[-8.47277,51.898338]}},{"properties":{"latitude":53.46027,"region":"Reg07","store name":"SWORDS","store code":"SDS875","division":"ROI","longitude":-6.22505,"id":"a6hszmvs0cj5","store address":"Airside Retial Park, Swords, Dublin. Eire"},"type":"Feature","geometry":{"type":"Point","coordinates":[-6.22505,53.46027]}},{"properties":{"latitude":53.287991,"region":"Reg07","store name":"TALLAGHT","store code":"TAL860","division":"ROI","longitude":-6.35424,"id":"a6hszmhebrga","store address":"Belgard Retail Park, Belgard Road, Tallaght, Dublin.  24 Eire"},"type":"Feature","geometry":{"type":"Point","coordinates":[-6.35424,53.287991]}},{"properties":{"latitude":52.262001,"region":"Reg07","store name":"WATERFORD","store code":"WAT331","division":"ROI","longitude":-7.11087,"id":"a6hszmq22z10","store address":"Butlerstown Retail Park, Cork Road, Butlerstown, Waterford, Eire"},"type":"Feature","geometry":{"type":"Point","coordinates":[-7.11087,52.262001]}}],"is_temporal":false,"author":{"url":"","metadata":"","contact_name":"","contact_address":"","source":"","contact_phone":""},"source":"","pagination":{"sort":null,"start":0,"total":9,"limit":1000000},"state":"complete","tags":"","published":"2014-08-10T22:29:50-04:00","id":98334}