{"type":"FeatureCollection","data_type":"Dataset","url_type":null,"permissions":[{"permissions":{"download":true,"view":true},"group_id":"everyone"}],"classification":null,"title":"Relationship of stream flow alteration to biotic integrity for a selection of US streams","count":274,"stream_id":99679,"contributor":{"url":"http://geocommons.com/users/1318","name":"fbiasi"},"data_attributes":null,"calculation_params":null,"icon_link":null,"link":"http://geocommons.com/overlays/99679.json","extent":[-123.33,30.4829,-71.007,48.151],"geometry_types":["point"],"unique_name":null,"name":"Relationship of stream flow alteration to biotic integrity for a selection of US streams","feature_count":274,"description":"USGS NAWQA Program research.  Data compiled by D Carlisle, March 10, 2011. See Carlisle, et al. published on line 2010, Frontiers in Ecology and the Environment: http://www.esajournals.org/doi/abs/10.1890/100053","next_feature":null,"is_raster":false,"short_classification":"Y","stats":{"latitude":{"max":48.15103861,"variance":12.5732208357952,"mean":40.5005526198175,"stdev":3.54587377606637,"min":30.48288889,"median":40.68898944},"date":{"max":"2005/09/20 00:00:00 -0400","variance":1.11312876579988e+16,"mean":"1998/09/04 08:56:42 -0400","stdev":105504917.695806,"min":"1993/06/16 00:00:00 -0400","median":"1998/07/21 00:00:00 -0400"},"bio_oe":{"max":1.0,"variance":0.0469328747894442,"mean":0.781934306569343,"stdev":0.216639965817585,"min":0.06,"median":0.83},"maxflow_oe":{"max":3.01,"variance":0.226306041282319,"mean":0.768868613138686,"stdev":0.475716345401667,"min":0.02,"median":0.69},"year":{"max":2005,"variance":11.2630678324109,"mean":1998.06569343066,"stdev":3.35604943831448,"min":1993,"median":1998},"longitude":{"max":-71.00699528,"variance":262.442056479996,"mean":-92.4080699971898,"stdev":16.2000634714805,"min":-123.3298869,"median":-88.34118806},"minflow_oe":{"max":16.58,"variance":2.71233830245181,"mean":1.42558394160584,"stdev":1.64691781897331,"min":0.0,"median":1.11}},"features":[{"properties":{"name":"ZOLLNER CREEK NEAR MT ANGEL, OR","latitude":45.10039806,"date":{"end_time":"2003/09/17 00:00:00 -0400","original":"16-Sep-03","granularity":"day","time":"2003/09/16 00:00:00 -0400"},"bioid":"T14201300","bio_condition":"poor","id":"a672kjsd5hbi","bio_oe":0.06,"maxflow_oe":0.6,"year":2003,"longitude":-122.8217594,"minflow_oe":0.07},"type":"Feature","geometry":{"type":"Point","coordinates":[-122.8217594,45.10039806]}},{"properties":{"name":"MONONGAHELA RIVER AT BRADDOCK, PA","latitude":40.39118024,"date":{"end_time":"1998/07/18 00:00:00 -0400","original":"17-Jul-98","granularity":"day","time":"1998/07/17 00:00:00 -0400"},"bioid":"T03085000","bio_condition":"poor","id":"a672kjvc0c37","bio_oe":0.09,"maxflow_oe":0.54,"year":1998,"longitude":-79.8581042,"minflow_oe":3.65},"type":"Feature","geometry":{"type":"Point","coordinates":[-79.8581042,40.39118024]}},{"properties":{"name":"MOHAWK RIVER AT COHOES NY","latitude":42.78535559,"date":{"end_time":"1998/09/12 00:00:00 -0400","original":"11-Sep-98","granularity":"day","time":"1998/09/11 00:00:00 -0400"},"bioid":"T01357500","bio_condition":"poor","id":"a672kjubxr30","bio_oe":0.09,"maxflow_oe":0.81,"year":1998,"longitude":-73.70761877,"minflow_oe":1.52},"type":"Feature","geometry":{"type":"Point","coordinates":[-73.70761877,42.78535559]}},{"properties":{"name":"CYPRESS SWAMP AT CYPRESS CHAPEL, VA","latitude":36.62348472,"date":{"end_time":"1994/01/28 00:00:00 -0500","original":"27-Jan-94","granularity":"day","time":"1994/01/27 00:00:00 -0500"},"bioid":"T02043500","bio_condition":"poor","id":"a672kjzcxuwa","bio_oe":0.27,"maxflow_oe":1.22,"year":1994,"longitude":-76.60161833,"minflow_oe":0.0},"type":"Feature","geometry":{"type":"Point","coordinates":[-76.60161833,36.62348472]}},{"properties":{"name":"TENSAS R @ TENDAL, LA","latitude":32.43208694,"date":{"end_time":"1999/09/02 00:00:00 -0400","original":"1-Sep-99","granularity":"day","time":"1999/09/01 00:00:00 -0400"},"bioid":"T07369500","bio_condition":"poor","id":"a672kjw3vruu","bio_oe":0.27,"maxflow_oe":0.24,"year":1999,"longitude":-91.36678139,"minflow_oe":0.32},"type":"Feature","geometry":{"type":"Point","coordinates":[-91.36678139,32.43208694]}},{"properties":{"name":"ABERJONA RIVER AT WINCHESTER, MA","latitude":42.44731778,"date":{"end_time":"2003/08/20 00:00:00 -0400","original":"19-Aug-03","granularity":"day","time":"2003/08/19 00:00:00 -0400"},"bioid":"T01102500","bio_condition":"poor","id":"a672kk38rjt6","bio_oe":0.28,"maxflow_oe":1.01,"year":2003,"longitude":-71.13894278,"minflow_oe":0.9},"type":"Feature","geometry":{"type":"Point","coordinates":[-71.13894278,42.44731778]}},{"properties":{"name":"DELAWARE RIVER AT TRENTON NJ","latitude":40.22166667,"date":{"end_time":"1999/09/16 00:00:00 -0400","original":"15-Sep-99","granularity":"day","time":"1999/09/15 00:00:00 -0400"},"bioid":"T01463500","bio_condition":"poor","id":"a672kjomwk35","bio_oe":0.31,"maxflow_oe":0.52,"year":1999,"longitude":-74.77805556,"minflow_oe":2.53},"type":"Feature","geometry":{"type":"Point","coordinates":[-74.77805556,40.22166667]}},{"properties":{"name":"YAKIMA RIVER AT KIONA, WA","latitude":46.2534675,"date":{"end_time":"2005/08/31 00:00:00 -0400","original":"30-Aug-05","granularity":"day","time":"2005/08/30 00:00:00 -0400"},"bioid":"T12510500","bio_condition":"poor","id":"a672kjojv5mh","bio_oe":0.31,"maxflow_oe":0.22,"year":2005,"longitude":-119.4780794,"minflow_oe":1.11},"type":"Feature","geometry":{"type":"Point","coordinates":[-119.4780794,46.2534675]}},{"properties":{"name":"POWDER RIVER NEAR LOCATE, MT.","latitude":46.43000386,"date":{"end_time":"1999/09/27 00:00:00 -0400","original":"26-Sep-99","granularity":"day","time":"1999/09/26 00:00:00 -0400"},"bioid":"T06326500","bio_condition":"poor","id":"a672kjoyml8g","bio_oe":0.31,"maxflow_oe":0.17,"year":1999,"longitude":-105.309983,"minflow_oe":0.14},"type":"Feature","geometry":{"type":"Point","coordinates":[-105.309983,46.43000386]}},{"properties":{"name":"LITTLE POWDER RIVER AB DRY CREEK, NEAR WESTON, WY","latitude":44.92692882,"date":{"end_time":"2002/07/11 00:00:00 -0400","original":"10-Jul-02","granularity":"day","time":"2002/07/10 00:00:00 -0400"},"bioid":"T06324970","bio_condition":"poor","id":"a672kjntgflq","bio_oe":0.31,"maxflow_oe":0.09,"year":2002,"longitude":-105.3533268,"minflow_oe":0.01},"type":"Feature","geometry":{"type":"Point","coordinates":[-105.3533268,44.92692882]}},{"properties":{"name":"BEAR RIVER AT IDAHO-UTAH STATE LINE","latitude":42.01298083,"date":{"end_time":"2001/08/17 00:00:00 -0400","original":"16-Aug-01","granularity":"day","time":"2001/08/16 00:00:00 -0400"},"bioid":"T10092700","bio_condition":"poor","id":"a672kjno3kk7","bio_oe":0.32,"maxflow_oe":0.18,"year":2001,"longitude":-111.92134,"minflow_oe":0.96},"type":"Feature","geometry":{"type":"Point","coordinates":[-111.92134,42.01298083]}},{"properties":{"name":"DES PLAINES RIVER AT RUSSELL, IL","latitude":42.48918694,"date":{"end_time":"2001/08/09 00:00:00 -0400","original":"8-Aug-01","granularity":"day","time":"2001/08/08 00:00:00 -0400"},"bioid":"T05527800","bio_condition":"poor","id":"a672kjzcdx2e","bio_oe":0.32,"maxflow_oe":0.62,"year":2001,"longitude":-87.92646639,"minflow_oe":0.11},"type":"Feature","geometry":{"type":"Point","coordinates":[-87.92646639,42.48918694]}},{"properties":{"name":"WEBER RIVER NEAR PLAIN CITY, UT","latitude":41.27827667,"date":{"end_time":"1999/08/24 00:00:00 -0400","original":"23-Aug-99","granularity":"day","time":"1999/08/23 00:00:00 -0400"},"bioid":"T10141000","bio_condition":"poor","id":"a672kjs5glo4","bio_oe":0.33,"maxflow_oe":0.32,"year":1999,"longitude":-112.0918867,"minflow_oe":0.47},"type":"Feature","geometry":{"type":"Point","coordinates":[-112.0918867,41.27827667]}},{"properties":{"name":"FANNO CREEK AT DURHAM, OR","latitude":45.40345194,"date":{"end_time":"2005/09/21 00:00:00 -0400","original":"20-Sep-05","granularity":"day","time":"2005/09/20 00:00:00 -0400"},"bioid":"T14206950","bio_condition":"poor","id":"a672kjy6dirw","bio_oe":0.33,"maxflow_oe":0.7,"year":2005,"longitude":-122.7548186,"minflow_oe":0.97},"type":"Feature","geometry":{"type":"Point","coordinates":[-122.7548186,45.40345194]}},{"properties":{"name":"SALUDA RIVER NEAR COLUMBIA, SC","latitude":34.01404167,"date":{"end_time":"1998/08/29 00:00:00 -0400","original":"28-Aug-98","granularity":"day","time":"1998/08/28 00:00:00 -0400"},"bioid":"T02169000","bio_condition":"poor","id":"a672kk1i1gwz","bio_oe":0.34,"maxflow_oe":0.31,"year":1998,"longitude":-81.08787167,"minflow_oe":1.3},"type":"Feature","geometry":{"type":"Point","coordinates":[-81.08787167,34.01404167]}},{"properties":{"name":"BEAR RIVER BELOW RESERVOIR, NEAR WOODRUFF, UT","latitude":41.50550111,"date":{"end_time":"2001/08/22 00:00:00 -0400","original":"21-Aug-01","granularity":"day","time":"2001/08/21 00:00:00 -0400"},"bioid":"T10020300","bio_condition":"poor","id":"a672kjr8aww3","bio_oe":0.36,"maxflow_oe":0.7,"year":2001,"longitude":-111.0146317,"minflow_oe":0.52},"type":"Feature","geometry":{"type":"Point","coordinates":[-111.0146317,41.50550111]}},{"properties":{"name":"SNAKE R NR MINIDOKA ID (AT HOWELLS FERRY)","latitude":42.67277778,"date":{"end_time":"1996/07/31 00:00:00 -0400","original":"30-Jul-96","granularity":"day","time":"1996/07/30 00:00:00 -0400"},"bioid":"T13081500","bio_condition":"poor","id":"a672kjt2b7og","bio_oe":0.38,"maxflow_oe":0.22,"year":1996,"longitude":-113.5002778,"minflow_oe":0.29},"type":"Feature","geometry":{"type":"Point","coordinates":[-113.5002778,42.67277778]}},{"properties":{"name":"VAN SWAMP NEAR HOKE, NC","latitude":35.73083333,"date":{"end_time":"2003/08/08 00:00:00 -0400","original":"7-Aug-03","granularity":"day","time":"2003/08/07 00:00:00 -0400"},"bioid":"T02084557","bio_condition":"poor","id":"a672kjpteivy","bio_oe":0.38,"maxflow_oe":0.49,"year":2003,"longitude":-76.74611111,"minflow_oe":0.07},"type":"Feature","geometry":{"type":"Point","coordinates":[-76.74611111,35.73083333]}},{"properties":{"name":"THORNTON CREEK NEAR SEATTLE, WA","latitude":47.69565389,"date":{"end_time":"2005/08/19 00:00:00 -0400","original":"18-Aug-05","granularity":"day","time":"2005/08/18 00:00:00 -0400"},"bioid":"T12128000","bio_condition":"poor","id":"a672kk1uivyb","bio_oe":0.38,"maxflow_oe":0.37,"year":2005,"longitude":-122.2762369,"minflow_oe":0.92},"type":"Feature","geometry":{"type":"Point","coordinates":[-122.2762369,47.69565389]}},{"properties":{"name":"ST. VRAIN CREEK AT MOUTH, NEAR PLATTEVILLE, CO.","latitude":40.25803869,"date":{"end_time":"1995/09/08 00:00:00 -0400","original":"7-Sep-95","granularity":"day","time":"1995/09/07 00:00:00 -0400"},"bioid":"T06731000","bio_condition":"poor","id":"a672kjzgzxz1","bio_oe":0.39,"maxflow_oe":0.62,"year":1995,"longitude":-104.879696,"minflow_oe":1.52},"type":"Feature","geometry":{"type":"Point","coordinates":[-104.879696,40.25803869]}},{"properties":{"name":"TUALATIN RIVER AT WEST LINN, OR","latitude":45.35067556,"date":{"end_time":"1993/08/19 00:00:00 -0400","original":"18-Aug-93","granularity":"day","time":"1993/08/18 00:00:00 -0400"},"bioid":"T14207500","bio_condition":"poor","id":"a672kjoaiyri","bio_oe":0.42,"maxflow_oe":0.27,"year":1993,"longitude":-122.6762044,"minflow_oe":1.17},"type":"Feature","geometry":{"type":"Point","coordinates":[-122.6762044,45.35067556]}},{"properties":{"name":"STONYCREEK RIVER AT FERNDALE, PA","latitude":40.28563049,"date":{"end_time":"1997/09/23 00:00:00 -0400","original":"22-Sep-97","granularity":"day","time":"1997/09/22 00:00:00 -0400"},"bioid":"T03040000","bio_condition":"poor","id":"a672kjqgqi6s","bio_oe":0.43,"maxflow_oe":0.97,"year":1997,"longitude":-78.92058056,"minflow_oe":2.27},"type":"Feature","geometry":{"type":"Point","coordinates":[-78.92058056,40.28563049]}},{"properties":{"name":"SWAN RIVER AT EAST PATCHOGUE NY","latitude":40.83037639,"date":{"end_time":"1996/09/04 00:00:00 -0400","original":"3-Sep-96","granularity":"day","time":"1996/09/03 00:00:00 -0400"},"bioid":"T01305500","bio_condition":"poor","id":"a672kjwbe9gf","bio_oe":0.43,"maxflow_oe":0.17,"year":1996,"longitude":-72.90621528,"minflow_oe":1.78},"type":"Feature","geometry":{"type":"Point","coordinates":[-72.90621528,40.83037639]}},{"properties":{"name":"MASSAPEQUA CREEK AT MASSAPEQUA NY","latitude":40.68898944,"date":{"end_time":"1996/09/06 00:00:00 -0400","original":"5-Sep-96","granularity":"day","time":"1996/09/05 00:00:00 -0400"},"bioid":"T01309500","bio_condition":"poor","id":"a672kjt4poka","bio_oe":0.43,"maxflow_oe":0.06,"year":1996,"longitude":-73.45484611,"minflow_oe":0.06},"type":"Feature","geometry":{"type":"Point","coordinates":[-73.45484611,40.68898944]}},{"properties":{"name":"SCHUYLKILL RIVER AT PHILADELPHIA, PA","latitude":39.96789056,"date":{"end_time":"2001/08/22 00:00:00 -0400","original":"21-Aug-01","granularity":"day","time":"2001/08/21 00:00:00 -0400"},"bioid":"T01474500","bio_condition":"poor","id":"a672kk15mcys","bio_oe":0.44,"maxflow_oe":0.79,"year":2001,"longitude":-75.18851222,"minflow_oe":1.79},"type":"Feature","geometry":{"type":"Point","coordinates":[-75.18851222,39.96789056]}},{"properties":{"name":"COOPER RIVER AT HADDONFIELD NJ","latitude":39.90305556,"date":{"end_time":"2001/08/07 00:00:00 -0400","original":"6-Aug-01","granularity":"day","time":"2001/08/06 00:00:00 -0400"},"bioid":"T01467150","bio_condition":"poor","id":"a672kjwfijxb","bio_oe":0.45,"maxflow_oe":1.39,"year":2001,"longitude":-75.02138889,"minflow_oe":2.77},"type":"Feature","geometry":{"type":"Point","coordinates":[-75.02138889,39.90305556]}},{"properties":{"name":"BAYOU DES CANNES NR EUNICE, LA","latitude":30.48288889,"date":{"end_time":"2001/04/17 00:00:00 -0400","original":"16-Apr-01","granularity":"day","time":"2001/04/16 00:00:00 -0400"},"bioid":"T08010000","bio_condition":"poor","id":"a672kk0z5xuo","bio_oe":0.45,"maxflow_oe":0.69,"year":2001,"longitude":-92.49069444,"minflow_oe":0.03},"type":"Feature","geometry":{"type":"Point","coordinates":[-92.49069444,30.48288889]}},{"properties":{"name":"RIO GRANDE AB MOUTH OF TRINCHERA CR NR LASAUSES,CO","latitude":37.31612056,"date":{"end_time":"1994/06/30 00:00:00 -0400","original":"29-Jun-94","granularity":"day","time":"1994/06/29 00:00:00 -0400"},"bioid":"T08240000","bio_condition":"poor","id":"a672kk1h2i2r","bio_oe":0.47,"maxflow_oe":0.11,"year":1994,"longitude":-105.7427958,"minflow_oe":0.2},"type":"Feature","geometry":{"type":"Point","coordinates":[-105.7427958,37.31612056]}},{"properties":{"name":"JORDAN RIVER @ 1700 SOUTH @ SALT LAKE CITY, UT","latitude":40.7335575,"date":{"end_time":"2000/08/30 00:00:00 -0400","original":"29-Aug-00","granularity":"day","time":"2000/08/29 00:00:00 -0400"},"bioid":"T10171000","bio_condition":"poor","id":"a672kjp4pfjs","bio_oe":0.47,"maxflow_oe":0.02,"year":2000,"longitude":-111.9232703,"minflow_oe":0.25},"type":"Feature","geometry":{"type":"Point","coordinates":[-111.9232703,40.7335575]}},{"properties":{"name":"BEAR RIVER ABOVE RESERVOIR, NEAR WOODRUFF, UT","latitude":41.43439,"date":{"end_time":"2001/08/23 00:00:00 -0400","original":"22-Aug-01","granularity":"day","time":"2001/08/22 00:00:00 -0400"},"bioid":"T10020100","bio_condition":"poor","id":"a672kjr2137h","bio_oe":0.47,"maxflow_oe":0.6,"year":2001,"longitude":-111.0176864,"minflow_oe":0.22},"type":"Feature","geometry":{"type":"Point","coordinates":[-111.0176864,41.43439]}},{"properties":{"name":"SAUGUS R AT SAUGUS IRON WORKS AT SAUGUS, MA","latitude":42.46954056,"date":{"end_time":"2000/08/23 00:00:00 -0400","original":"22-Aug-00","granularity":"day","time":"2000/08/22 00:00:00 -0400"},"bioid":"T01102345","bio_condition":"poor","id":"a672kjq0nzx9","bio_oe":0.47,"maxflow_oe":0.85,"year":2000,"longitude":-71.00699528,"minflow_oe":0.47},"type":"Feature","geometry":{"type":"Point","coordinates":[-71.00699528,42.46954056]}},{"properties":{"name":"BEAR RIVER NEAR CORINNE, UT","latitude":41.57632139,"date":{"end_time":"1999/08/25 00:00:00 -0400","original":"24-Aug-99","granularity":"day","time":"1999/08/24 00:00:00 -0400"},"bioid":"T10126000","bio_condition":"poor","id":"a672kk1r9h8r","bio_oe":0.48,"maxflow_oe":0.26,"year":1999,"longitude":-112.1007819,"minflow_oe":0.59},"type":"Feature","geometry":{"type":"Point","coordinates":[-112.1007819,41.57632139]}},{"properties":{"name":"SOUTH PLATTE RIVER AT HENDERSON, CO.","latitude":39.92192935,"date":{"end_time":"1995/09/08 00:00:00 -0400","original":"7-Sep-95","granularity":"day","time":"1995/09/07 00:00:00 -0400"},"bioid":"T06720500","bio_condition":"poor","id":"a672kjtfay86","bio_oe":0.48,"maxflow_oe":0.37,"year":1995,"longitude":-104.8683085,"minflow_oe":0.39},"type":"Feature","geometry":{"type":"Point","coordinates":[-104.8683085,39.92192935]}},{"properties":{"name":"GUNNISON RIVER NEAR GRAND JUNCTION, CO.","latitude":38.98331575,"date":{"end_time":"1997/08/13 00:00:00 -0400","original":"12-Aug-97","granularity":"day","time":"1997/08/12 00:00:00 -0400"},"bioid":"T09152500","bio_condition":"poor","id":"a672kjxl92yx","bio_oe":0.48,"maxflow_oe":0.62,"year":1997,"longitude":-108.4506446,"minflow_oe":2.07},"type":"Feature","geometry":{"type":"Point","coordinates":[-108.4506446,38.98331575]}},{"properties":{"name":"NEUSE RIVER AT KINSTON, NC","latitude":35.25777778,"date":{"end_time":"2003/09/05 00:00:00 -0400","original":"4-Sep-03","granularity":"day","time":"2003/09/04 00:00:00 -0400"},"bioid":"T02089500","bio_condition":"poor","id":"a672kjrkf3mb","bio_oe":0.5,"maxflow_oe":0.34,"year":2003,"longitude":-77.58555556,"minflow_oe":2.47},"type":"Feature","geometry":{"type":"Point","coordinates":[-77.58555556,35.25777778]}},{"properties":{"name":"BEAR RIVER AT PESCADERO, ID","latitude":42.40159306,"date":{"end_time":"2001/08/14 00:00:00 -0400","original":"13-Aug-01","granularity":"day","time":"2001/08/13 00:00:00 -0400"},"bioid":"T10068500","bio_condition":"poor","id":"a672kjvo5vrx","bio_oe":0.5,"maxflow_oe":0.15,"year":2001,"longitude":-111.356875,"minflow_oe":0.89},"type":"Feature","geometry":{"type":"Point","coordinates":[-111.356875,42.40159306]}},{"properties":{"name":"INDIAN CREEK NEAR MADISON, AL","latitude":34.69731341,"date":{"end_time":"1999/04/09 00:00:00 -0400","original":"8-Apr-99","granularity":"day","time":"1999/04/08 00:00:00 -0400"},"bioid":"T03575830","bio_condition":"poor","id":"a672kjxxgbw9","bio_oe":0.5,"maxflow_oe":0.86,"year":1999,"longitude":-86.69999671,"minflow_oe":0.53},"type":"Feature","geometry":{"type":"Point","coordinates":[-86.69999671,34.69731341]}},{"properties":{"name":"ILLINOIS RIVER AT VALLEY CITY, IL","latitude":39.70338028,"date":{"end_time":"2002/07/17 00:00:00 -0400","original":"16-Jul-02","granularity":"day","time":"2002/07/16 00:00:00 -0400"},"bioid":"T05586100","bio_condition":"poor","id":"a672kk0m1xl8","bio_oe":0.52,"maxflow_oe":0.2,"year":2002,"longitude":-90.64540472,"minflow_oe":5.27},"type":"Feature","geometry":{"type":"Point","coordinates":[-90.64540472,39.70338028]}},{"properties":{"name":"PEQUABUCK R AT FORESTVILLE, CT.","latitude":41.67315417,"date":{"end_time":"1995/09/06 00:00:00 -0400","original":"5-Sep-95","granularity":"day","time":"1995/09/05 00:00:00 -0400"},"bioid":"T01189000","bio_condition":"poor","id":"a672kjyarjb7","bio_oe":0.52,"maxflow_oe":0.82,"year":1995,"longitude":-72.9006575,"minflow_oe":2.79},"type":"Feature","geometry":{"type":"Point","coordinates":[-72.9006575,41.67315417]}},{"properties":{"name":"IOWA RIVER AT WAPELLO, IA","latitude":41.17808612,"date":{"end_time":"2003/08/21 00:00:00 -0400","original":"20-Aug-03","granularity":"day","time":"2003/08/20 00:00:00 -0400"},"bioid":"T05465500","bio_condition":"poor","id":"a672kjnro41c","bio_oe":0.53,"maxflow_oe":0.22,"year":2003,"longitude":-91.18209388,"minflow_oe":1.98},"type":"Feature","geometry":{"type":"Point","coordinates":[-91.18209388,41.17808612]}},{"properties":{"name":"ADDISON CREEK AT BELLWOOD, IL","latitude":41.8816975,"date":{"end_time":"2000/07/15 00:00:00 -0400","original":"14-Jul-00","granularity":"day","time":"2000/07/14 00:00:00 -0400"},"bioid":"T05532000","bio_condition":"poor","id":"a672kjxa6nts","bio_oe":0.53,"maxflow_oe":0.9,"year":2000,"longitude":-87.8692275,"minflow_oe":3.52},"type":"Feature","geometry":{"type":"Point","coordinates":[-87.8692275,41.8816975]}},{"properties":{"name":"KANAWHA RIVER AT KANAWHA FALLS, WV","latitude":38.13816323,"date":{"end_time":"1997/06/17 00:00:00 -0400","original":"16-Jun-97","granularity":"day","time":"1997/06/16 00:00:00 -0400"},"bioid":"T03193000","bio_condition":"poor","id":"a672kk0344jg","bio_oe":0.55,"maxflow_oe":0.54,"year":1997,"longitude":-81.21427447,"minflow_oe":2.32},"type":"Feature","geometry":{"type":"Point","coordinates":[-81.21427447,38.13816323]}},{"properties":{"name":"ELKHORN RIVER AT WATERLOO, NE","latitude":41.29333056,"date":{"end_time":"2002/08/21 00:00:00 -0400","original":"20-Aug-02","granularity":"day","time":"2002/08/20 00:00:00 -0400"},"bioid":"T06800500","bio_condition":"poor","id":"a672kjrogvf1","bio_oe":0.55,"maxflow_oe":0.52,"year":2002,"longitude":-96.28377222,"minflow_oe":2.0},"type":"Feature","geometry":{"type":"Point","coordinates":[-96.28377222,41.29333056]}},{"properties":{"name":"COLORADO RIVER NEAR COLORADO-UTAH STATE LINE","latitude":39.13276047,"date":{"end_time":"2002/08/21 00:00:00 -0400","original":"20-Aug-02","granularity":"day","time":"2002/08/20 00:00:00 -0400"},"bioid":"T09163500","bio_condition":"poor","id":"a672kjze3l7i","bio_oe":0.55,"maxflow_oe":0.28,"year":2002,"longitude":-109.0270546,"minflow_oe":1.71},"type":"Feature","geometry":{"type":"Point","coordinates":[-109.0270546,39.13276047]}},{"properties":{"name":"CONGAREE RIVER AT COLUMBIA, SC","latitude":33.99320972,"date":{"end_time":"1997/07/10 00:00:00 -0400","original":"9-Jul-97","granularity":"day","time":"1997/07/09 00:00:00 -0400"},"bioid":"T02169500","bio_condition":"poor","id":"a672kjxtpmh3","bio_oe":0.55,"maxflow_oe":0.39,"year":1997,"longitude":-81.049815,"minflow_oe":1.98},"type":"Feature","geometry":{"type":"Point","coordinates":[-81.049815,33.99320972]}},{"properties":{"name":"MAUMEE RI AT NEWHAVEN IN","latitude":41.08504866,"date":{"end_time":"1996/09/20 00:00:00 -0400","original":"19-Sep-96","granularity":"day","time":"1996/09/19 00:00:00 -0400"},"bioid":"T04183000","bio_condition":"poor","id":"a672kjn7xu47","bio_oe":0.58,"maxflow_oe":0.47,"year":1996,"longitude":-85.02191261,"minflow_oe":1.82},"type":"Feature","geometry":{"type":"Point","coordinates":[-85.02191261,41.08504866]}},{"properties":{"name":"MOKELUMNE R A WOODBRIDGE CA","latitude":38.15852914,"date":{"end_time":"1993/09/29 00:00:00 -0400","original":"28-Sep-93","granularity":"day","time":"1993/09/28 00:00:00 -0400"},"bioid":"T11325500","bio_condition":"poor","id":"a672kjxunpcz","bio_oe":0.58,"maxflow_oe":0.04,"year":1993,"longitude":-121.3035592,"minflow_oe":0.26},"type":"Feature","geometry":{"type":"Point","coordinates":[-121.3035592,38.15852914]}},{"properties":{"name":"SOUTH PLATTE RIVER AT DENVER, CO.","latitude":39.75970893,"date":{"end_time":"1998/09/10 00:00:00 -0400","original":"9-Sep-98","granularity":"day","time":"1998/09/09 00:00:00 -0400"},"bioid":"T06714000","bio_condition":"poor","id":"a672kjwc1857","bio_oe":0.59,"maxflow_oe":0.27,"year":1998,"longitude":-105.0033151,"minflow_oe":0.34},"type":"Feature","geometry":{"type":"Point","coordinates":[-105.0033151,39.75970893]}},{"properties":{"name":"SANGAMON RIVER NEAR OAKFORD, IL","latitude":40.12393472,"date":{"end_time":"1996/09/11 00:00:00 -0400","original":"10-Sep-96","granularity":"day","time":"1996/09/10 00:00:00 -0400"},"bioid":"T05583000","bio_condition":"poor","id":"a672kjr56278","bio_oe":0.59,"maxflow_oe":0.46,"year":1996,"longitude":-89.98511444,"minflow_oe":2.27},"type":"Feature","geometry":{"type":"Point","coordinates":[-89.98511444,40.12393472]}},{"properties":{"name":"STANISLAUS R A RIPON CA","latitude":37.72965078,"date":{"end_time":"1995/08/17 00:00:00 -0400","original":"16-Aug-95","granularity":"day","time":"1995/08/16 00:00:00 -0400"},"bioid":"T11303000","bio_condition":"poor","id":"a672kjxum49o","bio_oe":0.59,"maxflow_oe":0.08,"year":1995,"longitude":-121.1104934,"minflow_oe":1.8},"type":"Feature","geometry":{"type":"Point","coordinates":[-121.1104934,37.72965078]}},{"properties":{"name":"GUNNISON RIVER BELOW GUNNISON TUNNEL, CO.","latitude":38.52915336,"date":{"end_time":"1998/08/07 00:00:00 -0400","original":"6-Aug-98","granularity":"day","time":"1998/08/06 00:00:00 -0400"},"bioid":"T09128000","bio_condition":"poor","id":"a672kjw3ncu0","bio_oe":0.61,"maxflow_oe":0.39,"year":1998,"longitude":-107.6489471,"minflow_oe":1.47},"type":"Feature","geometry":{"type":"Point","coordinates":[-107.6489471,38.52915336]}},{"properties":{"name":"NORTH BRANCH POTOMAC RIVER NEAR CUMBERLAND, MD","latitude":39.62180556,"date":{"end_time":"1993/08/26 00:00:00 -0400","original":"25-Aug-93","granularity":"day","time":"1993/08/25 00:00:00 -0400"},"bioid":"T01603000","bio_condition":"poor","id":"a672kjns7nc5","bio_oe":0.61,"maxflow_oe":0.54,"year":1993,"longitude":-78.77341667,"minflow_oe":3.88},"type":"Feature","geometry":{"type":"Point","coordinates":[-78.77341667,39.62180556]}},{"properties":{"name":"DUNKARD CREEK AT SHANNOPIN, PA","latitude":39.75924493,"date":{"end_time":"1997/08/21 00:00:00 -0400","original":"20-Aug-97","granularity":"day","time":"1997/08/20 00:00:00 -0400"},"bioid":"T03072000","bio_condition":"poor","id":"a672kjznq9kj","bio_oe":0.61,"maxflow_oe":1.06,"year":1997,"longitude":-79.9706152,"minflow_oe":0.79},"type":"Feature","geometry":{"type":"Point","coordinates":[-79.9706152,39.75924493]}},{"properties":{"name":"WHITE RIVER NEAR CENTERTON, IN","latitude":39.4975477,"date":{"end_time":"1993/06/17 00:00:00 -0400","original":"16-Jun-93","granularity":"day","time":"1993/06/16 00:00:00 -0400"},"bioid":"T03354000","bio_condition":"poor","id":"a672kk0f7v1g","bio_oe":0.61,"maxflow_oe":0.5,"year":1993,"longitude":-86.40054952,"minflow_oe":4.85},"type":"Feature","geometry":{"type":"Point","coordinates":[-86.40054952,39.4975477]}},{"properties":{"name":"SNAKE RIVER NR BUHL ID","latitude":42.66583333,"date":{"end_time":"1996/07/24 00:00:00 -0400","original":"23-Jul-96","granularity":"day","time":"1996/07/23 00:00:00 -0400"},"bioid":"T13094000","bio_condition":"poor","id":"a672kjmt3rbh","bio_oe":0.61,"maxflow_oe":0.15,"year":1996,"longitude":-114.7122222,"minflow_oe":0.68},"type":"Feature","geometry":{"type":"Point","coordinates":[-114.7122222,42.66583333]}},{"properties":{"name":"YELLOWSTONE RIVER AT BILLINGS MT","latitude":45.79995284,"date":{"end_time":"2000/08/22 00:00:00 -0400","original":"21-Aug-00","granularity":"day","time":"2000/08/21 00:00:00 -0400"},"bioid":"T06214500","bio_condition":"poor","id":"a672kjzg6hmv","bio_oe":0.61,"maxflow_oe":1.13,"year":2000,"longitude":-108.4673563,"minflow_oe":1.87},"type":"Feature","geometry":{"type":"Point","coordinates":[-108.4673563,45.79995284]}},{"properties":{"name":"MALAD RIVER NR GOODING ID","latitude":42.88638889,"date":{"end_time":"1993/08/27 00:00:00 -0400","original":"26-Aug-93","granularity":"day","time":"1993/08/26 00:00:00 -0400"},"bioid":"T13152500","bio_condition":"poor","id":"a672kk1265fh","bio_oe":0.62,"maxflow_oe":0.11,"year":1993,"longitude":-114.8030556,"minflow_oe":0.02},"type":"Feature","geometry":{"type":"Point","coordinates":[-114.8030556,42.88638889]}},{"properties":{"name":"MAUMEE RIVER AT WATERVILLE OH","latitude":41.5000526,"date":{"end_time":"2003/09/16 00:00:00 -0400","original":"15-Sep-03","granularity":"day","time":"2003/09/15 00:00:00 -0400"},"bioid":"T04193500","bio_condition":"poor","id":"a672kjxy0qrn","bio_oe":0.62,"maxflow_oe":0.53,"year":2003,"longitude":-83.71271445,"minflow_oe":0.76},"type":"Feature","geometry":{"type":"Point","coordinates":[-83.71271445,41.5000526]}},{"properties":{"name":"CLARKS FORK YELLOWSTONE RIVER AT EDGAR, MT.","latitude":45.46605929,"date":{"end_time":"2001/09/19 00:00:00 -0400","original":"18-Sep-01","granularity":"day","time":"2001/09/18 00:00:00 -0400"},"bioid":"T06208500","bio_condition":"poor","id":"a672kk1tb8ct","bio_oe":0.62,"maxflow_oe":1.07,"year":2001,"longitude":-108.8437546,"minflow_oe":1.06},"type":"Feature","geometry":{"type":"Point","coordinates":[-108.8437546,45.46605929]}},{"properties":{"name":"NEW RIVER AT THURMOND, WV","latitude":37.95511285,"date":{"end_time":"1997/07/02 00:00:00 -0400","original":"1-Jul-97","granularity":"day","time":"1997/07/01 00:00:00 -0400"},"bioid":"T03185400","bio_condition":"poor","id":"a672kjxo0vjv","bio_oe":0.63,"maxflow_oe":0.54,"year":1997,"longitude":-81.07648838,"minflow_oe":2.01},"type":"Feature","geometry":{"type":"Point","coordinates":[-81.07648838,37.95511285]}},{"properties":{"name":"CONEJOS RIVER NEAR LASAUSES, CO","latitude":37.3002875,"date":{"end_time":"1993/08/04 00:00:00 -0400","original":"3-Aug-93","granularity":"day","time":"1993/08/03 00:00:00 -0400"},"bioid":"T08249000","bio_condition":"poor","id":"a672kjtbxs3u","bio_oe":0.63,"maxflow_oe":0.42,"year":1993,"longitude":-105.7469628,"minflow_oe":0.03},"type":"Feature","geometry":{"type":"Point","coordinates":[-105.7469628,37.3002875]}},{"properties":{"name":"SLEEPERS RIVER (SITE W-5) NEAR ST. JOHNSBURY, VT","latitude":44.43533533,"date":{"end_time":"1995/09/13 00:00:00 -0400","original":"12-Sep-95","granularity":"day","time":"1995/09/12 00:00:00 -0400"},"bioid":"T01135300","bio_condition":"poor","id":"a672kjuzg0cw","bio_oe":0.64,"maxflow_oe":0.99,"year":1995,"longitude":-72.03842899,"minflow_oe":0.87},"type":"Feature","geometry":{"type":"Point","coordinates":[-72.03842899,44.43533533]}},{"properties":{"name":"INDIAN CREEK NEAR LABORATORY, NC","latitude":35.42235667,"date":{"end_time":"1996/06/19 00:00:00 -0400","original":"18-Jun-96","granularity":"day","time":"1996/06/18 00:00:00 -0400"},"bioid":"T02143500","bio_condition":"poor","id":"a672kk21h89m","bio_oe":0.64,"maxflow_oe":0.98,"year":1996,"longitude":-81.2642475,"minflow_oe":1.63},"type":"Feature","geometry":{"type":"Point","coordinates":[-81.2642475,35.42235667]}},{"properties":{"name":"CACHE LA POUDRE RIVER AT FORT COLLINS, CO.","latitude":40.58914908,"date":{"end_time":"1993/09/22 00:00:00 -0400","original":"21-Sep-93","granularity":"day","time":"1993/09/21 00:00:00 -0400"},"bioid":"T06752260","bio_condition":"poor","id":"a672kjung9oo","bio_oe":0.65,"maxflow_oe":0.51,"year":1993,"longitude":-105.0697002,"minflow_oe":0.03},"type":"Feature","geometry":{"type":"Point","coordinates":[-105.0697002,40.58914908]}},{"properties":{"name":"UPPER TRUCKEE RIVER AT SOUTH LAKE TAHOE CALIF","latitude":38.9224078,"date":{"end_time":"1993/09/09 00:00:00 -0400","original":"8-Sep-93","granularity":"day","time":"1993/09/08 00:00:00 -0400"},"bioid":"T10336610","bio_condition":"poor","id":"a672kjtxzg86","bio_oe":0.65,"maxflow_oe":0.5,"year":1993,"longitude":-119.9915706,"minflow_oe":0.23},"type":"Feature","geometry":{"type":"Point","coordinates":[-119.9915706,38.9224078]}},{"properties":{"name":"REED CK @ GRAHAMS FORGE, VA","latitude":36.93956549,"date":{"end_time":"1998/06/09 00:00:00 -0400","original":"8-Jun-98","granularity":"day","time":"1998/06/08 00:00:00 -0400"},"bioid":"T03167000","bio_condition":"poor","id":"a672kjqoj6g4","bio_oe":0.65,"maxflow_oe":0.51,"year":1998,"longitude":-80.88674408,"minflow_oe":1.91},"type":"Feature","geometry":{"type":"Point","coordinates":[-80.88674408,36.93956549]}},{"properties":{"name":"NEW RIVER AT GLEN LYN, VA","latitude":37.37289861,"date":{"end_time":"1997/06/19 00:00:00 -0400","original":"18-Jun-97","granularity":"day","time":"1997/06/18 00:00:00 -0400"},"bioid":"T03176500","bio_condition":"poor","id":"a672kjyxgyqi","bio_oe":0.66,"maxflow_oe":0.88,"year":1997,"longitude":-80.86063472,"minflow_oe":1.57},"type":"Feature","geometry":{"type":"Point","coordinates":[-80.86063472,37.37289861]}},{"properties":{"name":"TINLEY CREEK NEAR PALOS PARK, IL","latitude":41.6467,"date":{"end_time":"2000/07/14 00:00:00 -0400","original":"13-Jul-00","granularity":"day","time":"2000/07/13 00:00:00 -0400"},"bioid":"T05536500","bio_condition":"poor","id":"a672kjt1oeci","bio_oe":0.66,"maxflow_oe":2.58,"year":2000,"longitude":-87.76644,"minflow_oe":10.0},"type":"Feature","geometry":{"type":"Point","coordinates":[-87.76644,41.6467]}},{"properties":{"name":"QUINSIGAMOND RIVER AT NORTH GRAFTON, MA","latitude":42.23037194,"date":{"end_time":"2000/08/18 00:00:00 -0400","original":"17-Aug-00","granularity":"day","time":"2000/08/17 00:00:00 -0400"},"bioid":"T01110000","bio_condition":"poor","id":"a672kjqmrkeh","bio_oe":0.66,"maxflow_oe":0.5,"year":2000,"longitude":-71.71090222,"minflow_oe":0.14},"type":"Feature","geometry":{"type":"Point","coordinates":[-71.71090222,42.23037194]}},{"properties":{"name":"LITTLE MIAMI RIVER AT MILFORD OH","latitude":39.17144887,"date":{"end_time":"1999/07/15 00:00:00 -0400","original":"14-Jul-99","granularity":"day","time":"1999/07/14 00:00:00 -0400"},"bioid":"T03245500","bio_condition":"poor","id":"a672kjnd96fb","bio_oe":0.67,"maxflow_oe":0.76,"year":1999,"longitude":-84.29799333,"minflow_oe":2.69},"type":"Feature","geometry":{"type":"Point","coordinates":[-84.29799333,39.17144887]}},{"properties":{"name":"LEACH CREEK NEAR STEILACOOM, WA","latitude":47.19815389,"date":{"end_time":"1997/08/19 00:00:00 -0400","original":"18-Aug-97","granularity":"day","time":"1997/08/18 00:00:00 -0400"},"bioid":"T12091300","bio_condition":"poor","id":"a672kjmywgnh","bio_oe":0.67,"maxflow_oe":0.85,"year":1997,"longitude":-122.522625,"minflow_oe":5.25},"type":"Feature","geometry":{"type":"Point","coordinates":[-122.522625,47.19815389]}},{"properties":{"name":"HOCKANUM RIVER NEAR EAST HARTFORD, CT.","latitude":41.78315472,"date":{"end_time":"1995/09/08 00:00:00 -0400","original":"7-Sep-95","granularity":"day","time":"1995/09/07 00:00:00 -0400"},"bioid":"T01192500","bio_condition":"poor","id":"a672kjsv17pc","bio_oe":0.67,"maxflow_oe":0.43,"year":1995,"longitude":-72.58731139,"minflow_oe":3.23},"type":"Feature","geometry":{"type":"Point","coordinates":[-72.58731139,41.78315472]}},{"properties":{"name":"NISSEQUOGUE RIVER NEAR SMITHTOWN NY","latitude":41.0656525,"date":{"end_time":"1996/09/05 00:00:00 -0400","original":"4-Sep-96","granularity":"day","time":"1996/09/04 00:00:00 -0400"},"bioid":"T01304000","bio_condition":"poor","id":"a672kjodxzd8","bio_oe":0.67,"maxflow_oe":0.24,"year":1996,"longitude":-73.54929028,"minflow_oe":3.04},"type":"Feature","geometry":{"type":"Point","coordinates":[-73.54929028,41.0656525]}},{"properties":{"name":"SKOKOMISH RIVER NEAR POTLATCH, WA","latitude":47.30981528,"date":{"end_time":"1996/09/13 00:00:00 -0400","original":"12-Sep-96","granularity":"day","time":"1996/09/12 00:00:00 -0400"},"bioid":"T12061500","bio_condition":"poor","id":"a672kjtaunlq","bio_oe":0.67,"maxflow_oe":1.62,"year":1996,"longitude":-123.1770994,"minflow_oe":1.81},"type":"Feature","geometry":{"type":"Point","coordinates":[-123.1770994,47.30981528]}},{"properties":{"name":"GILLS CREEK AT COLUMBIA, SC","latitude":33.98960028,"date":{"end_time":"2003/06/05 00:00:00 -0400","original":"4-Jun-03","granularity":"day","time":"2003/06/04 00:00:00 -0400"},"bioid":"T02169570","bio_condition":"poor","id":"a672kjymkj20","bio_oe":0.67,"maxflow_oe":0.88,"year":2003,"longitude":-80.97425722,"minflow_oe":0.51},"type":"Feature","geometry":{"type":"Point","coordinates":[-80.97425722,33.98960028]}},{"properties":{"name":"ST. CROIX RIVER NEAR DANBURY, WI","latitude":46.0749425,"date":{"end_time":"1998/09/17 00:00:00 -0400","original":"16-Sep-98","granularity":"day","time":"1998/09/16 00:00:00 -0400"},"bioid":"T05333500","bio_condition":"poor","id":"a672kjqaey04","bio_oe":0.67,"maxflow_oe":0.55,"year":1998,"longitude":-92.24741528,"minflow_oe":1.85},"type":"Feature","geometry":{"type":"Point","coordinates":[-92.24741528,46.0749425]}},{"properties":{"name":"WHISKEY CHITTO CREEK NEAR OBERLIN, LA","latitude":30.69875,"date":{"end_time":"2003/07/22 00:00:00 -0400","original":"21-Jul-03","granularity":"day","time":"2003/07/21 00:00:00 -0400"},"bioid":"T08014500","bio_condition":"poor","id":"a672kjyj5bl0","bio_oe":0.68,"maxflow_oe":0.98,"year":2003,"longitude":-92.89319444,"minflow_oe":1.07},"type":"Feature","geometry":{"type":"Point","coordinates":[-92.89319444,30.69875]}},{"properties":{"name":"RACCOON CREEK NEAR SWEDESBORO NJ","latitude":39.74055556,"date":{"end_time":"2001/08/08 00:00:00 -0400","original":"7-Aug-01","granularity":"day","time":"2001/08/07 00:00:00 -0400"},"bioid":"T01477120","bio_condition":"poor","id":"a672kk32hnrf","bio_oe":0.68,"maxflow_oe":1.38,"year":2001,"longitude":-75.25916667,"minflow_oe":2.71},"type":"Feature","geometry":{"type":"Point","coordinates":[-75.25916667,39.74055556]}},{"properties":{"name":"PASSAIC RIVER NEAR CHATHAM NJ","latitude":40.72611111,"date":{"end_time":"1996/10/04 00:00:00 -0400","original":"3-Oct-96","granularity":"day","time":"1996/10/03 00:00:00 -0400"},"bioid":"T01379500","bio_condition":"poor","id":"a672kk1duvxe","bio_oe":0.69,"maxflow_oe":0.45,"year":1996,"longitude":-74.38972222,"minflow_oe":2.26},"type":"Feature","geometry":{"type":"Point","coordinates":[-74.38972222,40.72611111]}},{"properties":{"name":"FOX RIVER AT WATERTOWN RD NEAR WAUKESHA, WI","latitude":43.05334417,"date":{"end_time":"2000/07/20 00:00:00 -0400","original":"19-Jul-00","granularity":"day","time":"2000/07/19 00:00:00 -0400"},"bioid":"T05543800","bio_condition":"poor","id":"a672kk1ebrd9","bio_oe":0.69,"maxflow_oe":0.96,"year":2000,"longitude":-88.18731389,"minflow_oe":3.68},"type":"Feature","geometry":{"type":"Point","coordinates":[-88.18731389,43.05334417]}},{"properties":{"name":"MARSH RUN AT GRIMES, MD","latitude":39.51455556,"date":{"end_time":"1993/09/09 00:00:00 -0400","original":"8-Sep-93","granularity":"day","time":"1993/09/08 00:00:00 -0400"},"bioid":"T01617800","bio_condition":"poor","id":"a672kjv4bq87","bio_oe":0.69,"maxflow_oe":0.17,"year":1993,"longitude":-77.77722222,"minflow_oe":0.59},"type":"Feature","geometry":{"type":"Point","coordinates":[-77.77722222,39.51455556]}},{"properties":{"name":"BIGHORN RIVER AT KANE, WY","latitude":44.75856618,"date":{"end_time":"2000/08/28 00:00:00 -0400","original":"27-Aug-00","granularity":"day","time":"2000/08/27 00:00:00 -0400"},"bioid":"T06279500","bio_condition":"poor","id":"a672kjp59vlg","bio_oe":0.69,"maxflow_oe":0.26,"year":2000,"longitude":-108.1814972,"minflow_oe":1.56},"type":"Feature","geometry":{"type":"Point","coordinates":[-108.1814972,44.75856618]}},{"properties":{"name":"SOUTH BRANCH POTOMAC RIVER NEAR SPRINGFIELD, WV","latitude":39.44736111,"date":{"end_time":"1995/08/18 00:00:00 -0400","original":"17-Aug-95","granularity":"day","time":"1995/08/17 00:00:00 -0400"},"bioid":"T01608500","bio_condition":"poor","id":"a672kk09q00r","bio_oe":0.69,"maxflow_oe":0.74,"year":1995,"longitude":-78.65422222,"minflow_oe":0.89},"type":"Feature","geometry":{"type":"Point","coordinates":[-78.65422222,39.44736111]}},{"properties":{"name":"WATEREE RIVER NR. CAMDEN, SC","latitude":34.24459389,"date":{"end_time":"1998/05/20 00:00:00 -0400","original":"19-May-98","granularity":"day","time":"1998/05/19 00:00:00 -0400"},"bioid":"T02148000","bio_condition":"poor","id":"a672kjnxfo93","bio_oe":0.69,"maxflow_oe":0.25,"year":1998,"longitude":-80.65396972,"minflow_oe":1.86},"type":"Feature","geometry":{"type":"Point","coordinates":[-80.65396972,34.24459389]}},{"properties":{"name":"MAURICE RIVER AT NORMA NJ","latitude":39.49555556,"date":{"end_time":"1998/09/19 00:00:00 -0400","original":"18-Sep-98","granularity":"day","time":"1998/09/18 00:00:00 -0400"},"bioid":"T01411500","bio_condition":"poor","id":"a672kk08lzf2","bio_oe":0.69,"maxflow_oe":0.37,"year":1998,"longitude":-75.07694444,"minflow_oe":1.65},"type":"Feature","geometry":{"type":"Point","coordinates":[-75.07694444,39.49555556]}},{"properties":{"name":"TRUCKEE R AT CLARK, NV","latitude":39.56545278,"date":{"end_time":"1996/10/10 00:00:00 -0400","original":"9-Oct-96","granularity":"day","time":"1996/10/09 00:00:00 -0400"},"bioid":"T10350500","bio_condition":"poor","id":"a672kjq0jxd9","bio_oe":0.69,"maxflow_oe":0.35,"year":1996,"longitude":-119.4861861,"minflow_oe":0.42},"type":"Feature","geometry":{"type":"Point","coordinates":[-119.4861861,39.56545278]}},{"properties":{"name":"SNAKE RIVER NR BLACKFOOT ID","latitude":43.12519194,"date":{"end_time":"1993/09/08 00:00:00 -0400","original":"7-Sep-93","granularity":"day","time":"1993/09/07 00:00:00 -0400"},"bioid":"T13069500","bio_condition":"poor","id":"a672kjxqzi0r","bio_oe":0.69,"maxflow_oe":0.18,"year":1993,"longitude":-112.5191494,"minflow_oe":0.42},"type":"Feature","geometry":{"type":"Point","coordinates":[-112.5191494,43.12519194]}},{"properties":{"name":"PASSAIC RIVER NEAR MILLINGTON NJ","latitude":40.68,"date":{"end_time":"1996/07/09 00:00:00 -0400","original":"8-Jul-96","granularity":"day","time":"1996/07/08 00:00:00 -0400"},"bioid":"T01379000","bio_condition":"poor","id":"a672kjyd8ifb","bio_oe":0.7,"maxflow_oe":0.57,"year":1996,"longitude":-74.52888889,"minflow_oe":1.2},"type":"Feature","geometry":{"type":"Point","coordinates":[-74.52888889,40.68]}},{"properties":{"name":"SPOKANE RIVER NR POST FALLS ID","latitude":47.7029575,"date":{"end_time":"1999/07/27 00:00:00 -0400","original":"26-Jul-99","granularity":"day","time":"1999/07/26 00:00:00 -0400"},"bioid":"T12419000","bio_condition":"poor","id":"a672kjqc1gdk","bio_oe":0.7,"maxflow_oe":0.55,"year":1999,"longitude":-116.9779747,"minflow_oe":0.52},"type":"Feature","geometry":{"type":"Point","coordinates":[-116.9779747,47.7029575]}},{"properties":{"name":"AMMONOOSUC RIVER NEAR TWIN MOUNTAIN, NH","latitude":44.27478528,"date":{"end_time":"1995/09/14 00:00:00 -0400","original":"13-Sep-95","granularity":"day","time":"1995/09/13 00:00:00 -0400"},"bioid":"T01137400","bio_condition":"poor","id":"a672kjxdyocj","bio_oe":0.7,"maxflow_oe":0.7,"year":1995,"longitude":-71.58702722,"minflow_oe":1.11},"type":"Feature","geometry":{"type":"Point","coordinates":[-71.58702722,44.27478528]}},{"properties":{"name":"CLARK FORK AT ST. REGIS MT","latitude":47.30187444,"date":{"end_time":"1999/08/25 00:00:00 -0400","original":"24-Aug-99","granularity":"day","time":"1999/08/24 00:00:00 -0400"},"bioid":"T12354500","bio_condition":"poor","id":"a672kjny2fkb","bio_oe":0.7,"maxflow_oe":0.68,"year":1999,"longitude":-115.0873606,"minflow_oe":1.29},"type":"Feature","geometry":{"type":"Point","coordinates":[-115.0873606,47.30187444]}},{"properties":{"name":"CACHE LA POUDRE R AB BOXELDER C, NR TIMNATH, CO.","latitude":40.55192692,"date":{"end_time":"1993/09/23 00:00:00 -0400","original":"22-Sep-93","granularity":"day","time":"1993/09/22 00:00:00 -0400"},"bioid":"T06752280","bio_condition":"poor","id":"a672kjocprwx","bio_oe":0.71,"maxflow_oe":0.46,"year":1993,"longitude":-105.0113651,"minflow_oe":0.03},"type":"Feature","geometry":{"type":"Point","coordinates":[-105.0113651,40.55192692]}},{"properties":{"name":"SF COEUR D ALENE RIVER NR PINEHURST ID","latitude":47.55158667,"date":{"end_time":"2001/09/12 00:00:00 -0400","original":"11-Sep-01","granularity":"day","time":"2001/09/11 00:00:00 -0400"},"bioid":"T12413470","bio_condition":"poor","id":"a672kk1oyczg","bio_oe":0.71,"maxflow_oe":0.82,"year":2001,"longitude":-116.2379461,"minflow_oe":1.07},"type":"Feature","geometry":{"type":"Point","coordinates":[-116.2379461,47.55158667]}},{"properties":{"name":"BIG THOMPSON RIVER AT LOVELAND, CO.","latitude":40.37859462,"date":{"end_time":"1993/09/17 00:00:00 -0400","original":"16-Sep-93","granularity":"day","time":"1993/09/16 00:00:00 -0400"},"bioid":"T06741510","bio_condition":"poor","id":"a672kjwug4y9","bio_oe":0.71,"maxflow_oe":0.19,"year":1993,"longitude":-105.0610909,"minflow_oe":0.06},"type":"Feature","geometry":{"type":"Point","coordinates":[-105.0610909,40.37859462]}},{"properties":{"name":"NEPONSET RIVER AT NORWOOD, MA","latitude":42.17759861,"date":{"end_time":"2000/08/09 00:00:00 -0400","original":"8-Aug-00","granularity":"day","time":"2000/08/08 00:00:00 -0400"},"bioid":"T01105000","bio_condition":"poor","id":"a672kjo0g4if","bio_oe":0.71,"maxflow_oe":0.89,"year":2000,"longitude":-71.20088639,"minflow_oe":0.55},"type":"Feature","geometry":{"type":"Point","coordinates":[-71.20088639,42.17759861]}},{"properties":{"name":"FLAG CREEK NEAR WILLOW SPRINGS, IL","latitude":41.73892056,"date":{"end_time":"2000/07/14 00:00:00 -0400","original":"13-Jul-00","granularity":"day","time":"2000/07/13 00:00:00 -0400"},"bioid":"T05533000","bio_condition":"poor","id":"a672kjvkbyl5","bio_oe":0.71,"maxflow_oe":2.22,"year":2000,"longitude":-87.89644667,"minflow_oe":12.09},"type":"Feature","geometry":{"type":"Point","coordinates":[-87.89644667,41.73892056]}},{"properties":{"name":"IPSWICH RIVER AT SOUTH MIDDLETON, MA","latitude":42.56953861,"date":{"end_time":"2000/08/23 00:00:00 -0400","original":"22-Aug-00","granularity":"day","time":"2000/08/22 00:00:00 -0400"},"bioid":"T01101500","bio_condition":"poor","id":"a672kjuqqph3","bio_oe":0.71,"maxflow_oe":0.64,"year":2000,"longitude":-71.0269975,"minflow_oe":0.07},"type":"Feature","geometry":{"type":"Point","coordinates":[-71.0269975,42.56953861]}},{"properties":{"name":"WEST BRANCH SUSQUEHANNA RIVER AT LEWISBURG, PA","latitude":40.96758498,"date":{"end_time":"1993/08/18 00:00:00 -0400","original":"17-Aug-93","granularity":"day","time":"1993/08/17 00:00:00 -0400"},"bioid":"T01553500","bio_condition":"poor","id":"a672kjwqwg7s","bio_oe":0.72,"maxflow_oe":0.52,"year":1993,"longitude":-76.87635426,"minflow_oe":1.6},"type":"Feature","geometry":{"type":"Point","coordinates":[-76.87635426,40.96758498]}},{"properties":{"name":"MINNESOTA RIVER NEAR JORDAN, MN","latitude":44.69301833,"date":{"end_time":"1997/09/05 00:00:00 -0400","original":"4-Sep-97","granularity":"day","time":"1997/09/04 00:00:00 -0400"},"bioid":"T05330000","bio_condition":"poor","id":"a672kjumsqzb","bio_oe":0.72,"maxflow_oe":0.64,"year":1997,"longitude":-93.64190222,"minflow_oe":2.67},"type":"Feature","geometry":{"type":"Point","coordinates":[-93.64190222,44.69301833]}},{"properties":{"name":"LEHIGH RIVER AT GLENDON, PA.","latitude":40.66926556,"date":{"end_time":"1999/09/15 00:00:00 -0400","original":"14-Sep-99","granularity":"day","time":"1999/09/14 00:00:00 -0400"},"bioid":"T01454700","bio_condition":"poor","id":"a672kjoxy7i8","bio_oe":0.72,"maxflow_oe":0.67,"year":1999,"longitude":-75.23628806,"minflow_oe":2.33},"type":"Feature","geometry":{"type":"Point","coordinates":[-75.23628806,40.66926556]}},{"properties":{"name":"CEDAR RIVER NEAR CONESVILLE, IA","latitude":41.40919179,"date":{"end_time":"1996/08/01 00:00:00 -0400","original":"31-Jul-96","granularity":"day","time":"1996/07/31 00:00:00 -0400"},"bioid":"T05465000","bio_condition":"poor","id":"a672kjynvyoa","bio_oe":0.73,"maxflow_oe":0.31,"year":1996,"longitude":-91.29043353,"minflow_oe":2.53},"type":"Feature","geometry":{"type":"Point","coordinates":[-91.29043353,41.40919179]}},{"properties":{"name":"WAPSIPINICON RIVER NEAR DE WITT, IA","latitude":41.76697439,"date":{"end_time":"1996/08/22 00:00:00 -0400","original":"21-Aug-96","granularity":"day","time":"1996/08/21 00:00:00 -0400"},"bioid":"T05422000","bio_condition":"poor","id":"a672kjrlbeuj","bio_oe":0.73,"maxflow_oe":0.41,"year":1996,"longitude":-90.53485884,"minflow_oe":1.86},"type":"Feature","geometry":{"type":"Point","coordinates":[-90.53485884,41.76697439]}},{"properties":{"name":"RIO CHAMA NEAR CHAMITA, NM","latitude":36.07391111,"date":{"end_time":"1995/07/26 00:00:00 -0400","original":"25-Jul-95","granularity":"day","time":"1995/07/25 00:00:00 -0400"},"bioid":"T08290000","bio_condition":"poor","id":"a672kjpspbyo","bio_oe":0.74,"maxflow_oe":0.42,"year":1995,"longitude":-106.1116906,"minflow_oe":0.89},"type":"Feature","geometry":{"type":"Point","coordinates":[-106.1116906,36.07391111]}},{"properties":{"name":"POPPLE RIVER NEAR FENCE, WI","latitude":45.7635697,"date":{"end_time":"2002/09/12 00:00:00 -0400","original":"11-Sep-02","granularity":"day","time":"2002/09/11 00:00:00 -0400"},"bioid":"T04063700","bio_condition":"poor","id":"a672kk1gq3d6","bio_oe":0.74,"maxflow_oe":0.9,"year":2002,"longitude":-88.4631785,"minflow_oe":0.78},"type":"Feature","geometry":{"type":"Point","coordinates":[-88.4631785,45.7635697]}},{"properties":{"name":"CACHE LA POUDRE RIVER NEAR GREELEY, CO.","latitude":40.41775868,"date":{"end_time":"1993/09/29 00:00:00 -0400","original":"28-Sep-93","granularity":"day","time":"1993/09/28 00:00:00 -0400"},"bioid":"T06752500","bio_condition":"poor","id":"a672kjs57i34","bio_oe":0.74,"maxflow_oe":0.25,"year":1993,"longitude":-104.6399624,"minflow_oe":0.16},"type":"Feature","geometry":{"type":"Point","coordinates":[-104.6399624,40.41775868]}},{"properties":{"name":"SAWMILL CREEK NEAR LEMONT, IL","latitude":41.70780889,"date":{"end_time":"2000/07/12 00:00:00 -0400","original":"11-Jul-00","granularity":"day","time":"2000/07/11 00:00:00 -0400"},"bioid":"T05533400","bio_condition":"poor","id":"a672kjuul0p0","bio_oe":0.74,"maxflow_oe":2.68,"year":2000,"longitude":-87.96311472,"minflow_oe":0.07},"type":"Feature","geometry":{"type":"Point","coordinates":[-87.96311472,41.70780889]}},{"properties":{"name":"NEVERSINK RIVER NEAR CLARYVILLE NY","latitude":41.89009167,"date":{"end_time":"2001/08/17 00:00:00 -0400","original":"16-Aug-01","granularity":"day","time":"2001/08/16 00:00:00 -0400"},"bioid":"T01435000","bio_condition":"poor","id":"a672kjr5cd18","bio_oe":0.74,"maxflow_oe":1.19,"year":2001,"longitude":-74.58987944,"minflow_oe":1.1},"type":"Feature","geometry":{"type":"Point","coordinates":[-74.58987944,41.89009167]}},{"properties":{"name":"CUYAHOGA RIVER NEAR NEWBURGH HEIGHTS OH","latitude":41.46255164,"date":{"end_time":"1996/10/10 00:00:00 -0400","original":"9-Oct-96","granularity":"day","time":"1996/10/09 00:00:00 -0400"},"bioid":"T04208504","bio_condition":"poor","id":"a672kjt2ta67","bio_oe":0.74,"maxflow_oe":0.56,"year":1996,"longitude":-81.68096296,"minflow_oe":7.87},"type":"Feature","geometry":{"type":"Point","coordinates":[-81.68096296,41.46255164]}},{"properties":{"name":"TRUCKEE R AT FARAD, CA","latitude":39.42796385,"date":{"end_time":"1996/10/08 00:00:00 -0400","original":"7-Oct-96","granularity":"day","time":"1996/10/07 00:00:00 -0400"},"bioid":"T10346000","bio_condition":"poor","id":"a672kjvp7mxg","bio_oe":0.75,"maxflow_oe":0.36,"year":1996,"longitude":-120.0340873,"minflow_oe":0.5},"type":"Feature","geometry":{"type":"Point","coordinates":[-120.0340873,39.42796385]}},{"properties":{"name":"ELK RIVER NR TIFF CITY, MO.","latitude":36.63062806,"date":{"end_time":"1994/09/02 00:00:00 -0400","original":"1-Sep-94","granularity":"day","time":"1994/09/01 00:00:00 -0400"},"bioid":"T07189000","bio_condition":"poor","id":"a672kjwchq6u","bio_oe":0.75,"maxflow_oe":0.99,"year":1994,"longitude":-94.58688861,"minflow_oe":0.58},"type":"Feature","geometry":{"type":"Point","coordinates":[-94.58688861,36.63062806]}},{"properties":{"name":"RIO GRANDE NEAR LOBATOS, CO","latitude":37.07834944,"date":{"end_time":"1994/08/18 00:00:00 -0400","original":"17-Aug-94","granularity":"day","time":"1994/08/17 00:00:00 -0400"},"bioid":"T08251500","bio_condition":"poor","id":"a672kjpp2obr","bio_oe":0.76,"maxflow_oe":0.14,"year":1994,"longitude":-105.7566828,"minflow_oe":0.14},"type":"Feature","geometry":{"type":"Point","coordinates":[-105.7566828,37.07834944]}},{"properties":{"name":"ROOSTER RIVER NEAR FAIRFIELD, CT","latitude":41.18870778,"date":{"end_time":"1995/09/07 00:00:00 -0400","original":"6-Sep-95","granularity":"day","time":"1995/09/06 00:00:00 -0400"},"bioid":"T01208869","bio_condition":"poor","id":"a672kjrjws7i","bio_oe":0.76,"maxflow_oe":1.12,"year":1995,"longitude":-73.22122472,"minflow_oe":1.02},"type":"Feature","geometry":{"type":"Point","coordinates":[-73.22122472,41.18870778]}},{"properties":{"name":"SNAKE RIVER AB JACKSON LAKE AT FLAGG RANCH WY","latitude":44.09888889,"date":{"end_time":"2004/09/15 00:00:00 -0400","original":"14-Sep-04","granularity":"day","time":"2004/09/14 00:00:00 -0400"},"bioid":"T13010065","bio_condition":"poor","id":"a672kju5cle4","bio_oe":0.76,"maxflow_oe":0.98,"year":2004,"longitude":-110.6675,"minflow_oe":0.78},"type":"Feature","geometry":{"type":"Point","coordinates":[-110.6675,44.09888889]}},{"properties":{"name":"BIG RIVER NEAR RICHWOODS MO","latitude":38.15949667,"date":{"end_time":"1994/08/25 00:00:00 -0400","original":"24-Aug-94","granularity":"day","time":"1994/08/24 00:00:00 -0400"},"bioid":"T07018100","bio_condition":"poor","id":"a672kjrvfx5t","bio_oe":0.76,"maxflow_oe":1.66,"year":1994,"longitude":-90.70624083,"minflow_oe":3.28},"type":"Feature","geometry":{"type":"Point","coordinates":[-90.70624083,38.15949667]}},{"properties":{"name":"SUSQUEHANNA RIVER AT DANVILLE, PA","latitude":40.95814218,"date":{"end_time":"1993/08/14 00:00:00 -0400","original":"13-Aug-93","granularity":"day","time":"1993/08/13 00:00:00 -0400"},"bioid":"T01540500","bio_condition":"poor","id":"a672kjnkfbl1","bio_oe":0.76,"maxflow_oe":0.45,"year":1993,"longitude":-76.61912225,"minflow_oe":1.54},"type":"Feature","geometry":{"type":"Point","coordinates":[-76.61912225,40.95814218]}},{"properties":{"name":"YOUGHIOGHENY RIVER AT SUTERSVILLE, PA","latitude":40.24007039,"date":{"end_time":"1996/07/16 00:00:00 -0400","original":"15-Jul-96","granularity":"day","time":"1996/07/15 00:00:00 -0400"},"bioid":"T03083500","bio_condition":"poor","id":"a672kjs28ab8","bio_oe":0.76,"maxflow_oe":0.59,"year":1996,"longitude":-79.80643449,"minflow_oe":3.62},"type":"Feature","geometry":{"type":"Point","coordinates":[-79.80643449,40.24007039]}},{"properties":{"name":"DELAWARE RIVER AT PORT JERVIS NY","latitude":41.37064917,"date":{"end_time":"1999/09/14 00:00:00 -0400","original":"13-Sep-99","granularity":"day","time":"1999/09/13 00:00:00 -0400"},"bioid":"T01434000","bio_condition":"poor","id":"a672kk05x4kf","bio_oe":0.77,"maxflow_oe":0.61,"year":1999,"longitude":-74.69738528,"minflow_oe":3.26},"type":"Feature","geometry":{"type":"Point","coordinates":[-74.69738528,41.37064917]}},{"properties":{"name":"CACHE RIVER AT EGYPT, ARK","latitude":35.85785222,"date":{"end_time":"1998/09/02 00:00:00 -0400","original":"1-Sep-98","granularity":"day","time":"1998/09/01 00:00:00 -0400"},"bioid":"T07077380","bio_condition":"poor","id":"a672kjo6oh9h","bio_oe":0.77,"maxflow_oe":0.2,"year":1998,"longitude":-90.9334525,"minflow_oe":0.13},"type":"Feature","geometry":{"type":"Point","coordinates":[-90.9334525,35.85785222]}},{"properties":{"name":"WHIPPANY RIVER AT MORRISTOWN NJ","latitude":40.80722222,"date":{"end_time":"1996/10/01 00:00:00 -0400","original":"30-Sep-96","granularity":"day","time":"1996/09/30 00:00:00 -0400"},"bioid":"T01381500","bio_condition":"poor","id":"a672kjoko4ay","bio_oe":0.77,"maxflow_oe":0.74,"year":1996,"longitude":-74.45694444,"minflow_oe":2.85},"type":"Feature","geometry":{"type":"Point","coordinates":[-74.45694444,40.80722222]}},{"properties":{"name":"CLEAR CREEK AT GOLDEN, CO.","latitude":39.75304299,"date":{"end_time":"1995/09/09 00:00:00 -0400","original":"8-Sep-95","granularity":"day","time":"1995/09/08 00:00:00 -0400"},"bioid":"T06719505","bio_condition":"poor","id":"a672kk2gi325","bio_oe":0.77,"maxflow_oe":0.61,"year":1995,"longitude":-105.2352667,"minflow_oe":0.49},"type":"Feature","geometry":{"type":"Point","coordinates":[-105.2352667,39.75304299]}},{"properties":{"name":"SOUTH RIVER NEAR CONWAY, MA","latitude":42.54203028,"date":{"end_time":"1994/10/07 00:00:00 -0400","original":"6-Oct-94","granularity":"day","time":"1994/10/06 00:00:00 -0400"},"bioid":"T01169900","bio_condition":"poor","id":"a672kjneoswy","bio_oe":0.77,"maxflow_oe":0.84,"year":1994,"longitude":-72.69370167,"minflow_oe":1.75},"type":"Feature","geometry":{"type":"Point","coordinates":[-72.69370167,42.54203028]}},{"properties":{"name":"HOOSIC RIVER NEAR EAGLE BRIDGE NY","latitude":42.93868895,"date":{"end_time":"1995/07/14 00:00:00 -0400","original":"13-Jul-95","granularity":"day","time":"1995/07/13 00:00:00 -0400"},"bioid":"T01334500","bio_condition":"poor","id":"a672kk0i0j8y","bio_oe":0.78,"maxflow_oe":0.8,"year":1995,"longitude":-73.37705629,"minflow_oe":1.78},"type":"Feature","geometry":{"type":"Point","coordinates":[-73.37705629,42.93868895]}},{"properties":{"name":"OAK CREEK AT SOUTH MILWAUKEE, WI","latitude":42.9250163,"date":{"end_time":"2004/09/02 00:00:00 -0400","original":"1-Sep-04","granularity":"day","time":"2004/09/01 00:00:00 -0400"},"bioid":"T04087204","bio_condition":"poor","id":"a672kjszrlc0","bio_oe":0.78,"maxflow_oe":1.34,"year":2004,"longitude":-87.87008166,"minflow_oe":1.56},"type":"Feature","geometry":{"type":"Point","coordinates":[-87.87008166,42.9250163]}},{"properties":{"name":"HESTER CREEK @ BUDDY WILLIAMSON ROAD NR PLEVNA, AL","latitude":34.96092128,"date":{"end_time":"2003/04/16 00:00:00 -0400","original":"15-Apr-03","granularity":"day","time":"2003/04/15 00:00:00 -0400"},"bioid":"T0357479650","bio_condition":"poor","id":"a672kjy5kxej","bio_oe":0.78,"maxflow_oe":1.03,"year":2003,"longitude":-86.46360243,"minflow_oe":0.63},"type":"Feature","geometry":{"type":"Point","coordinates":[-86.46360243,34.96092128]}},{"properties":{"name":"LITTLE NESHAMINY C AT VALLEY ROAD NR NESHAMINY PA","latitude":40.22927444,"date":{"end_time":"2003/07/16 00:00:00 -0400","original":"15-Jul-03","granularity":"day","time":"2003/07/15 00:00:00 -0400"},"bioid":"T01464907","bio_condition":"poor","id":"a672kk2fuq5s","bio_oe":0.79,"maxflow_oe":1.94,"year":2003,"longitude":-75.11961611,"minflow_oe":1.12},"type":"Feature","geometry":{"type":"Point","coordinates":[-75.11961611,40.22927444]}},{"properties":{"name":"CARMANS RIVER AT YAPHANK NY","latitude":40.8495425,"date":{"end_time":"1996/09/04 00:00:00 -0400","original":"3-Sep-96","granularity":"day","time":"1996/09/03 00:00:00 -0400"},"bioid":"T01305000","bio_condition":"poor","id":"a672kjqdm0xl","bio_oe":0.79,"maxflow_oe":0.04,"year":1996,"longitude":-73.22428083,"minflow_oe":0.41},"type":"Feature","geometry":{"type":"Point","coordinates":[-73.22428083,40.8495425]}},{"properties":{"name":"CARSON RV NR FORT CHURCHILL, NV","latitude":39.29166667,"date":{"end_time":"1996/10/11 00:00:00 -0400","original":"10-Oct-96","granularity":"day","time":"1996/10/10 00:00:00 -0400"},"bioid":"T10312000","bio_condition":"poor","id":"a672kju2rsvh","bio_oe":0.79,"maxflow_oe":0.41,"year":1996,"longitude":-119.3111111,"minflow_oe":0.03},"type":"Feature","geometry":{"type":"Point","coordinates":[-119.3111111,39.29166667]}},{"properties":{"name":"SUWANEE CREEK AT SUWANEE, GA","latitude":34.03232319,"date":{"end_time":"2003/04/29 00:00:00 -0400","original":"28-Apr-03","granularity":"day","time":"2003/04/28 00:00:00 -0400"},"bioid":"T02334885","bio_condition":"good","id":"a672kk26inp6","bio_oe":0.8,"maxflow_oe":0.66,"year":2003,"longitude":-84.08935639,"minflow_oe":0.72},"type":"Feature","geometry":{"type":"Point","coordinates":[-84.08935639,34.03232319]}},{"properties":{"name":"CATTARAUGUS CR AT GOWANDA NY","latitude":42.46395001,"date":{"end_time":"1996/06/26 00:00:00 -0400","original":"25-Jun-96","granularity":"day","time":"1996/06/25 00:00:00 -0400"},"bioid":"T04213500","bio_condition":"good","id":"a672kk0so78i","bio_oe":0.8,"maxflow_oe":0.95,"year":1996,"longitude":-78.9350347,"minflow_oe":1.7},"type":"Feature","geometry":{"type":"Point","coordinates":[-78.9350347,42.46395001]}},{"properties":{"name":"BUFFALO RIVER NEAR ST. JOE, AR","latitude":35.983175,"date":{"end_time":"1995/09/07 00:00:00 -0400","original":"6-Sep-95","granularity":"day","time":"1995/09/06 00:00:00 -0400"},"bioid":"T07056000","bio_condition":"good","id":"a672kjrr8bm1","bio_oe":0.8,"maxflow_oe":0.95,"year":1995,"longitude":-92.74755278,"minflow_oe":1.2},"type":"Feature","geometry":{"type":"Point","coordinates":[-92.74755278,35.983175]}},{"properties":{"name":"POPLAR CREEK AT ELGIN, IL","latitude":42.02613778,"date":{"end_time":"2000/07/16 00:00:00 -0400","original":"15-Jul-00","granularity":"day","time":"2000/07/15 00:00:00 -0400"},"bioid":"T05550500","bio_condition":"good","id":"a672kk2v640g","bio_oe":0.81,"maxflow_oe":1.02,"year":2000,"longitude":-88.25563306,"minflow_oe":1.27},"type":"Feature","geometry":{"type":"Point","coordinates":[-88.25563306,42.02613778]}},{"properties":{"name":"SALT CREEK AT WESTERN SPRINGS, IL","latitude":41.82586444,"date":{"end_time":"2002/07/19 00:00:00 -0400","original":"18-Jul-02","granularity":"day","time":"2002/07/18 00:00:00 -0400"},"bioid":"T05531500","bio_condition":"good","id":"a672kjndlznp","bio_oe":0.81,"maxflow_oe":0.77,"year":2002,"longitude":-87.90061583,"minflow_oe":16.58},"type":"Feature","geometry":{"type":"Point","coordinates":[-87.90061583,41.82586444]}},{"properties":{"name":"BEAR CREEK AT MAYS STORE, NC","latitude":35.27472222,"date":{"end_time":"1995/02/09 00:00:00 -0500","original":"8-Feb-95","granularity":"day","time":"1995/02/08 00:00:00 -0500"},"bioid":"T0208925200","bio_condition":"good","id":"a672kjpogr8u","bio_oe":0.81,"maxflow_oe":0.74,"year":1995,"longitude":-77.79444444,"minflow_oe":2.47},"type":"Feature","geometry":{"type":"Point","coordinates":[-77.79444444,35.27472222]}},{"properties":{"name":"AUGLAIZE RIVER NEAR FORT JENNINGS OH","latitude":40.94866172,"date":{"end_time":"2003/08/19 00:00:00 -0400","original":"18-Aug-03","granularity":"day","time":"2003/08/18 00:00:00 -0400"},"bioid":"T04186500","bio_condition":"good","id":"a672kjw1p4st","bio_oe":0.81,"maxflow_oe":0.79,"year":2003,"longitude":-84.26605907,"minflow_oe":0.29},"type":"Feature","geometry":{"type":"Point","coordinates":[-84.26605907,40.94866172]}},{"properties":{"name":"WALLKILL RIVER AT GARDINER NY","latitude":41.6862046,"date":{"end_time":"1995/07/19 00:00:00 -0400","original":"18-Jul-95","granularity":"day","time":"1995/07/18 00:00:00 -0400"},"bioid":"T01371500","bio_condition":"good","id":"a672kju4n4zr","bio_oe":0.82,"maxflow_oe":0.56,"year":1995,"longitude":-74.16514593,"minflow_oe":0.79},"type":"Feature","geometry":{"type":"Point","coordinates":[-74.16514593,41.6862046]}},{"properties":{"name":"CLEAR CREEK AT LILLY BRIDGE NEAR LANCING, TN","latitude":36.1031293,"date":{"end_time":"2003/07/01 00:00:00 -0400","original":"30-Jun-03","granularity":"day","time":"2003/06/30 00:00:00 -0400"},"bioid":"T03539778","bio_condition":"good","id":"a672kjyl5jwv","bio_oe":0.83,"maxflow_oe":1.27,"year":2003,"longitude":-84.71827714,"minflow_oe":0.23},"type":"Feature","geometry":{"type":"Point","coordinates":[-84.71827714,36.1031293]}},{"properties":{"name":"ELM CREEK NR CHAMPLIN, MN","latitude":45.16329811,"date":{"end_time":"1997/09/17 00:00:00 -0400","original":"16-Sep-97","granularity":"day","time":"1997/09/16 00:00:00 -0400"},"bioid":"T05287890","bio_condition":"good","id":"a672kjro0516","bio_oe":0.83,"maxflow_oe":0.42,"year":1997,"longitude":-93.43662124,"minflow_oe":0.47},"type":"Feature","geometry":{"type":"Point","coordinates":[-93.43662124,45.16329811]}},{"properties":{"name":"SNAKE CREEK NEAR WHITESBURG, GA","latitude":33.52955639,"date":{"end_time":"1995/05/24 00:00:00 -0400","original":"23-May-95","granularity":"day","time":"1995/05/23 00:00:00 -0400"},"bioid":"T02337500","bio_condition":"good","id":"a672kjsbex3g","bio_oe":0.83,"maxflow_oe":0.52,"year":1995,"longitude":-84.92827344,"minflow_oe":1.57},"type":"Feature","geometry":{"type":"Point","coordinates":[-84.92827344,33.52955639]}},{"properties":{"name":"EAST FORK WHITE RIVER AT SHOALS, IN","latitude":38.66699568,"date":{"end_time":"1993/06/22 00:00:00 -0400","original":"21-Jun-93","granularity":"day","time":"1993/06/21 00:00:00 -0400"},"bioid":"T03373500","bio_condition":"good","id":"a672kjyuopkq","bio_oe":0.84,"maxflow_oe":0.27,"year":1993,"longitude":-86.79194299,"minflow_oe":3.53},"type":"Feature","geometry":{"type":"Point","coordinates":[-86.79194299,38.66699568]}},{"properties":{"name":"SKUNK RIVER AT AUGUSTA, IA","latitude":40.75365038,"date":{"end_time":"1996/08/13 00:00:00 -0400","original":"12-Aug-96","granularity":"day","time":"1996/08/12 00:00:00 -0400"},"bioid":"T05474000","bio_condition":"good","id":"a672kjtzbfzz","bio_oe":0.85,"maxflow_oe":0.41,"year":1996,"longitude":-91.27709424,"minflow_oe":1.89},"type":"Feature","geometry":{"type":"Point","coordinates":[-91.27709424,40.75365038]}},{"properties":{"name":"METHOW RIVER NEAR PATEROS, WA","latitude":48.07736389,"date":{"end_time":"2003/09/04 00:00:00 -0400","original":"3-Sep-03","granularity":"day","time":"2003/09/03 00:00:00 -0400"},"bioid":"T12449950","bio_condition":"good","id":"a672kjumpytf","bio_oe":0.85,"maxflow_oe":0.73,"year":2003,"longitude":-119.9850722,"minflow_oe":0.85},"type":"Feature","geometry":{"type":"Point","coordinates":[-119.9850722,48.07736389]}},{"properties":{"name":"ROCK CREEK AB HWY 30/93 XING AT TWIN FALLS ID","latitude":42.566578,"date":{"end_time":"2005/06/29 00:00:00 -0400","original":"28-Jun-05","granularity":"day","time":"2005/06/28 00:00:00 -0400"},"bioid":"T13092747","bio_condition":"good","id":"a672kjri5y8f","bio_oe":0.85,"maxflow_oe":0.55,"year":2005,"longitude":-114.499484,"minflow_oe":2.41},"type":"Feature","geometry":{"type":"Point","coordinates":[-114.499484,42.566578]}},{"properties":{"name":"TONGUE RIVER NEAR DAYTON, WY","latitude":44.84941233,"date":{"end_time":"2001/09/18 00:00:00 -0400","original":"17-Sep-01","granularity":"day","time":"2001/09/17 00:00:00 -0400"},"bioid":"T06298000","bio_condition":"good","id":"a672kk28brjs","bio_oe":0.85,"maxflow_oe":0.56,"year":2001,"longitude":-107.3045253,"minflow_oe":1.13},"type":"Feature","geometry":{"type":"Point","coordinates":[-107.3045253,44.84941233]}},{"properties":{"name":"FLATHEAD RIVER AT PERMA MT","latitude":47.36743194,"date":{"end_time":"1999/08/26 00:00:00 -0400","original":"25-Aug-99","granularity":"day","time":"1999/08/25 00:00:00 -0400"},"bioid":"T12388700","bio_condition":"good","id":"a672kjri0utt","bio_oe":0.85,"maxflow_oe":0.6,"year":1999,"longitude":-114.5851264,"minflow_oe":1.79},"type":"Feature","geometry":{"type":"Point","coordinates":[-114.5851264,47.36743194]}},{"properties":{"name":"IOWA RIVER AT MARENGO, IA","latitude":41.81272566,"date":{"end_time":"1996/08/29 00:00:00 -0400","original":"28-Aug-96","granularity":"day","time":"1996/08/28 00:00:00 -0400"},"bioid":"T05453100","bio_condition":"good","id":"a672kjowysrv","bio_oe":0.85,"maxflow_oe":0.35,"year":1996,"longitude":-92.06479206,"minflow_oe":1.76},"type":"Feature","geometry":{"type":"Point","coordinates":[-92.06479206,41.81272566]}},{"properties":{"name":"BIG BUREAU CREEK AT PRINCETON, IL","latitude":41.36586972,"date":{"end_time":"1997/08/12 00:00:00 -0400","original":"11-Aug-97","granularity":"day","time":"1997/08/11 00:00:00 -0400"},"bioid":"T05556500","bio_condition":"good","id":"a672kjy5eqsz","bio_oe":0.85,"maxflow_oe":1.9,"year":1997,"longitude":-89.49842667,"minflow_oe":1.59},"type":"Feature","geometry":{"type":"Point","coordinates":[-89.49842667,41.36586972]}},{"properties":{"name":"COW CASTLE CREEK NEAR BOWMAN, SC","latitude":33.37876889,"date":{"end_time":"2003/08/13 00:00:00 -0400","original":"12-Aug-03","granularity":"day","time":"2003/08/12 00:00:00 -0400"},"bioid":"T02174250","bio_condition":"good","id":"a672kk1yzolv","bio_oe":0.85,"maxflow_oe":0.97,"year":2003,"longitude":-80.699815,"minflow_oe":0.61},"type":"Feature","geometry":{"type":"Point","coordinates":[-80.699815,33.37876889]}},{"properties":{"name":"KANKAKEE RIVER AT MOMENCE, IL","latitude":41.16003333,"date":{"end_time":"1999/07/22 00:00:00 -0400","original":"21-Jul-99","granularity":"day","time":"1999/07/21 00:00:00 -0400"},"bioid":"T05520500","bio_condition":"good","id":"a672kk1go4vj","bio_oe":0.85,"maxflow_oe":0.23,"year":1999,"longitude":-87.66864833,"minflow_oe":2.66},"type":"Feature","geometry":{"type":"Point","coordinates":[-87.66864833,41.16003333]}},{"properties":{"name":"SANGAMON RIVER AT MONTICELLO, IL","latitude":40.03086722,"date":{"end_time":"2002/08/02 00:00:00 -0400","original":"1-Aug-02","granularity":"day","time":"2002/08/01 00:00:00 -0400"},"bioid":"T05572000","bio_condition":"good","id":"a672kjxggr7w","bio_oe":0.85,"maxflow_oe":0.53,"year":2002,"longitude":-88.58895417,"minflow_oe":0.38},"type":"Feature","geometry":{"type":"Point","coordinates":[-88.58895417,40.03086722]}},{"properties":{"name":"BROAD BROOK AT BROAD BROOK, CT.","latitude":41.91388889,"date":{"end_time":"1995/09/09 00:00:00 -0400","original":"8-Sep-95","granularity":"day","time":"1995/09/08 00:00:00 -0400"},"bioid":"T01184490","bio_condition":"good","id":"a672kjmw34n8","bio_oe":0.85,"maxflow_oe":0.56,"year":1995,"longitude":-72.55,"minflow_oe":4.6},"type":"Feature","geometry":{"type":"Point","coordinates":[-72.55,41.91388889]}},{"properties":{"name":"FRENCH CREEK AT UTICA, PA","latitude":41.43755525,"date":{"end_time":"1998/07/23 00:00:00 -0400","original":"22-Jul-98","granularity":"day","time":"1998/07/22 00:00:00 -0400"},"bioid":"T03024000","bio_condition":"good","id":"a672kjumb6fi","bio_oe":0.86,"maxflow_oe":0.44,"year":1998,"longitude":-79.95589122,"minflow_oe":0.92},"type":"Feature","geometry":{"type":"Point","coordinates":[-79.95589122,41.43755525]}},{"properties":{"name":"FORT RIVER NEAR AMHERST, MA","latitude":42.35842361,"date":{"end_time":"1994/10/04 00:00:00 -0400","original":"3-Oct-94","granularity":"day","time":"1994/10/03 00:00:00 -0400"},"bioid":"T01171300","bio_condition":"good","id":"a672kk2ho8ha","bio_oe":0.86,"maxflow_oe":0.85,"year":1994,"longitude":-72.50592028,"minflow_oe":1.44},"type":"Feature","geometry":{"type":"Point","coordinates":[-72.50592028,42.35842361]}},{"properties":{"name":"ILLINOIS RIVER NEAR TAHLEQUAH, OK","latitude":35.92286889,"date":{"end_time":"1994/09/09 00:00:00 -0400","original":"8-Sep-94","granularity":"day","time":"1994/09/08 00:00:00 -0400"},"bioid":"T07196500","bio_condition":"good","id":"a672kjr9ugcy","bio_oe":0.86,"maxflow_oe":0.84,"year":1994,"longitude":-94.92356583,"minflow_oe":1.45},"type":"Feature","geometry":{"type":"Point","coordinates":[-94.92356583,35.92286889]}},{"properties":{"name":"SALT RIVER AB RESERVOIR NR ETNA WY","latitude":43.07972222,"date":{"end_time":"1995/08/22 00:00:00 -0400","original":"21-Aug-95","granularity":"day","time":"1995/08/21 00:00:00 -0400"},"bioid":"T13027500","bio_condition":"good","id":"a672kjumyozw","bio_oe":0.86,"maxflow_oe":0.48,"year":1995,"longitude":-111.0372222,"minflow_oe":1.86},"type":"Feature","geometry":{"type":"Point","coordinates":[-111.0372222,43.07972222]}},{"properties":{"name":"RIVER RAISIN NEAR MANCHESTER, MI","latitude":42.16809473,"date":{"end_time":"2003/08/20 00:00:00 -0400","original":"19-Aug-03","granularity":"day","time":"2003/08/19 00:00:00 -0400"},"bioid":"T04175600","bio_condition":"good","id":"a672kjzu907e","bio_oe":0.87,"maxflow_oe":0.43,"year":2003,"longitude":-84.07605754,"minflow_oe":0.41},"type":"Feature","geometry":{"type":"Point","coordinates":[-84.07605754,42.16809473]}},{"properties":{"name":"SANTA FE RIVER ABOVE COCHITI LAKE, NM","latitude":35.54697833,"date":{"end_time":"1995/06/30 00:00:00 -0400","original":"29-Jun-95","granularity":"day","time":"1995/06/29 00:00:00 -0400"},"bioid":"T08317200","bio_condition":"good","id":"a672kjwjzbql","bio_oe":0.87,"maxflow_oe":0.44,"year":1995,"longitude":-106.2286344,"minflow_oe":0.45},"type":"Feature","geometry":{"type":"Point","coordinates":[-106.2286344,35.54697833]}},{"properties":{"name":"MILWAUKEE RIVER AT MILWAUKEE, WI","latitude":43.10001159,"date":{"end_time":"2002/09/10 00:00:00 -0400","original":"9-Sep-02","granularity":"day","time":"2002/09/09 00:00:00 -0400"},"bioid":"T04087000","bio_condition":"good","id":"a672kjzu3iqp","bio_oe":0.87,"maxflow_oe":0.38,"year":2002,"longitude":-87.90897449,"minflow_oe":1.5},"type":"Feature","geometry":{"type":"Point","coordinates":[-87.90897449,43.10001159]}},{"properties":{"name":"PEACHTREE CREEK AT ATLANTA, GA","latitude":33.81944444,"date":{"end_time":"1995/05/16 00:00:00 -0400","original":"15-May-95","granularity":"day","time":"1995/05/15 00:00:00 -0400"},"bioid":"T02336300","bio_condition":"good","id":"a672kk0u7o1c","bio_oe":0.87,"maxflow_oe":1.28,"year":1995,"longitude":-84.40777778,"minflow_oe":1.23},"type":"Feature","geometry":{"type":"Point","coordinates":[-84.40777778,33.81944444]}},{"properties":{"name":"ROCKAWAY RIVER ABOVE RESERVOIR AT BOONTON NJ","latitude":40.90277778,"date":{"end_time":"1996/09/26 00:00:00 -0400","original":"25-Sep-96","granularity":"day","time":"1996/09/25 00:00:00 -0400"},"bioid":"T01380500","bio_condition":"good","id":"a672kjz3h2re","bio_oe":0.87,"maxflow_oe":0.5,"year":1996,"longitude":-74.40972222,"minflow_oe":1.09},"type":"Feature","geometry":{"type":"Point","coordinates":[-74.40972222,40.90277778]}},{"properties":{"name":"BOGUE PHALIA NR LELAND, MS","latitude":33.39666667,"date":{"end_time":"2004/08/05 00:00:00 -0400","original":"4-Aug-04","granularity":"day","time":"2004/08/04 00:00:00 -0400"},"bioid":"T07288650","bio_condition":"good","id":"a672kjuc0oso","bio_oe":0.87,"maxflow_oe":0.45,"year":2004,"longitude":-90.84777778,"minflow_oe":0.38},"type":"Feature","geometry":{"type":"Point","coordinates":[-90.84777778,33.39666667]}},{"properties":{"name":"ACCOTINK CREEK NEAR ANNANDALE, VA","latitude":38.81289066,"date":{"end_time":"2004/07/07 00:00:00 -0400","original":"6-Jul-04","granularity":"day","time":"2004/07/06 00:00:00 -0400"},"bioid":"T01654000","bio_condition":"good","id":"a672kjw6s6qt","bio_oe":0.87,"maxflow_oe":1.7,"year":2004,"longitude":-77.22831581,"minflow_oe":0.92},"type":"Feature","geometry":{"type":"Point","coordinates":[-77.22831581,38.81289066]}},{"properties":{"name":"NESHANIC RIVER AT REAVILLE NJ","latitude":40.47333333,"date":{"end_time":"1998/07/21 00:00:00 -0400","original":"20-Jul-98","granularity":"day","time":"1998/07/20 00:00:00 -0400"},"bioid":"T01398000","bio_condition":"good","id":"a672kjtlygh8","bio_oe":0.87,"maxflow_oe":3.01,"year":1998,"longitude":-74.82777778,"minflow_oe":0.58},"type":"Feature","geometry":{"type":"Point","coordinates":[-74.82777778,40.47333333]}},{"properties":{"name":"MORGAN CREEK NEAR KENNEDYVILLE, MD","latitude":39.28002778,"date":{"end_time":"2004/07/02 00:00:00 -0400","original":"1-Jul-04","granularity":"day","time":"2004/07/01 00:00:00 -0400"},"bioid":"T01493500","bio_condition":"good","id":"a672kjvb3n9b","bio_oe":0.88,"maxflow_oe":0.82,"year":2004,"longitude":-76.01455556,"minflow_oe":1.77},"type":"Feature","geometry":{"type":"Point","coordinates":[-76.01455556,39.28002778]}},{"properties":{"name":"TETON RIVER NR ST ANTHONY ID","latitude":43.927135,"date":{"end_time":"1993/09/10 00:00:00 -0400","original":"9-Sep-93","granularity":"day","time":"1993/09/09 00:00:00 -0400"},"bioid":"T13055000","bio_condition":"good","id":"a672kjuh0ab1","bio_oe":0.88,"maxflow_oe":0.44,"year":1993,"longitude":-111.6160711,"minflow_oe":1.09},"type":"Feature","geometry":{"type":"Point","coordinates":[-111.6160711,43.927135]}},{"properties":{"name":"LITTLE HOOSIC RIVER AT PETERSBURG NY","latitude":42.76396763,"date":{"end_time":"1993/08/04 00:00:00 -0400","original":"3-Aug-93","granularity":"day","time":"1993/08/03 00:00:00 -0400"},"bioid":"T01333500","bio_condition":"good","id":"a672kjzpfyj2","bio_oe":0.88,"maxflow_oe":0.82,"year":1993,"longitude":-73.33733273,"minflow_oe":0.99},"type":"Feature","geometry":{"type":"Point","coordinates":[-73.33733273,42.76396763]}},{"properties":{"name":"LITTLE ABIQUA CREEK NEAR SCOTTS MILLS, OR","latitude":44.9556775,"date":{"end_time":"2004/10/15 00:00:00 -0400","original":"14-Oct-04","granularity":"day","time":"2004/10/14 00:00:00 -0400"},"bioid":"T14200400","bio_condition":"good","id":"a672kjyrhwwc","bio_oe":0.89,"maxflow_oe":0.65,"year":2004,"longitude":-122.62842,"minflow_oe":0.48},"type":"Feature","geometry":{"type":"Point","coordinates":[-122.62842,44.9556775]}},{"properties":{"name":"UNCOMPAHGRE RIVER NEAR RIDGWAY, CO.","latitude":38.18387913,"date":{"end_time":"1998/08/06 00:00:00 -0400","original":"5-Aug-98","granularity":"day","time":"1998/08/05 00:00:00 -0400"},"bioid":"T09146200","bio_condition":"good","id":"a672kjpcba33","bio_oe":0.9,"maxflow_oe":0.9,"year":1998,"longitude":-107.7458924,"minflow_oe":1.77},"type":"Feature","geometry":{"type":"Point","coordinates":[-107.7458924,38.18387913]}},{"properties":{"name":"JUNIATA RIVER AT NEWPORT, PA","latitude":40.47841677,"date":{"end_time":"1993/08/24 00:00:00 -0400","original":"23-Aug-93","granularity":"day","time":"1993/08/23 00:00:00 -0400"},"bioid":"T01567000","bio_condition":"good","id":"a672kk17u118","bio_oe":0.9,"maxflow_oe":0.39,"year":1993,"longitude":-77.1291484,"minflow_oe":2.11},"type":"Feature","geometry":{"type":"Point","coordinates":[-77.1291484,40.47841677]}},{"properties":{"name":"NORTH BRANCH RARITAN RIVER NEAR RARITAN NJ","latitude":40.57055556,"date":{"end_time":"1996/09/11 00:00:00 -0400","original":"10-Sep-96","granularity":"day","time":"1996/09/10 00:00:00 -0400"},"bioid":"T01400000","bio_condition":"good","id":"a672kk25mevv","bio_oe":0.9,"maxflow_oe":1.14,"year":1996,"longitude":-74.67916667,"minflow_oe":1.73},"type":"Feature","geometry":{"type":"Point","coordinates":[-74.67916667,40.57055556]}},{"properties":{"name":"LITTLE CAHABA RIVER BELOW LEEDS, AL.","latitude":33.53454886,"date":{"end_time":"2000/06/13 00:00:00 -0400","original":"12-Jun-00","granularity":"day","time":"2000/06/12 00:00:00 -0400"},"bioid":"T02423397","bio_condition":"good","id":"a672kjqo51bb","bio_oe":0.91,"maxflow_oe":1.75,"year":2000,"longitude":-86.56248468,"minflow_oe":3.1},"type":"Feature","geometry":{"type":"Point","coordinates":[-86.56248468,33.53454886]}},{"properties":{"name":"NICKAJACK CREEK AT US 78/278, NEAR MABLETON, GA","latitude":33.80333333,"date":{"end_time":"2003/05/02 00:00:00 -0400","original":"1-May-03","granularity":"day","time":"2003/05/01 00:00:00 -0400"},"bioid":"T02336635","bio_condition":"good","id":"a672kjoc949w","bio_oe":0.91,"maxflow_oe":1.08,"year":2003,"longitude":-84.52138889,"minflow_oe":1.38},"type":"Feature","geometry":{"type":"Point","coordinates":[-84.52138889,33.80333333]}},{"properties":{"name":"CAHABA RIVER AT CENTREVILLE AL","latitude":32.94512383,"date":{"end_time":"2000/06/15 00:00:00 -0400","original":"14-Jun-00","granularity":"day","time":"2000/06/14 00:00:00 -0400"},"bioid":"T02424000","bio_condition":"good","id":"a672kk2jph4w","bio_oe":0.91,"maxflow_oe":0.85,"year":2000,"longitude":-87.1391623,"minflow_oe":2.12},"type":"Feature","geometry":{"type":"Point","coordinates":[-87.1391623,32.94512383]}},{"properties":{"name":"LITTLE BUCK CREEK NEAR INDIANAPOLIS, IN","latitude":39.6667121,"date":{"end_time":"1998/07/25 00:00:00 -0400","original":"24-Jul-98","granularity":"day","time":"1998/07/24 00:00:00 -0400"},"bioid":"T03353637","bio_condition":"good","id":"a672kjnafs14","bio_oe":0.92,"maxflow_oe":1.81,"year":1998,"longitude":-86.19665458,"minflow_oe":0.0},"type":"Feature","geometry":{"type":"Point","coordinates":[-86.19665458,39.6667121]}},{"properties":{"name":"POMME DE TERRE RIVER NEAR POLK, MO","latitude":37.68226056,"date":{"end_time":"1994/09/22 00:00:00 -0400","original":"21-Sep-94","granularity":"day","time":"1994/09/21 00:00:00 -0400"},"bioid":"T06921070","bio_condition":"good","id":"a672kjqohaiu","bio_oe":0.92,"maxflow_oe":1.58,"year":1994,"longitude":-93.37019611,"minflow_oe":0.9},"type":"Feature","geometry":{"type":"Point","coordinates":[-93.37019611,37.68226056]}},{"properties":{"name":"WOLF RIVER AT LAGRANGE, TN","latitude":35.03258972,"date":{"end_time":"2004/08/03 00:00:00 -0400","original":"2-Aug-04","granularity":"day","time":"2004/08/02 00:00:00 -0400"},"bioid":"T07030392","bio_condition":"good","id":"a672kjooyldm","bio_oe":0.92,"maxflow_oe":0.91,"year":2004,"longitude":-89.24673611,"minflow_oe":1.86},"type":"Feature","geometry":{"type":"Point","coordinates":[-89.24673611,35.03258972]}},{"properties":{"name":"TULPEHOCKEN CR NR BERNVILLE, PA.","latitude":40.41342583,"date":{"end_time":"2001/08/14 00:00:00 -0400","original":"13-Aug-01","granularity":"day","time":"2001/08/13 00:00:00 -0400"},"bioid":"T01470779","bio_condition":"good","id":"a672kjuohma9","bio_oe":0.92,"maxflow_oe":0.72,"year":2001,"longitude":-76.17161278,"minflow_oe":2.88},"type":"Feature","geometry":{"type":"Point","coordinates":[-76.17161278,40.41342583]}},{"properties":{"name":"CARSON RIVER AT DEER RUN ROAD NEAR CARSON CITY, NV","latitude":39.18137778,"date":{"end_time":"1995/09/13 00:00:00 -0400","original":"12-Sep-95","granularity":"day","time":"1995/09/12 00:00:00 -0400"},"bioid":"T10311400","bio_condition":"good","id":"a672kjxfz3ig","bio_oe":0.93,"maxflow_oe":0.51,"year":1995,"longitude":-119.6948694,"minflow_oe":0.02},"type":"Feature","geometry":{"type":"Point","coordinates":[-119.6948694,39.18137778]}},{"properties":{"name":"CRANBERRY RIVER NEAR RICHWOOD, WV","latitude":38.29539032,"date":{"end_time":"1996/08/29 00:00:00 -0400","original":"28-Aug-96","granularity":"day","time":"1996/08/28 00:00:00 -0400"},"bioid":"T03187500","bio_condition":"good","id":"a672kjp41x17","bio_oe":0.93,"maxflow_oe":1.18,"year":1996,"longitude":-80.52647493,"minflow_oe":0.64},"type":"Feature","geometry":{"type":"Point","coordinates":[-80.52647493,38.29539032]}},{"properties":{"name":"RIO GRANDE BLW TAOS JUNCTION BRIDGE NEAR TAOS, NM","latitude":36.32002278,"date":{"end_time":"1995/08/24 00:00:00 -0400","original":"23-Aug-95","granularity":"day","time":"1995/08/23 00:00:00 -0400"},"bioid":"T08276500","bio_condition":"good","id":"a672kjrzq8dr","bio_oe":0.93,"maxflow_oe":0.3,"year":1995,"longitude":-105.7544594,"minflow_oe":0.53},"type":"Feature","geometry":{"type":"Point","coordinates":[-105.7544594,36.32002278]}},{"properties":{"name":"PORTNEUF RIVER AT TOPAZ ID","latitude":42.62555556,"date":{"end_time":"1995/08/24 00:00:00 -0400","original":"23-Aug-95","granularity":"day","time":"1995/08/23 00:00:00 -0400"},"bioid":"T13073000","bio_condition":"good","id":"a672kjx7sgly","bio_oe":0.94,"maxflow_oe":0.16,"year":1995,"longitude":-112.0880556,"minflow_oe":0.76},"type":"Feature","geometry":{"type":"Point","coordinates":[-112.0880556,42.62555556]}},{"properties":{"name":"HENRYS FORK NR REXBURG ID","latitude":43.82583333,"date":{"end_time":"1993/08/18 00:00:00 -0400","original":"17-Aug-93","granularity":"day","time":"1993/08/17 00:00:00 -0400"},"bioid":"T13056500","bio_condition":"good","id":"a672kjzrlq6b","bio_oe":0.94,"maxflow_oe":0.28,"year":1993,"longitude":-111.905,"minflow_oe":0.74},"type":"Feature","geometry":{"type":"Point","coordinates":[-111.905,43.82583333]}},{"properties":{"name":"COLORADO RIVER NEAR CAMEO, CO.","latitude":39.23914631,"date":{"end_time":"1997/08/13 00:00:00 -0400","original":"12-Aug-97","granularity":"day","time":"1997/08/12 00:00:00 -0400"},"bioid":"T09095500","bio_condition":"good","id":"a672kjnlx2ek","bio_oe":0.94,"maxflow_oe":0.8,"year":1997,"longitude":-108.2661946,"minflow_oe":2.07},"type":"Feature","geometry":{"type":"Point","coordinates":[-108.2661946,39.23914631]}},{"properties":{"name":"LITTLE RIVER AT GRAYSONTOWN, VA","latitude":37.03762635,"date":{"end_time":"1997/05/15 00:00:00 -0400","original":"14-May-97","granularity":"day","time":"1997/05/14 00:00:00 -0400"},"bioid":"T03170000","bio_condition":"good","id":"a672kk19ixmc","bio_oe":0.95,"maxflow_oe":0.89,"year":1997,"longitude":-80.55672394,"minflow_oe":1.35},"type":"Feature","geometry":{"type":"Point","coordinates":[-80.55672394,37.03762635]}},{"properties":{"name":"CONOCOCHEAGUE CREEK AT FAIRVIEW, MD","latitude":39.71638889,"date":{"end_time":"1995/06/21 00:00:00 -0400","original":"20-Jun-95","granularity":"day","time":"1995/06/20 00:00:00 -0400"},"bioid":"T01614500","bio_condition":"good","id":"a672kjq6ksv7","bio_oe":0.95,"maxflow_oe":0.58,"year":1995,"longitude":-77.82477778,"minflow_oe":2.11},"type":"Feature","geometry":{"type":"Point","coordinates":[-77.82477778,39.71638889]}},{"properties":{"name":"SUGAR CREEK AT MILFORD, IL","latitude":40.63003611,"date":{"end_time":"2002/09/06 00:00:00 -0400","original":"5-Sep-02","granularity":"day","time":"2002/09/05 00:00:00 -0400"},"bioid":"T05525500","bio_condition":"good","id":"a672kjzfrbjo","bio_oe":0.95,"maxflow_oe":0.96,"year":2002,"longitude":-87.72391806,"minflow_oe":0.91},"type":"Feature","geometry":{"type":"Point","coordinates":[-87.72391806,40.63003611]}},{"properties":{"name":"NF COEUR D ALENE RIVER AT ENAVILLE ID","latitude":47.56880833,"date":{"end_time":"2000/09/13 00:00:00 -0400","original":"12-Sep-00","granularity":"day","time":"2000/09/12 00:00:00 -0400"},"bioid":"T12413000","bio_condition":"good","id":"a672kjxnyjn0","bio_oe":0.95,"maxflow_oe":1.46,"year":2000,"longitude":-116.2526694,"minflow_oe":1.09},"type":"Feature","geometry":{"type":"Point","coordinates":[-116.2526694,47.56880833]}},{"properties":{"name":"LIGHTNING CREEK AT CLARK FORK ID","latitude":48.15103861,"date":{"end_time":"1999/08/03 00:00:00 -0400","original":"2-Aug-99","granularity":"day","time":"1999/08/02 00:00:00 -0400"},"bioid":"T12392155","bio_condition":"good","id":"a672kk15i5ik","bio_oe":0.96,"maxflow_oe":1.38,"year":1999,"longitude":-116.1832311,"minflow_oe":0.2},"type":"Feature","geometry":{"type":"Point","coordinates":[-116.1832311,48.15103861]}},{"properties":{"name":"CONTENTNEA CREEK AT HOOKERTON, NC","latitude":35.42888889,"date":{"end_time":"2003/08/06 00:00:00 -0400","original":"5-Aug-03","granularity":"day","time":"2003/08/05 00:00:00 -0400"},"bioid":"T02091500","bio_condition":"good","id":"a672kjr03zvg","bio_oe":0.97,"maxflow_oe":1.01,"year":2003,"longitude":-77.5825,"minflow_oe":1.27},"type":"Feature","geometry":{"type":"Point","coordinates":[-77.5825,35.42888889]}},{"properties":{"name":"SOUTH FORK SB POTOMAC RIVER NEAR MOOREFIELD, WV","latitude":39.01161111,"date":{"end_time":"1995/08/17 00:00:00 -0400","original":"16-Aug-95","granularity":"day","time":"1995/08/16 00:00:00 -0400"},"bioid":"T01608000","bio_condition":"good","id":"a672kjsfg727","bio_oe":0.97,"maxflow_oe":0.79,"year":1995,"longitude":-78.95727778,"minflow_oe":0.77},"type":"Feature","geometry":{"type":"Point","coordinates":[-78.95727778,39.01161111]}},{"properties":{"name":"BARON FORK AT ELDON, OK","latitude":35.92120028,"date":{"end_time":"1994/09/07 00:00:00 -0400","original":"6-Sep-94","granularity":"day","time":"1994/09/06 00:00:00 -0400"},"bioid":"T07197000","bio_condition":"good","id":"a672kjycu91q","bio_oe":0.97,"maxflow_oe":1.16,"year":1994,"longitude":-94.83856333,"minflow_oe":1.41},"type":"Feature","geometry":{"type":"Point","coordinates":[-94.83856333,35.92120028]}},{"properties":{"name":"CANAJOHARIE CREEK NR CANAJOHARIE NY","latitude":42.87618445,"date":{"end_time":"2003/07/30 00:00:00 -0400","original":"29-Jul-03","granularity":"day","time":"2003/07/29 00:00:00 -0400"},"bioid":"T01349150","bio_condition":"good","id":"a672kk0g6ie9","bio_oe":0.98,"maxflow_oe":1.11,"year":2003,"longitude":-74.60291927,"minflow_oe":0.78},"type":"Feature","geometry":{"type":"Point","coordinates":[-74.60291927,42.87618445]}},{"properties":{"name":"LAUREL HILL CREEK AT URSINA, PA","latitude":39.82035504,"date":{"end_time":"1997/08/22 00:00:00 -0400","original":"21-Aug-97","granularity":"day","time":"1997/08/21 00:00:00 -0400"},"bioid":"T03080000","bio_condition":"good","id":"a672kjvrde1l","bio_oe":0.98,"maxflow_oe":0.99,"year":1997,"longitude":-79.32142274,"minflow_oe":1.16},"type":"Feature","geometry":{"type":"Point","coordinates":[-79.32142274,39.82035504]}},{"properties":{"name":"YELLOWSTONE RIVER NEAR LIVINGSTON, MT","latitude":45.5971581,"date":{"end_time":"2000/08/23 00:00:00 -0400","original":"22-Aug-00","granularity":"day","time":"2000/08/22 00:00:00 -0400"},"bioid":"T06192500","bio_condition":"good","id":"a672kjrjsd2v","bio_oe":0.98,"maxflow_oe":0.91,"year":2000,"longitude":-110.5660394,"minflow_oe":1.69},"type":"Feature","geometry":{"type":"Point","coordinates":[-110.5660394,45.5971581]}},{"properties":{"name":"CAHABA VALLEY CREEK AT CROSS CR RD AT PELHAM, AL.","latitude":33.31344546,"date":{"end_time":"2003/07/19 00:00:00 -0400","original":"18-Jul-03","granularity":"day","time":"2003/07/18 00:00:00 -0400"},"bioid":"T0242354750","bio_condition":"good","id":"a672kjpc305u","bio_oe":0.98,"maxflow_oe":0.99,"year":2003,"longitude":-86.80637748,"minflow_oe":2.15},"type":"Feature","geometry":{"type":"Point","coordinates":[-86.80637748,33.31344546]}},{"properties":{"name":"TAYLOR CREEK NEAR SELLECK, WA","latitude":47.38649139,"date":{"end_time":"1997/08/23 00:00:00 -0400","original":"22-Aug-97","granularity":"day","time":"1997/08/22 00:00:00 -0400"},"bioid":"T12117000","bio_condition":"good","id":"a672kjxrgi1d","bio_oe":0.98,"maxflow_oe":1.11,"year":1997,"longitude":-121.8462217,"minflow_oe":1.19},"type":"Feature","geometry":{"type":"Point","coordinates":[-121.8462217,47.38649139]}},{"properties":{"name":"SOPE CREEK NEAR MARIETTA, GA","latitude":33.95388889,"date":{"end_time":"2004/05/29 00:00:00 -0400","original":"28-May-04","granularity":"day","time":"2004/05/28 00:00:00 -0400"},"bioid":"T02335870","bio_condition":"good","id":"a672kjx7l4l8","bio_oe":0.99,"maxflow_oe":1.3,"year":2004,"longitude":-84.44333333,"minflow_oe":1.43},"type":"Feature","geometry":{"type":"Point","coordinates":[-84.44333333,33.95388889]}},{"properties":{"name":"WAPPINGER CREEK NEAR CLINTON CORNERS NY","latitude":41.81537121,"date":{"end_time":"1993/08/20 00:00:00 -0400","original":"19-Aug-93","granularity":"day","time":"1993/08/19 00:00:00 -0400"},"bioid":"T01372200","bio_condition":"good","id":"a672kjwsowyr","bio_oe":0.99,"maxflow_oe":0.63,"year":1993,"longitude":-73.76346356,"minflow_oe":0.93},"type":"Feature","geometry":{"type":"Point","coordinates":[-73.76346356,41.81537121]}},{"properties":{"name":"NF SKOKOMISH R BL STAIRCASE RPDS NR HOODSPORT, WA","latitude":47.51425667,"date":{"end_time":"2005/08/24 00:00:00 -0400","original":"23-Aug-05","granularity":"day","time":"2005/08/23 00:00:00 -0400"},"bioid":"T12056500","bio_condition":"good","id":"a672kju4tk2d","bio_oe":0.99,"maxflow_oe":1.29,"year":2005,"longitude":-123.3298869,"minflow_oe":0.77},"type":"Feature","geometry":{"type":"Point","coordinates":[-123.3298869,47.51425667]}},{"properties":{"name":"WADING RIVER NEAR NORTON, MA","latitude":41.94760028,"date":{"end_time":"2000/08/10 00:00:00 -0400","original":"9-Aug-00","granularity":"day","time":"2000/08/09 00:00:00 -0400"},"bioid":"T01109000","bio_condition":"good","id":"a672kjwp33sz","bio_oe":1.0,"maxflow_oe":0.65,"year":2000,"longitude":-71.17671556,"minflow_oe":0.34},"type":"Feature","geometry":{"type":"Point","coordinates":[-71.17671556,41.94760028]}},{"properties":{"name":"SANGAMON RIVER AT FISHER, IL","latitude":40.31058889,"date":{"end_time":"1997/08/16 00:00:00 -0400","original":"15-Aug-97","granularity":"day","time":"1997/08/15 00:00:00 -0400"},"bioid":"T05570910","bio_condition":"good","id":"a672kjxyc6nv","bio_oe":1.0,"maxflow_oe":1.59,"year":1997,"longitude":-88.32227528,"minflow_oe":0.92},"type":"Feature","geometry":{"type":"Point","coordinates":[-88.32227528,40.31058889]}},{"properties":{"name":"SHENANDOAH RIVER AT MILLVILLE, WV","latitude":39.28241667,"date":{"end_time":"1994/06/24 00:00:00 -0400","original":"23-Jun-94","granularity":"day","time":"1994/06/23 00:00:00 -0400"},"bioid":"T01636500","bio_condition":"good","id":"a672kjohjnyz","bio_oe":1.0,"maxflow_oe":0.55,"year":1994,"longitude":-77.78958333,"minflow_oe":1.92},"type":"Feature","geometry":{"type":"Point","coordinates":[-77.78958333,39.28241667]}},{"properties":{"name":"COGINCHAUG RIVER AT MIDDLEFIELD, CT","latitude":41.52009806,"date":{"end_time":"1994/09/15 00:00:00 -0400","original":"14-Sep-94","granularity":"day","time":"1994/09/14 00:00:00 -0400"},"bioid":"T01192883","bio_condition":"good","id":"a672kjygxkaj","bio_oe":1.0,"maxflow_oe":0.79,"year":1994,"longitude":-72.70592889,"minflow_oe":0.74},"type":"Feature","geometry":{"type":"Point","coordinates":[-72.70592889,41.52009806]}},{"properties":{"name":"CURRENT RIVER AT VAN BUREN, MO","latitude":36.99144,"date":{"end_time":"1995/08/22 00:00:00 -0400","original":"21-Aug-95","granularity":"day","time":"1995/08/21 00:00:00 -0400"},"bioid":"T07067000","bio_condition":"good","id":"a672kk35igck","bio_oe":1.0,"maxflow_oe":1.25,"year":1995,"longitude":-91.01484917,"minflow_oe":1.33},"type":"Feature","geometry":{"type":"Point","coordinates":[-91.01484917,36.99144]}},{"properties":{"name":"BITTERROOT RIVER NEAR MISSOULA MT","latitude":46.83186778,"date":{"end_time":"1999/08/12 00:00:00 -0400","original":"11-Aug-99","granularity":"day","time":"1999/08/11 00:00:00 -0400"},"bioid":"T12352500","bio_condition":"good","id":"a672kjxoee3q","bio_oe":1.0,"maxflow_oe":0.83,"year":1999,"longitude":-114.0539997,"minflow_oe":1.2},"type":"Feature","geometry":{"type":"Point","coordinates":[-114.0539997,46.83186778]}},{"properties":{"name":"IOWA RIVER NEAR ROWAN, IA","latitude":42.75994409,"date":{"end_time":"1969/12/31 19:00:01 -0500","original":"11-Aug-03","granularity":"usec","time":"1969/12/31 19:00:00 -0500"},"bioid":"T05449500","bio_condition":"good","id":"a672kjtr3dqs","bio_oe":1.0,"maxflow_oe":0.38,"year":2003,"longitude":-93.62184892,"minflow_oe":1.33},"type":"Feature","geometry":{"type":"Point","coordinates":[-93.62184892,42.75994409]}},{"properties":{"name":"CACHE RIVER NEAR COTTON PLANT,AR.","latitude":35.03536861,"date":{"end_time":"1998/09/11 00:00:00 -0400","original":"10-Sep-98","granularity":"day","time":"1998/09/10 00:00:00 -0400"},"bioid":"T07077555","bio_condition":"good","id":"a672kjxu6lwb","bio_oe":1.0,"maxflow_oe":0.15,"year":1998,"longitude":-91.32207194,"minflow_oe":0.96},"type":"Feature","geometry":{"type":"Point","coordinates":[-91.32207194,35.03536861]}},{"properties":{"name":"JACOB FORK AT RAMSEY, NC","latitude":35.59068639,"date":{"end_time":"1996/06/20 00:00:00 -0400","original":"19-Jun-96","granularity":"day","time":"1996/06/19 00:00:00 -0400"},"bioid":"T02143040","bio_condition":"good","id":"a672kjs0la7c","bio_oe":1.0,"maxflow_oe":1.13,"year":1996,"longitude":-81.56703694,"minflow_oe":1.11},"type":"Feature","geometry":{"type":"Point","coordinates":[-81.56703694,35.59068639]}},{"properties":{"name":"MERCED R A HAPPY ISLES BRIDGE NR YOSEMITE CA","latitude":37.73159272,"date":{"end_time":"1996/09/18 00:00:00 -0400","original":"17-Sep-96","granularity":"day","time":"1996/09/17 00:00:00 -0400"},"bioid":"T11264500","bio_condition":"good","id":"a672kjq2dmv5","bio_oe":1.0,"maxflow_oe":1.02,"year":1996,"longitude":-119.5587736,"minflow_oe":0.58},"type":"Feature","geometry":{"type":"Point","coordinates":[-119.5587736,37.73159272]}},{"properties":{"name":"RED BUTTE CREEK AT FORT DOUGLAS, NEAR SLC, UT","latitude":40.77994639,"date":{"end_time":"2002/08/07 00:00:00 -0400","original":"6-Aug-02","granularity":"day","time":"2002/08/06 00:00:00 -0400"},"bioid":"T10172200","bio_condition":"good","id":"a672kjrl7gyy","bio_oe":1.0,"maxflow_oe":0.35,"year":2002,"longitude":-111.806045,"minflow_oe":1.26},"type":"Feature","geometry":{"type":"Point","coordinates":[-111.806045,40.77994639]}},{"properties":{"name":"NORTH RIVER NEAR STOKESVILLE, VA","latitude":38.33595904,"date":{"end_time":"1995/08/15 00:00:00 -0400","original":"14-Aug-95","granularity":"day","time":"1995/08/14 00:00:00 -0400"},"bioid":"T01620500","bio_condition":"good","id":"a672kjteypu1","bio_oe":1.0,"maxflow_oe":2.5,"year":1995,"longitude":-79.23920288,"minflow_oe":0.4},"type":"Feature","geometry":{"type":"Point","coordinates":[-79.23920288,38.33595904]}},{"properties":{"name":"CLARK FORK AT TURAH BRIDGE NR BONNER MT","latitude":46.8260375,"date":{"end_time":"1999/08/11 00:00:00 -0400","original":"10-Aug-99","granularity":"day","time":"1999/08/10 00:00:00 -0400"},"bioid":"T12334550","bio_condition":"good","id":"a672kk2i6u2v","bio_oe":1.0,"maxflow_oe":0.65,"year":1999,"longitude":-113.8142678,"minflow_oe":1.09},"type":"Feature","geometry":{"type":"Point","coordinates":[-113.8142678,46.8260375]}},{"properties":{"name":"WEBER RIVER NEAR COALVILLE, UT","latitude":40.89522528,"date":{"end_time":"2001/07/10 00:00:00 -0400","original":"9-Jul-01","granularity":"day","time":"2001/07/09 00:00:00 -0400"},"bioid":"T10130500","bio_condition":"good","id":"a672kjum6b75","bio_oe":1.0,"maxflow_oe":0.38,"year":2001,"longitude":-111.4018633,"minflow_oe":1.65},"type":"Feature","geometry":{"type":"Point","coordinates":[-111.4018633,40.89522528]}},{"properties":{"name":"NEWAUKUM CREEK NEAR BLACK DIAMOND, WA","latitude":47.27565639,"date":{"end_time":"1998/08/27 00:00:00 -0400","original":"26-Aug-98","granularity":"day","time":"1998/08/26 00:00:00 -0400"},"bioid":"T12108500","bio_condition":"good","id":"a672kjndifco","bio_oe":1.0,"maxflow_oe":1.11,"year":1998,"longitude":-122.0595589,"minflow_oe":0.92},"type":"Feature","geometry":{"type":"Point","coordinates":[-122.0595589,47.27565639]}},{"properties":{"name":"COLORADO RIVER NEAR DOTSERO, CO.","latitude":39.64387303,"date":{"end_time":"1997/08/12 00:00:00 -0400","original":"11-Aug-97","granularity":"day","time":"1997/08/11 00:00:00 -0400"},"bioid":"T09070500","bio_condition":"good","id":"a672kk0cwcip","bio_oe":1.0,"maxflow_oe":0.68,"year":1997,"longitude":-107.0778264,"minflow_oe":1.55},"type":"Feature","geometry":{"type":"Point","coordinates":[-107.0778264,39.64387303]}},{"properties":{"name":"SWATARA CREEK NEAR HERSHEY, PA","latitude":40.29842358,"date":{"end_time":"1994/08/17 00:00:00 -0400","original":"16-Aug-94","granularity":"day","time":"1994/08/16 00:00:00 -0400"},"bioid":"T01573560","bio_condition":"good","id":"a672kjqw9snz","bio_oe":1.0,"maxflow_oe":0.76,"year":1994,"longitude":-76.66774686,"minflow_oe":1.65},"type":"Feature","geometry":{"type":"Point","coordinates":[-76.66774686,40.29842358]}},{"properties":{"name":"ENGLISH RIVER AT KALONA, IA","latitude":41.46973872,"date":{"end_time":"1997/08/12 00:00:00 -0400","original":"11-Aug-97","granularity":"day","time":"1997/08/11 00:00:00 -0400"},"bioid":"T05455500","bio_condition":"good","id":"a672kjwqwb03","bio_oe":1.0,"maxflow_oe":1.32,"year":1997,"longitude":-91.71461293,"minflow_oe":2.14},"type":"Feature","geometry":{"type":"Point","coordinates":[-91.71461293,41.46973872]}},{"properties":{"name":"SADDLE RIVER AT RIDGEWOOD NJ","latitude":40.985,"date":{"end_time":"1998/07/22 00:00:00 -0400","original":"21-Jul-98","granularity":"day","time":"1998/07/21 00:00:00 -0400"},"bioid":"T01390500","bio_condition":"good","id":"a672kk3980vl","bio_oe":1.0,"maxflow_oe":0.56,"year":1998,"longitude":-74.09055556,"minflow_oe":0.94},"type":"Feature","geometry":{"type":"Point","coordinates":[-74.09055556,40.985]}},{"properties":{"name":"WHITE RIVER AT WEST HARTFORD, VT","latitude":43.71423611,"date":{"end_time":"1995/09/13 00:00:00 -0400","original":"12-Sep-95","granularity":"day","time":"1995/09/12 00:00:00 -0400"},"bioid":"T01144000","bio_condition":"good","id":"a672kjocb6go","bio_oe":1.0,"maxflow_oe":0.77,"year":1995,"longitude":-72.41814889,"minflow_oe":1.06},"type":"Feature","geometry":{"type":"Point","coordinates":[-72.41814889,43.71423611]}},{"properties":{"name":"BEAVER BROOK AT NORTH PELHAM, NH","latitude":42.78286639,"date":{"end_time":"2000/09/01 00:00:00 -0400","original":"31-Aug-00","granularity":"day","time":"2000/08/31 00:00:00 -0400"},"bioid":"T010965852","bio_condition":"good","id":"a672kjn7az84","bio_oe":1.0,"maxflow_oe":0.99,"year":2000,"longitude":-71.35367444,"minflow_oe":0.55},"type":"Feature","geometry":{"type":"Point","coordinates":[-71.35367444,42.78286639]}},{"properties":{"name":"WILD RICE RIVER AT TWIN VALLEY, MN","latitude":47.26662917,"date":{"end_time":"1995/06/20 00:00:00 -0400","original":"19-Jun-95","granularity":"day","time":"1995/06/19 00:00:00 -0400"},"bioid":"T05062500","bio_condition":"good","id":"a672kk0kl1lw","bio_oe":1.0,"maxflow_oe":0.59,"year":1995,"longitude":-96.24478028,"minflow_oe":1.35},"type":"Feature","geometry":{"type":"Point","coordinates":[-96.24478028,47.26662917]}},{"properties":{"name":"JORDAN CREEK NEAR SCHNECKSVILLE, PA","latitude":40.66176222,"date":{"end_time":"2001/08/15 00:00:00 -0400","original":"14-Aug-01","granularity":"day","time":"2001/08/14 00:00:00 -0400"},"bioid":"T01451800","bio_condition":"good","id":"a672kjzguj8p","bio_oe":1.0,"maxflow_oe":0.91,"year":2001,"longitude":-75.62685389,"minflow_oe":0.87},