{"url_type":null,"title":"CNNMoney, Fortune 500 Global 50 Biggest Employers, World, 2006","count":50,"stream_id":1003,"contributor":{"name":"data","url":"http://geocommons.com/users/2"},"extent":[-98.4946,22.2777,139.741,55.7506],"data_attributes":null,"calculation_params":null,"icon_link":null,"link":"http://geocommons.com/overlays/1003.json","features":[{"company":"Wal-Mart Stores","city":"Bentonville","lon":-94.209494,"country":"USA","rank":1,"employees":1900000,"geometry":{"type":"Point","coordinates":[-94.209494,36.372335]},"revenuerank":1,"id":"a62dmli54ykb","lat":36.372335,"state":"Arkansas"},{"company":"State Grid","city":"Beijing","lon":116.387909,"country":"China","rank":2,"employees":1504000,"geometry":{"type":"Point","coordinates":[116.387909,39.90601]},"revenuerank":29,"id":"a62dmlohtl1q","lat":39.90601,"state":""},{"company":"China National Petroleum","city":"Beijing","lon":116.387909,"country":"China","rank":3,"employees":1086966,"geometry":{"type":"Point","coordinates":[116.387909,39.90601]},"revenuerank":24,"id":"a62dmleyhwni","lat":39.90601,"state":""},{"company":"U.S. Postal Service","city":"Washington","lon":-77.031959,"country":"USA","rank":4,"employees":796199,"geometry":{"type":"Point","coordinates":[-77.031959,38.89037]},"revenuerank":64,"id":"a62dmlhq3qce","lat":38.89037,"state":"DC"},{"company":"Sinopec","city":"Beijing","lon":116.387909,"country":"China","rank":5,"employees":681900,"geometry":{"type":"Point","coordinates":[116.387909,39.90601]},"revenuerank":17,"id":"a62dmlkzowcf","lat":39.90601,"state":""},{"company":"Siemens","city":"Munich","lon":11.577526,"country":"Germany","rank":6,"employees":475000,"geometry":{"type":"Point","coordinates":[11.577526,48.136416]},"revenuerank":28,"id":"a62dmlh7c2fo","lat":48.136416,"state":""},{"company":"McDonald's","city":"Oak Brook","lon":-87.947179,"country":"USA","rank":7,"employees":465000,"geometry":{"type":"Point","coordinates":[-87.947179,41.83245]},"revenuerank":329,"id":"a62dmltemwv8","lat":41.83245,"state":"Illinois"},{"company":"Deutsche Post","city":"Bonn","lon":7.101695,"country":"Germany","rank":8,"employees":463350,"geometry":{"type":"Point","coordinates":[7.101695,50.7323]},"revenuerank":57,"id":"a62dmlnle3ft","lat":50.7323,"state":""},{"company":"Carrefour","city":"Levallois-Perret","lon":2.28505,"country":"France","rank":9,"employees":456295,"geometry":{"type":"Point","coordinates":[2.28505,48.890995]},"revenuerank":32,"id":"a62dmlr7zzbj","lat":48.890995,"state":""},{"company":"Agricultural Bank of China","city":"Beijing","lon":116.387909,"country":"China","rank":10,"employees":452464,"geometry":{"type":"Point","coordinates":[116.387909,39.90601]},"revenuerank":277,"id":"a62dmlttilth","lat":39.90601,"state":""},{"company":"Gazprom","city":"Moscow","lon":37.62767,"country":"Russia","rank":11,"employees":432230,"geometry":{"type":"Point","coordinates":[37.62767,55.75061]},"revenuerank":52,"id":"a62dmll32mym","lat":55.75061,"state":""},{"company":"United Parcel Service","city":"Atlanta","lon":-84.391109,"country":"USA","rank":12,"employees":428000,"geometry":{"type":"Point","coordinates":[-84.391109,33.748315]},"revenuerank":128,"id":"a62dmln372eg","lat":33.748315,"state":"Georgia"},{"company":"Compass Group","city":"Chertsey","lon":-0.508254,"country":"Great Britain","rank":13,"employees":406924,"geometry":{"type":"Point","coordinates":[-0.508254,51.3882]},"revenuerank":322,"id":"a62dmlejla0u","lat":51.3882,"state":""},{"company":"China Telecommunications","city":"Beijing","lon":116.387909,"country":"China","rank":14,"employees":400299,"geometry":{"type":"Point","coordinates":[116.387909,39.90601]},"revenuerank":275,"id":"a62dmlqbjbtc","lat":39.90601,"state":""},{"company":"Hitachi","city":"Tokyo","lon":139.740997,"country":"Japan","rank":15,"employees":384444,"geometry":{"type":"Point","coordinates":[139.740997,35.670502]},"revenuerank":48,"id":"a62dmlrt7q9c","lat":35.670502,"state":""},{"company":"Hon Hai Precision Industry","city":"Taipei","lon":121.564194,"country":"Taiwan","rank":16,"employees":382000,"geometry":{"type":"Point","coordinates":[121.564194,25.080441]},"revenuerank":154,"id":"a62dmletv0gp","lat":25.080441,"state":""},{"company":"DaimlerChrysler","city":"Stuttgart","lon":9.171922,"country":"Germany","rank":17,"employees":360385,"geometry":{"type":"Point","coordinates":[9.171922,48.767676]},"revenuerank":8,"id":"a62dmlqzoue7","lat":48.767676,"state":""},{"company":"International Business Machines","city":"Armonk","lon":-73.708395,"country":"USA","rank":18,"employees":355766,"geometry":{"type":"Point","coordinates":[-73.708395,41.119407]},"revenuerank":42,"id":"a62dmllr92fc","lat":41.119407,"state":"New York"},{"company":"Sears Holdings","city":"Hoffman Estates","lon":-88.124093,"country":"USA","rank":19,"employees":352000,"geometry":{"type":"Point","coordinates":[-88.124093,42.062738]},"revenuerank":114,"id":"a62dmlsafxlp","lat":42.062738,"state":"Illinois"},{"company":"Target","city":"Minneapolis","lon":-93.264929,"country":"USA","rank":19,"employees":352000,"geometry":{"type":"Point","coordinates":[-93.264929,44.979035]},"revenuerank":96,"id":"a62dmlihu49s","lat":44.979035,"state":"Minnesota"},{"company":"Industrial &amp; Commercial Bank of China","city":"Beijing","lon":116.387909,"country":"China","rank":21,"employees":351448,"geometry":{"type":"Point","coordinates":[116.387909,39.90601]},"revenuerank":170,"id":"a62dmlfyegle","lat":39.90601,"state":""},{"company":"Sodexho Alliance","city":"Montigny-le-Bretonneux","lon":2.04549,"country":"France","rank":22,"employees":332096,"geometry":{"type":"Point","coordinates":[2.04549,48.78502]},"revenuerank":483,"id":"a62dmlr2c47h","lat":48.78502,"state":""},{"company":"Citigroup","city":"New York","lon":-74.007124,"country":"USA","rank":23,"employees":332000,"geometry":{"type":"Point","coordinates":[-74.007124,40.71455]},"revenuerank":14,"id":"a62dmlp1w3mz","lat":40.71455,"state":"New York"},{"company":"Matsushita Electric Industrial","city":"Kadoma","lon":135.598007,"country":"Japan","rank":24,"employees":328645,"geometry":{"type":"Point","coordinates":[135.598007,34.730301]},"revenuerank":59,"id":"a62dmlm27eof","lat":34.730301,"state":""},{"company":"Volkswagen","city":"Wolfsburg","lon":10.787405,"country":"Germany","rank":25,"employees":324875,"geometry":{"type":"Point","coordinates":[10.787405,52.421255]},"revenuerank":16,"id":"a62dmlj3158m","lat":52.421255,"state":""},{"company":"Mittal Steel","city":"Rotterdam","lon":4.478425,"country":"Netherlands","rank":26,"employees":320000,"geometry":{"type":"Point","coordinates":[4.478425,51.92289]},"revenuerank":99,"id":"a62dmlueqam7","lat":51.92289,"state":""},{"company":"General Electric","city":"Fairfield","lon":-73.251214,"country":"USA","rank":27,"employees":319000,"geometry":{"type":"Point","coordinates":[-73.251214,41.14187]},"revenuerank":11,"id":"a62dmllnqf0y","lat":41.14187,"state":"Connecticut"},{"company":"Tesco","city":"Cheshunt","lon":-0.034519,"country":"Great Britain","rank":28,"employees":318283,"geometry":{"type":"Point","coordinates":[-0.034519,51.701355]},"revenuerank":55,"id":"a62dmlsfwyg7","lat":51.701355,"state":""},{"company":"Kroger","city":"Cincinnati","lon":-84.504732,"country":"USA","rank":29,"employees":310000,"geometry":{"type":"Point","coordinates":[-84.504732,39.106444]},"revenuerank":80,"id":"a62dmlpbu01j","lat":39.106444,"state":"Ohio"},{"company":"Home Depot","city":"Atlanta","lon":-84.391109,"country":"USA","rank":30,"employees":305760,"geometry":{"type":"Point","coordinates":[-84.391109,33.748315]},"revenuerank":44,"id":"a62dmlkxr168","lat":33.748315,"state":"Georgia"},{"company":"La Poste","city":"Paris","lon":2.34121,"country":"France","rank":31,"employees":303401,"geometry":{"type":"Point","coordinates":[2.34121,48.856925]},"revenuerank":223,"id":"a62dmletmpp7","lat":48.856925,"state":""},{"company":"AT&amp;T","city":"San Antonio","lon":-98.494624,"country":"USA","rank":32,"employees":302770,"geometry":{"type":"Point","coordinates":[-98.494624,29.42449]},"revenuerank":86,"id":"a62dmlu4wr4m","lat":29.42449,"state":"Texas"},{"company":"Toyota Motor","city":"Toyota","lon":135.403412,"country":"Japan","rank":33,"employees":299394,"geometry":{"type":"Point","coordinates":[135.403412,35.1805]},"revenuerank":6,"id":"a62dmlpabmbl","lat":35.1805,"state":""},{"company":"Veolia Environnement","city":"Paris","lon":2.34121,"country":"France","rank":34,"employees":298498,"geometry":{"type":"Point","coordinates":[2.34121,48.856925]},"revenuerank":178,"id":"a62dmlnmbnco","lat":48.856925,"state":""},{"company":"China Construction Bank","city":"Beijing","lon":116.387909,"country":"China","rank":35,"employees":297506,"geometry":{"type":"Point","coordinates":[116.387909,39.90601]},"revenuerank":230,"id":"a62dmlp6ocb7","lat":39.90601,"state":""},{"company":"HSBC Holdings","city":"London","lon":-0.127144,"country":"Great Britain","rank":36,"employees":296197,"geometry":{"type":"Point","coordinates":[-0.127144,51.506325]},"revenuerank":22,"id":"a62dmlpg7rl1","lat":51.506325,"state":""},{"company":"China State Construction","city":"Beijing","lon":116.387909,"country":"China","rank":37,"employees":294309,"geometry":{"type":"Point","coordinates":[116.387909,39.90601]},"revenuerank":396,"id":"a62dmljov4xg","lat":39.90601,"state":""},{"company":"Ford Motor","city":"Dearborn","lon":-83.176239,"country":"USA","rank":38,"employees":283000,"geometry":{"type":"Point","coordinates":[-83.176239,42.32209]},"revenuerank":12,"id":"a62dmlu2sx39","lat":42.32209,"state":"Michigan"},{"company":"General Motors","city":"Detroit","lon":-83.047924,"country":"USA","rank":39,"employees":280000,"geometry":{"type":"Point","coordinates":[-83.047924,42.331685]},"revenuerank":5,"id":"a62dmlnv18ri","lat":42.331685,"state":"Michigan"},{"company":"China Railway Engineering","city":"Beijing","lon":116.387909,"country":"China","rank":40,"employees":275866,"geometry":{"type":"Point","coordinates":[116.387909,39.90601]},"revenuerank":342,"id":"a62dmlnqy5le","lat":39.90601,"state":""},{"company":"Nestlé","city":"Vevey","lon":6.843275,"country":"Switzerland","rank":41,"employees":265000,"geometry":{"type":"Point","coordinates":[6.843275,46.462135]},"revenuerank":56,"id":"a62dmll5tuvm","lat":46.462135,"state":""},{"company":"Robert Bosch","city":"Stuttgart","lon":9.171922,"country":"Germany","rank":42,"employees":261291,"geometry":{"type":"Point","coordinates":[9.171922,48.767676]},"revenuerank":109,"id":"a62dmlus5zp7","lat":48.767676,"state":""},{"company":"Edeka Zentrale","city":"Hamburg","lon":9.992445,"country":"Germany","rank":43,"employees":253000,"geometry":{"type":"Point","coordinates":[9.992445,53.553345]},"revenuerank":338,"id":"a62dmllrzj7p","lat":53.553345,"state":""},{"company":"Deutsche Telekom","city":"Bonn","lon":7.101695,"country":"Germany","rank":44,"employees":248800,"geometry":{"type":"Point","coordinates":[7.101695,50.7323]},"revenuerank":60,"id":"a62dmlq1pem5","lat":50.7323,"state":""},{"company":"China Railway Construction","city":"Beijing","lon":116.387909,"country":"China","rank":45,"employees":245540,"geometry":{"type":"Point","coordinates":[116.387909,39.90601]},"revenuerank":384,"id":"a62dmlpb56pp","lat":39.90601,"state":""},{"company":"Verizon Communications","city":"New York","lon":-74.007124,"country":"USA","rank":46,"employees":242000,"geometry":{"type":"Point","coordinates":[-74.007124,40.71455]},"revenuerank":39,"id":"a62dmljid2re","lat":40.71455,"state":"New York"},{"company":"Jardine Matheson","city":"Hong Kong","lon":114.164742,"country":"China","rank":47,"employees":240000,"geometry":{"type":"Point","coordinates":[114.164742,22.277679]},"revenuerank":457,"id":"a62dmlljvxdc","lat":22.277679,"state":""},{"company":"Tyco International","city":"Princeton","lon":-74.659119,"country":"USA","rank":48,"employees":238200,"geometry":{"type":"Point","coordinates":[-74.659119,40.349855]},"revenuerank":149,"id":"a62dmlrw31ao","lat":40.349855,"state":"New Jersey"},{"company":"Telefónica","city":"Madrid","lon":-3.705774,"country":"Spain","rank":49,"employees":234900,"geometry":{"type":"Point","coordinates":[-3.705774,40.4203]},"revenuerank":77,"id":"a62dmllhczsh","lat":40.4203,"state":""},{"company":"Bank of China","city":"Beijing","lon":116.387909,"country":"China","rank":50,"employees":232632,"geometry":{"type":"Point","coordinates":[116.387909,39.90601]},"revenuerank":215,"id":"a62dmlmpwu0n","lat":39.90601,"state":""}],"geometry_types":["point"],"unique_name":null,"name":"CNNMoney, Fortune 500 Global 50 Biggest Employers, World, 2006","feature_count":50,"state":"complete","published":"2008-05-12T12:00:00Z","description":"This dataset shows the locations of the 50 companies that had the largest number of employees among the Fortune Global 500. The dataset also shows the company's revenue rank for 2007 The list comes from cnnmoney.com whose Fortune section does analysis on the top corporations throughout the world\n","stats":{"lon":{"max": 139.740997, "mean": 14.34026466, "variance": 6860.36801939738, "stdev": 82.827338599024, "min": -98.494624, "median": 6.843275},"rank":{"max": 50, "mean": 25.48, "variance": 212.744489795918, "stdev": 14.5857632572285, "min": 1, "median": 26},"employees":{"max": 1900000, "mean": 415392.66, "variance": 94032670385.0045, "stdev": 306647.46922974, "min": 232632, "median": 324875},"revenuerank":{"max": 483, "mean": 130.24, "variance": 17648.7575510204, "stdev": 132.848626455152, "min": 1, "median": 77},"lat":{"max": 55.75061, "mean": 42.3683336, "variance": 51.2404585653605, "stdev": 7.15824409791679, "min": 22.277679, "median": 40.71455}},"next_feature":null,"is_raster":false,"pagination":{"sort":null,"start":0,"limit":1000000,"total":50},"short_classification":"Y","is_temporal":false,"author":{"metadata":"","url":"http://money.cnn.com/magazines/fortune/global500/2007/performers/companies/biggest_employers/index.html","contact_name":"","contact_address":"","source":"cnnmoney.com","contact_phone":""},"source":"http://money.cnn.com/magazines/fortune/global500/2007/performers/companies/biggest_employers/index.html","data_type":"Dataset","permissions":[{"group_id":"everyone","permissions":{"download":true,"view":true}}],"classification":null,"tags":"500,business,businesses,employers,fortune,global,money","id":1003}