{"type":"FeatureCollection","data_type":"Dataset","url_type":null,"permissions":[{"permissions":{"download":true,"view":true},"group_id":"everyone"}],"classification":null,"title":"thurs test","count":249,"stream_id":106444,"contributor":{"url":"http://geocommons.com/users/24866","name":"citywide"},"data_attributes":null,"calculation_params":null,"icon_link":null,"link":"http://geocommons.com/overlays/106444.json","extent":[0.0,0.0,0.0,0.0],"geometry_types":null,"unique_name":null,"name":"thurs test","feature_count":249,"description":"","next_feature":null,"is_raster":false,"short_classification":"Y","stats":{},"features":[{"properties":{"name":"Andy Lipscomb","city":"Chicago","category":"LO","details":null,"zip/postal":"60670","last name":"Lipscomb","geo_score":0.0,"organization":"Chase-Downers Grove","id":"a6hff67rsc20","geo_precision":"unmatched","address":"10 S Dearborn","phone 1":"(773) 213-4741 Mobile"},"type":"Feature","geometry":null},{"properties":{"name":"Kristen Busciglio","city":"Chicago","category":"LO","details":null,"zip/postal":"60661","last name":"Busciglio","geo_score":0.0,"organization":"Bank of America-Chicago","id":"a6hff64w5j8u","geo_precision":"unmatched","address":"540 W Madison St #150","phone 1":"(866) 923-9088 Work Fax"},"type":"Feature","geometry":null},{"properties":{"name":"Joseph D Kloss","city":"Chicago","category":"LO","details":"used to work at Woodfield Planning","zip/postal":"60661","last name":"Kloss","geo_score":0.0,"organization":"Bank of America-Chicago","id":"a6hff5tfwbqs","geo_precision":"unmatched","address":"540 W Madison St #150","phone 1":"(312) 992-1375 Work"},"type":"Feature","geometry":null},{"properties":{"name":"Josh Wilson","city":"Chicago","category":"LO","details":"11/2/10: Pepsnick's team","zip/postal":"60661","last name":"Wilson","geo_score":0.0,"organization":"Chase-Downers Grove","id":"a6hff5yko3xm","geo_precision":"unmatched","address":"330 N DesPlaines St","phone 1":"(312) 733-9839 Work"},"type":"Feature","geometry":null},{"properties":{"name":"Linda Olsen","city":"Chicago","category":"Attorney","details":null,"zip/postal":"60661","last name":"Olsen","geo_score":0.0,"organization":null,"id":"a6hff5w8qnb8","geo_precision":"unmatched","address":"218 N Jefferson #400","phone 1":"(312) 474-1017 Work"},"type":"Feature","geometry":null},{"properties":{"name":"Jason H Sherwood","city":"Chicago","category":"Attorney","details":"met 4/5/10-father was big in r.e. he does short sale biz","zip/postal":"60661","last name":"Sherwood","geo_score":0.0,"organization":"Ciardelli &amp; Cummings","id":"a6hff63r43tq","geo_precision":"unmatched","address":"218 N Jefferson St #401","phone 1":"(312) 627-1650 Work"},"type":"Feature","geometry":null},{"properties":{"name":"Georgia A Beatty","city":"Chicago","category":"Attorney","details":null,"zip/postal":"60660","last name":"Beatty","geo_score":0.0,"organization":null,"id":"a6hff65clr14","geo_precision":"unmatched","address":"6102 N Sheridan Rd #502","phone 1":"(773) 764-6102 Work"},"type":"Feature","geometry":null},{"properties":{"name":"Jeffrey S Evens","city":"Chicago","category":"Attorney","details":null,"zip/postal":"60660","last name":"Evens","geo_score":0.0,"organization":null,"id":"a6hff669s7tk","geo_precision":"unmatched","address":"5701 N Ashland Ave #305","phone 1":null},"type":"Feature","geometry":null},{"properties":{"name":"Kristi Johnson","city":"Chicago","category":"Personal","details":"Johnson, Kristi J [KJOHNSO9@amfam.com]","zip/postal":"60659","last name":"Johnson","geo_score":0.0,"organization":"American Family Insurance","id":"a6hff5vjws0e","geo_precision":"unmatched","address":"3525 W. Peterson Ave. #115","phone 1":"773-539-5488 Work"},"type":"Feature","geometry":null},{"properties":{"name":"Mayra Perez Rodriguez","city":"Chicago","category":"LO","details":null,"zip/postal":"60659","last name":"Rodriguez","geo_score":0.0,"organization":"Chase-Downers Grove","id":"a6hff5s8n3z2","geo_precision":"unmatched","address":"6210 N Western","phone 1":null},"type":"Feature","geometry":null},{"properties":{"name":"Robert Hathorne","city":"Chicago","category":"LO","details":"Spoke w/ him he was concerned about someone 'reading' the title before they send it out","zip/postal":"60657","last name":"Hathorne","geo_score":0.0,"organization":"First Switzerland Financial, LTD","id":"a6hff5zpz42q","geo_precision":"unmatched","address":"3205 N Clark","phone 1":"(773) 744-5064 Work"},"type":"Feature","geometry":null},{"properties":{"name":"Angie Vega","city":"Chicago","category":"Processor","details":null,"zip/postal":"60657","last name":"Vega","geo_score":0.0,"organization":"First Switzerland Financial, LTD","id":"a6hff5y18k1x","geo_precision":"unmatched","address":"3205 N Clark","phone 1":null},"type":"Feature","geometry":null},{"properties":{"name":"Kimberly Drago","city":"Chicago","category":"Personal Banker","details":"met her at the job fair in Oak Brook she is Nick's girlfriend","zip/postal":"60657","last name":"Drago","geo_score":0.0,"organization":"Chase-Downers Grove","id":"a6hff65j9x32","geo_precision":"unmatched","address":"3500 N Clark St","phone 1":"(773) 348-2889 Work"},"type":"Feature","geometry":null},{"properties":{"name":"Peter Deimel","city":"Chicago","category":"LO","details":null,"zip/postal":"60657","last name":"Deimel","geo_score":0.0,"organization":"First Switzerland Financial, LTD","id":"a6hff67t2wix","geo_precision":"unmatched","address":"3205 N Clark","phone 1":"(312) 720-2890 Mobile"},"type":"Feature","geometry":null},{"properties":{"name":"Long Barnes","city":"Chicago","category":"Realtor","details":null,"zip/postal":"60657","last name":"Barnes","geo_score":0.0,"organization":"Urban Domain Realty","id":"a6hff5x6ygkz","geo_precision":"unmatched","address":"3505 N Ashland Ave","phone 1":"(773) 661-0900 Work"},"type":"Feature","geometry":null},{"properties":{"name":"Kingsley Agboje","city":"Chicago","category":"LO","details":null,"zip/postal":"60657","last name":"Agboje","geo_score":0.0,"organization":"First Switzerland Financial, LTD","id":"a6hff635zzur","geo_precision":"unmatched","address":"3205 N Clark","phone 1":"(312) 375-1985 Mobile"},"type":"Feature","geometry":null},{"properties":{"name":"William Egan","city":"Chicago","category":"LO","details":"He is one owner John Mendoza is the other; Maria works here now; call Marsha to set up sales call $525 + recordings","zip/postal":"60657","last name":"Egan","geo_score":0.0,"organization":"First Switzerland Financial, LTD","id":"a6hff5wyqqba","geo_precision":"unmatched","address":"3205 N Clark","phone 1":"(773) 307-8484 Work"},"type":"Feature","geometry":null},{"properties":{"name":"Dan Herron","city":"Chicago","category":"LO","details":null,"zip/postal":"60657","last name":"Herron","geo_score":0.0,"organization":null,"id":"a6hff620jqye","geo_precision":"unmatched","address":"1620 W Belmont","phone 1":"(630) 576-2226 Work"},"type":"Feature","geometry":null},{"properties":{"name":"Timothy Keating","city":"Chicago","category":"LO","details":"He orders all titles for office","zip/postal":"60657","last name":"Keating","geo_score":0.0,"organization":"First Switzerland Financial, LTD","id":"a6hff5tyvjev","geo_precision":"unmatched","address":"3205 N Clark","phone 1":"(773) 780-8810 Mobile"},"type":"Feature","geometry":null},{"properties":{"name":"Adrian Belitu","city":"Chicago","category":"LO","details":null,"zip/postal":"60657","last name":"Belitu","geo_score":0.0,"organization":"First Switzerland Financial, LTD","id":"a6hff63sehwe","geo_precision":"unmatched","address":"3205 N Clark","phone 1":"(773) 472-5346 Work Fax"},"type":"Feature","geometry":null},{"properties":{"name":"Edward Robinson","city":"Chicago","category":"LO","details":null,"zip/postal":"60657","last name":"Robinson","geo_score":0.0,"organization":"First Switzerland Financial, LTD","id":"a6hff6317wl2","geo_precision":"unmatched","address":"3205 N Clark","phone 1":"(708) 228-3477 Mobile"},"type":"Feature","geometry":null},{"properties":{"name":"Wayne Larson","city":"Chicago","category":"LO","details":null,"zip/postal":"60657","last name":"Larson","geo_score":0.0,"organization":"First Switzerland Financial, LTD","id":"a6hff5s8u0fl","geo_precision":"unmatched","address":"3205 N Clark","phone 1":"(773) 316-0284 Mobile"},"type":"Feature","geometry":null},{"properties":{"name":"Joseph Dorf","city":"Chicago","category":"LO","details":null,"zip/postal":"60657","last name":"Dorf","geo_score":0.0,"organization":"First Switzerland Financial, LTD","id":"a6hff5zwwlo4","geo_precision":"unmatched","address":"3205 N Clark","phone 1":"(773) 472-5346 Work Fax"},"type":"Feature","geometry":null},{"properties":{"name":"Thomas Adler","city":"Chicago","category":"LO","details":null,"zip/postal":"60657","last name":"Adler","geo_score":0.0,"organization":"First Switzerland Financial, LTD","id":"a6hff5scbkek","geo_precision":"unmatched","address":"3205 N Clark","phone 1":"(773) 472-2941 Work"},"type":"Feature","geometry":null},{"properties":{"name":"Ronald Evans","city":"Chicago","category":"LO","details":null,"zip/postal":"60657","last name":"Evans","geo_score":0.0,"organization":"First Switzerland Financial, LTD","id":"a6hff5yox3mp","geo_precision":"unmatched","address":"3205 N Clark St","phone 1":"(815) 276-7698 Mobile"},"type":"Feature","geometry":null},{"properties":{"name":"Kathy Roman","city":"Chicago","category":"Processor","details":null,"zip/postal":"60657","last name":"Roman","geo_score":0.0,"organization":"First Switzerland Financial, LTD","id":"a6hff641cl41","geo_precision":"unmatched","address":"3205 N Clark","phone 1":null},"type":"Feature","geometry":null},{"properties":{"name":"James P Burke","city":"Chicago","category":"LO","details":"used to be at BofA","zip/postal":"60657","last name":"Burke","geo_score":0.0,"organization":"Chase-Downers Grove","id":"a6hff5z6it3m","geo_precision":"unmatched","address":"3335 N Ashland","phone 1":"(773) 404-3755 Work"},"type":"Feature","geometry":null},{"properties":{"name":"Jenifer Trent","city":"Chicago","category":"LO","details":null,"zip/postal":"60657","last name":"Trent","geo_score":0.0,"organization":"First Switzerland Financial, LTD","id":"a6hff61ka8zv","geo_precision":"unmatched","address":"3205 N Clark","phone 1":"(312) 342-0191 Mobile"},"type":"Feature","geometry":null},{"properties":{"name":"Sebastian Walas","city":"Chicago","category":"LO","details":null,"zip/postal":"60656","last name":"Walas","geo_score":0.0,"organization":"United Equity Mortgage Corp","id":"a6hff5zr9bw0","geo_precision":"unmatched","address":"5361 N Harlem Ave","phone 1":"(773) 283-1500 Work"},"type":"Feature","geometry":null},{"properties":{"name":"Chris Marconi","city":"Beverly","category":"LO","details":"6/3/10: left US Bank and dan boone is gone; getting us into Wintrust","zip/postal":"60655","last name":"Marconi","geo_score":0.0,"organization":"US Bank","id":"a6hff5voyqgy","geo_precision":"unmatched","address":"10258 S Western Ave","phone 1":"(773) 341-2100 Work"},"type":"Feature","geometry":null},{"properties":{"name":"Christos Papanastasatos","city":"Chicago","category":"Realtor","details":null,"zip/postal":"60654","last name":"Papanastasatos","geo_score":0.0,"organization":null,"id":"a6hff5wuzp5q","geo_precision":"unmatched","address":"672 North Dearborn","phone 1":"(312) 440-7000 Work"},"type":"Feature","geometry":null},{"properties":{"name":"Suelen Helland","city":"Chicago","category":"Processor","details":null,"zip/postal":"60654","last name":"Helland","geo_score":0.0,"organization":null,"id":"a6hff677rf13","geo_precision":"unmatched","address":"640 N LaSalle #557","phone 1":"(312) 329-6440 Work"},"type":"Feature","geometry":null},{"properties":{"name":"Gale Lukat","city":"Chicago","category":"Processor","details":"Mention Nick Parisi pres of mtg lending and helen socha, CEO of founders- they will speak highly of us","zip/postal":"60654","last name":"Lukat","geo_score":0.0,"organization":"The PrivateBank Mortgage Company","id":"a6hff66zqmu0","geo_precision":"unmatched","address":"640 N LaSalle #557","phone 1":"(312) 329-6440 Work"},"type":"Feature","geometry":null},{"properties":{"name":"Shane W Jackson","city":"Chicago","category":"LO","details":null,"zip/postal":"60654","last name":"Jackson","geo_score":0.0,"organization":"Bank of America-Chicago","id":"a6hff5ymw00j","geo_precision":"unmatched","address":"340 N State St","phone 1":"(847) 702-8500 Mobile"},"type":"Feature","geometry":null},{"properties":{"name":"Reginald L Parks","city":"Chicago","category":"Attorney","details":null,"zip/postal":"60653","last name":"Parks","geo_score":0.0,"organization":null,"id":"a6hff5u2k0ih","geo_precision":"unmatched","address":"4353 S. Greenwood Avenue #2S","phone 1":"(312) 287-4718 Work"},"type":"Feature","geometry":null},{"properties":{"name":"Sherry G Bryant","city":"Chicago","category":"Realtor","details":null,"zip/postal":"60653","last name":"Bryant","geo_score":0.0,"organization":"Keller Wiliams Chicago Consulting Group","id":"a6hff5ys7sza","geo_precision":"unmatched","address":"716 E 47th St","phone 1":"(773) 536-1600 Work"},"type":"Feature","geometry":null},{"properties":{"name":"Marki Lemons","city":"Chicago","category":"Realtor","details":null,"zip/postal":"60653","last name":"Lemons","geo_score":0.0,"organization":"Keller Wiliams Chicago Consulting Group","id":"a6hff603ex0x","geo_precision":"unmatched","address":"716 E 47th St","phone 1":"(773) 454-0274 Work"},"type":"Feature","geometry":null},{"properties":{"name":"Margaret Wooten","city":"Chicago","category":"Vendor","details":null,"zip/postal":"60653","last name":"Wooten","geo_score":0.0,"organization":"Chicago Urban League","id":"a6hff5uowzfi","geo_precision":"unmatched","address":"4510 S Michigan Ave","phone 1":"(773) 451-3607 Work"},"type":"Feature","geometry":null},{"properties":{"name":"Kristin A Collins","city":"Chciago","category":"Realtor","details":null,"zip/postal":"60653","last name":"Collins","geo_score":0.0,"organization":"Keller Wiliams Chicago Consulting Group","id":"a6hff5wfpd7g","geo_precision":"unmatched","address":"716 E 47th St","phone 1":"(773) 536-1600 Work"},"type":"Feature","geometry":null},{"properties":{"name":"Jwon Martin","city":"Chicago","category":"Realtor","details":null,"zip/postal":"60653","last name":"Martin","geo_score":0.0,"organization":"Keller Wiliams Chicago Consulting Group","id":"a6hff66w2r2y","geo_precision":"unmatched","address":"716 East 47th St","phone 1":"(312) 912-9910 Work"},"type":"Feature","geometry":null},{"properties":{"name":"Zeke Morris","city":"Chicago","category":"Realtor","details":null,"zip/postal":"60653","last name":"Morris","geo_score":0.0,"organization":"Keller Wiliams Chicago Consulting Group","id":"a6hff6816yw1","geo_precision":"unmatched","address":"716 E 47th St","phone 1":"(773) 536-1600 Work"},"type":"Feature","geometry":null},{"properties":{"name":"Mark J Kmiecik","city":"Chicago","category":"Attorney","details":null,"zip/postal":"60652","last name":"Kmiecik","geo_score":0.0,"organization":null,"id":"a6hff678jcrc","geo_precision":"unmatched","address":"7922 S Pulaski #101","phone 1":"(773) 884-1901 Work"},"type":"Feature","geometry":null},{"properties":{"name":"Aaron Durand","city":"Chicago","category":"LO","details":"79th &amp; Cicero branch now","zip/postal":"60652","last name":"Durand","geo_score":0.0,"organization":"Chase-Downers Grove","id":"a6hff64xp8xq","geo_precision":"unmatched","address":"4730 W 79th St","phone 1":"(847) 960-6616 Work Fax"},"type":"Feature","geometry":null},{"properties":{"name":"John C Kmiecik","city":"Chicago","category":"Realtor","details":null,"zip/postal":"60652","last name":"Kmiecik","geo_score":0.0,"organization":"Century 21 Kmiecik Realtors","id":"a6hff5z85foe","geo_precision":"unmatched","address":"7922 S Pulaski","phone 1":"(773) 284-1900 Work"},"type":"Feature","geometry":null},{"properties":{"name":"Digna Payes","city":"Chicago","category":"Realtor","details":"4/15/10:\nshe does the pkg for ss and refers to atty; met her and told her we can do work help her out-meet w/ atty next","zip/postal":"60647","last name":"Payes","geo_score":0.0,"organization":"Century 21","id":"a6hff5uczmt8","geo_precision":"unmatched","address":"2057 N Western","phone 1":null},"type":"Feature","geometry":null},{"properties":{"name":"Mario Correa","city":"Chicago","category":"Attorney","details":"referred from Maria; asst is Maria's old processor ; Julio Yarzagaray is other atty in office","zip/postal":"60647","last name":"Correa","geo_score":0.0,"organization":null,"id":"a6hff5tmgp6j","geo_precision":"unmatched","address":"3010 W Diversey Ave","phone 1":"(773) 489-1234 Work Fax"},"type":"Feature","geometry":null},{"properties":{"name":"Nadia Catalano","city":"Chicago","category":"LO","details":"rosalinda.c.blanco@chase.com","zip/postal":"60647","last name":"Catalano","geo_score":0.0,"organization":"Chase-Downers Grove","id":"a6hff5wgyjx9","geo_precision":"unmatched","address":"2235 N Milwaukee Ave","phone 1":"(866) 549-8717 Work Fax"},"type":"Feature","geometry":null},{"properties":{"name":"Bob Adolfson","city":"Chicago","category":"LO","details":"he came from Alex at InBank","zip/postal":"60647","last name":"Adolfson","geo_score":0.0,"organization":"Saluki Developments","id":"a6hff5xq82nz","geo_precision":"unmatched","address":"1719 N Western Ave","phone 1":"(773) 342-1570 Work"},"type":"Feature","geometry":null},{"properties":{"name":"Juan Rios","city":"Chicago","category":"Realtor","details":null,"zip/postal":"60647","last name":"Rios","geo_score":0.0,"organization":"Property Consultants","id":"a6hff652na7s","geo_precision":"unmatched","address":"2200 N Damen","phone 1":"(773) 489-4444 Work"},"type":"Feature","geometry":null},{"properties":{"name":"Miriam Delgado","city":"Chicago","category":"LO","details":null,"zip/postal":"60647","last name":"Delgado","geo_score":0.0,"organization":"Chase-Downers Grove","id":"a6hff61ck1k7","geo_precision":"unmatched","address":"2235 N Milwaukee Ave","phone 1":null},"type":"Feature","geometry":null},{"properties":{"name":"Dominic J Condotti","city":"Chiacgo","category":"LO","details":null,"zip/postal":"60646","last name":"Condotti","geo_score":0.0,"organization":"Chase-Downers Grove","id":"a6hff5v9ssdl","geo_precision":"unmatched","address":"4145 W Peterson","phone 1":"(773) 283-4380 Work"},"type":"Feature","geometry":null},{"properties":{"name":"Stephen Konja","city":"Chicago","category":"LO","details":null,"zip/postal":"60646","last name":"Konja","geo_score":0.0,"organization":"Chase-Downers Grove","id":"a6hff5vjkd5s","geo_precision":"unmatched","address":"5813 N Milwaukee Ave","phone 1":"(773) 594-7547 Work"},"type":"Feature","geometry":null},{"properties":{"name":"Patrick J McCormick","city":"Chicago","category":"LO","details":"6/8/10: tt him on presentation gave me Bob Shields office, we also set up PB appreciation night","zip/postal":"60643","last name":"McCormick","geo_score":0.0,"organization":"Wintrust Mortgage Corporation","id":"a6hff643h5jn","geo_precision":"unmatched","address":"10258 S Western Ave #201","phone 1":"(773) 341-2100 Work"},"type":"Feature","geometry":null},{"properties":{"name":"Scott L Hillstrom","city":"Chicago","category":"Attorney","details":"cold call; referred to Chris Marconi","zip/postal":"60643","last name":"Hillstrom","geo_score":0.0,"organization":null,"id":"a6hff5rsoizg","geo_precision":"unmatched","address":"11212 S Western Ave #1","phone 1":"(773) 239-5440 Work"},"type":"Feature","geometry":null},{"properties":{"name":"Kelli A Fogarty","city":"Chicago","category":"Attorney","details":null,"zip/postal":"60642","last name":"Fogarty","geo_score":0.0,"organization":null,"id":"a6hff67o1wrc","geo_precision":"unmatched","address":"1433 W Huron St","phone 1":"(312) 624-9318 Work"},"type":"Feature","geometry":null},{"properties":{"name":"Oscar A Morgan","city":"Chicago","category":"Attorney","details":null,"zip/postal":"60642","last name":"Morgan","geo_score":0.0,"organization":null,"id":"a6hff5w5p7dk","geo_precision":"unmatched","address":"829 N Milwaukee Ave","phone 1":"(312) 563-1208 Work"},"type":"Feature","geometry":null},{"properties":{"name":"Carlo Palladinetti","city":"Chicago","category":"Attorney","details":null,"zip/postal":"60641","last name":"Palladinetti","geo_score":0.0,"organization":null,"id":"a6hff5u1hjp3","geo_precision":"unmatched","address":"4024 W Montrose Ave","phone 1":"(773) 685-9500 Work"},"type":"Feature","geometry":null},{"properties":{"name":"Minerva Hernandez","city":"Chicago","category":"LO","details":null,"zip/postal":"60641","last name":"Hernandez","geo_score":0.0,"organization":"Bank Of America","id":"a6hff5s176ug","geo_precision":"unmatched","address":"4747 W Irving Park Rd","phone 1":"(773) 628-0334 Work"},"type":"Feature","geometry":null},{"properties":{"name":"Thea M Pazen","city":"Chicago","category":"Attorney","details":"Alan  Arlan is her hubby and partner","zip/postal":"60641","last name":"Pazen","geo_score":0.0,"organization":null,"id":"a6hff5vlk6e3","geo_precision":"unmatched","address":"3839 N Kenneth Ave #300","phone 1":"(773) 725-4349 Work"},"type":"Feature","geometry":null},{"properties":{"name":"Don Westberg","city":"Chicago","category":"LO","details":null,"zip/postal":"60640","last name":"Westberg","geo_score":0.0,"organization":"US Bank","id":"a6hff5uzv6a1","geo_precision":"unmatched","address":"5340 N Clark","phone 1":"(312) 325-8961 Work"},"type":"Feature","geometry":null},{"properties":{"name":"Craig Messman","city":"Chicago","category":"LO","details":null,"zip/postal":"60640","last name":"Messman","geo_score":0.0,"organization":"Molitor Financial Group","id":"a6hff621dhg7","geo_precision":"unmatched","address":"5412 N Clark #223","phone 1":"(773) 458-8916 Work Fax"},"type":"Feature","geometry":null},{"properties":{"name":"Brad Rasof","city":"Chicago","category":"LO","details":"came from Platinum w/ Jason\nreferred me Steve Romano","zip/postal":"60640","last name":"Rasof","geo_score":0.0,"organization":"Guaranteed Rate","id":"a6hff63mvxen","geo_precision":"unmatched","address":"4621 N Ravenswood","phone 1":"(773) 435-0982 Work"},"type":"Feature","geometry":null},{"properties":{"name":"Silvia Parra","city":"Chicago","category":"Realtor","details":null,"zip/postal":"60638","last name":"Parra","geo_score":0.0,"organization":"Century 21-Homefinders USA III","id":"a6hff5uhck2e","geo_precision":"unmatched","address":"7000 W Archer Ave","phone 1":"(773) 586-7000 Work"},"type":"Feature","geometry":null},{"properties":{"name":"Dorota Kobik","city":"Chicago","category":"Realtor","details":"6-3-2010\n-Speaks Polish and Italian","zip/postal":"60638","last name":"Kobik","geo_score":0.0,"organization":"Century 21-Homefinders USA III","id":"a6hff649fjds","geo_precision":"unmatched","address":"7000 W Archer Ave","phone 1":"(773) 586-7000 Work"},"type":"Feature","geometry":null},{"properties":{"name":"Armando Marmolejo","city":"Chicago","category":"LO","details":null,"zip/postal":"60638","last name":"Marmolejo","geo_score":0.0,"organization":"Citi Mortgage","id":"a6hff61ctp6d","geo_precision":"unmatched","address":"5674 S Archer Ave","phone 1":"(773) 284-2052 Work"},"type":"Feature","geometry":null},{"properties":{"name":"Cesar Juarez","city":"Chicago","category":"Realtor","details":null,"zip/postal":"60638","last name":"Juarez","geo_score":0.0,"organization":"Evolucion Real Estate Group","id":"a6hff62l2qjv","geo_precision":"unmatched","address":"6036 S Central Ave","phone 1":"(773) 829-4219 Work"},"type":"Feature","geometry":null},{"properties":{"name":"Mary Concialdi","city":"Chicago","category":"Realtor","details":null,"zip/postal":"60638","last name":"Concialdi","geo_score":0.0,"organization":"Century 21-Homefinders USA III","id":"a6hff62fikxm","geo_precision":"unmatched","address":"7000 W Archer Ave","phone 1":"(773) 586-7000 Work"},"type":"Feature","geometry":null},{"properties":{"name":"Terri  Pearce","city":"Chicago","category":"Realtor","details":null,"zip/postal":"60638","last name":"Pearce","geo_score":0.0,"organization":"Century 21-Homefinders USA III","id":"a6hff610aatu","geo_precision":"unmatched","address":"7000 W Archer Ave","phone 1":"(773) 586-7000 Work"},"type":"Feature","geometry":null},{"properties":{"name":"Christopher A Harris","city":"Chicago","category":"Attorney","details":null,"zip/postal":"60638","last name":"Harris","geo_score":0.0,"organization":"Archer Law Group","id":"a6hff5u1lkrz","geo_precision":"unmatched","address":"6839 Archer Ave","phone 1":"(312) 602-9553 Work"},"type":"Feature","geometry":null},{"properties":{"name":"Rocio Velazquez","city":"Chicago","category":"Realtor","details":null,"zip/postal":"60638","last name":"Velazquez","geo_score":0.0,"organization":"Evolucion Real Estate Group","id":"a6hff5ze2v8o","geo_precision":"unmatched","address":"6036 S Central Ave","phone 1":"(773) 829-4219 Work"},"type":"Feature","geometry":null},{"properties":{"name":"Michele O'Connor","city":"Chicago","category":"Realtor","details":null,"zip/postal":"60638","last name":"O'Connor","geo_score":0.0,"organization":"Century 21-Homefinders USA III","id":"a6hff61qh3bb","geo_precision":"unmatched","address":"7000 W Archer Ave","phone 1":"(773) 586-7000 Work"},"type":"Feature","geometry":null},{"properties":{"name":"Cindy Patino","city":"Chicago","category":"Realtor","details":null,"zip/postal":"60638","last name":"Patino","geo_score":0.0,"organization":"Evolucion Real Estate Group","id":"a6hff68aauh7","geo_precision":"unmatched","address":"6036 S Central Ave","phone 1":"(773) 829-4219 Work"},"type":"Feature","geometry":null},{"properties":{"name":"Maureen Lally","city":"Chicago","category":"Realtor","details":null,"zip/postal":"60638","last name":"Lally","geo_score":0.0,"organization":"Century 21-Homefinders USA III","id":"a6hff64lxmxe","geo_precision":"unmatched","address":"7000 W Archer Ave","phone 1":"(773) 586-7000 Work"},"type":"Feature","geometry":null},{"properties":{"name":"Alan Kwiatkowski","city":"Chicago","category":"Realtor","details":null,"zip/postal":"60638","last name":"Kwiatkowski","geo_score":0.0,"organization":"Century 21-Homefinders USA III","id":"a6hff630un45","geo_precision":"unmatched","address":"7000 W Archer Ave","phone 1":"(773) 586-7000 Work"},"type":"Feature","geometry":null},{"properties":{"name":"Brandon Miller","city":"Chicago","category":"Realtor","details":null,"zip/postal":"60638","last name":"Miller","geo_score":0.0,"organization":"Century 21-Homefinders USA III","id":"a6hff61nklrf","geo_precision":"unmatched","address":"7000 W Archer Ave","phone 1":"(773) 586-7000 Work"},"type":"Feature","geometry":null},{"properties":{"name":"Ernest Rokosik","city":"Chicago","category":"Realtor","details":null,"zip/postal":"60638","last name":"Rokosik","geo_score":0.0,"organization":"Century 21-Homefinders USA III","id":"a6hff5s2qa0j","geo_precision":"unmatched","address":"7000 W Archer Ave","phone 1":"(773) 586-7000 Work"},"type":"Feature","geometry":null},{"properties":{"name":"Sonia E Figueroa","city":"Chicago","category":"Realtor","details":"1/2010: starting her own shop, has license","zip/postal":"60638","last name":"Figueroa","geo_score":0.0,"organization":null,"id":"a6hff66fo8dg","geo_precision":"unmatched","address":"6036 S Central Ave","phone 1":"(773) 829-4219 Work"},"type":"Feature","geometry":null},{"properties":{"name":"Felix Manuel Gonzalez","city":"Chicago","category":"Attorney","details":null,"zip/postal":"60638","last name":"Gonzalez","geo_score":0.0,"organization":"Archer Law Group","id":"a6hff62e03f9","geo_precision":"unmatched","address":"6839 Archer Ave","phone 1":"(312) 602-9553 Work"},"type":"Feature","geometry":null},{"properties":{"name":"Alonzo T Jones","city":"Chicago","category":"LO","details":null,"zip/postal":"60637","last name":"Jones","geo_score":0.0,"organization":"Chase-Downers Grove","id":"a6hff5xuqflp","geo_precision":"unmatched","address":"6650 S Stoney Island Ave","phone 1":null},"type":"Feature","geometry":null},{"properties":{"name":"Dapo R Durojaiye","city":"Chicago","category":"Banker","details":null,"zip/postal":"60637","last name":"Durojaiye","geo_score":0.0,"organization":"Chase-Downers Grove","id":"a6hff5tgiope","geo_precision":"unmatched","address":"6650 S Stony Island Ave","phone 1":"(773) 753-8754 Work"},"type":"Feature","geometry":null},{"properties":{"name":"Walter Dale","city":"Chicago","category":"Attorney","details":"referral from Maurice Rowell @ 1st Priority Mortgage; atty agent","zip/postal":"60637","last name":"Dale","geo_score":0.0,"organization":null,"id":"a6hff636nrud","geo_precision":"unmatched","address":"5555 S Everett Ave #9C","phone 1":"(312) 925-2583 Mobile"},"type":"Feature","geometry":null},{"properties":{"name":"Bob F Blyth","city":"Chicago","category":"Attorney","details":"4/19/10: attended PNC seminar downtown Chicago\ndoes mostly estate planning; had short sale gave referral to Nery","zip/postal":"60634","last name":"Blyth","geo_score":0.0,"organization":"Law Offices of Robert F Blyth","id":"a6hff5wbbxcz","geo_precision":"unmatched","address":"3808 N Central Ave","phone 1":"(773) 736-3800 Work"},"type":"Feature","geometry":null},{"properties":{"name":"Maureen P Higgins","city":"Chicago","category":"Attorney","details":"4/19/10: attended PNC seminar\nshe is the attorney used to work for a title company years ago","zip/postal":"60634","last name":"Higgins","geo_score":0.0,"organization":"Law Offices of Robert F Blyth","id":"a6hff5uxmxv8","geo_precision":"unmatched","address":"3808 N Central Ave","phone 1":"(773) 736-3800 Work"},"type":"Feature","geometry":null},{"properties":{"name":"Francisco Ordaz","city":"Chicago","category":"Realtor","details":null,"zip/postal":"60632","last name":"Ordaz","geo_score":0.0,"organization":"Amerimax Real Estate Partners","id":"a6hff5u3n4p9","geo_precision":"unmatched","address":"4169 S Archer Ave","phone 1":"(773) 890-2900 Work"},"type":"Feature","geometry":null},{"properties":{"name":"Luis Martinez","city":"Chicago","category":"Realtor","details":null,"zip/postal":"60632","last name":"Martinez","geo_score":0.0,"organization":"Amerimax Real Estate Partners","id":"a6hff634tcjk","geo_precision":"unmatched","address":"4169 S Archer Ave","phone 1":"(773) 890-2900 Work"},"type":"Feature","geometry":null},{"properties":{"name":"Rafael G Rodriguez","city":"Chicago","category":"Realtor","details":null,"zip/postal":"60632","last name":"Rodriguez","geo_score":0.0,"organization":"Amerimax Real Estate Partners","id":"a6hff5y7wqhu","geo_precision":"unmatched","address":"4169 S Archer Ave","phone 1":"(773) 890-2900 Work"},"type":"Feature","geometry":null},{"properties":{"name":"Efrain Vega","city":"Chicago","category":"Attorney","details":null,"zip/postal":"60632","last name":"Vega","geo_score":0.0,"organization":null,"id":"a6hff66und8p","geo_precision":"unmatched","address":"4111 S Richmond","phone 1":"(773) 847-7300 Work"},"type":"Feature","geometry":null},{"properties":{"name":"Daniel Covarrubias","city":"Chicago","category":"Realtor","details":null,"zip/postal":"60632","last name":"Covarrubias","geo_score":0.0,"organization":"Amerimax Real Estate Partners","id":"a6hff5zwofug","geo_precision":"unmatched","address":"4169 S Archer Ave","phone 1":"(773) 890-2900 Work"},"type":"Feature","geometry":null},{"properties":{"name":"Richard J Remijas","city":"Chicago","category":"President","details":null,"zip/postal":"60632","last name":"Remijas","geo_score":0.0,"organization":"Park Federal Savings Bank","id":"a6hff5td7s3q","geo_precision":"unmatched","address":"5400 S Pulaski Rd","phone 1":"(773) 582-8616 x5530 Work"},"type":"Feature","geometry":null},{"properties":{"name":"Ray Arteaga","city":"Chicago","category":"Realtor","details":null,"zip/postal":"60632","last name":"Arteaga","geo_score":0.0,"organization":"Amerimax Real Estate Partners","id":"a6hff6840lv4","geo_precision":"unmatched","address":"4169 S Archer Ave","phone 1":"(773) 890-2900 Work"},"type":"Feature","geometry":null},{"properties":{"name":"Hill Torres","city":"Chicago","category":"Realtor","details":null,"zip/postal":"60632","last name":"Torres","geo_score":0.0,"organization":"Amerimax Real Estate Partners","id":"a6hff62wf7fy","geo_precision":"unmatched","address":"4169 S Archer Ave","phone 1":"(773) 890-2900 Work"},"type":"Feature","geometry":null},{"properties":{"name":"Julia Chiquito","city":"Chicago","category":"LO","details":null,"zip/postal":"60632","last name":"Chiquito","geo_score":0.0,"organization":"Chase-Downers Grove","id":"a6hff5xveuok","geo_precision":"unmatched","address":"4636 S Archer Ave","phone 1":null},"type":"Feature","geometry":null},{"properties":{"name":"Jesus Perez","city":"Chicago","category":"Attorney","details":"he owns the biz/bldg that Raul Serrato is in","zip/postal":"60632","last name":"Perez","geo_score":0.0,"organization":null,"id":"a6hff64udxjk","geo_precision":"unmatched","address":"4111 S Richmond","phone 1":"(773) 869-0955 Work"},"type":"Feature","geometry":null},{"properties":{"name":"Gabriel T McGee","city":"Chicago","category":"Realtor","details":null,"zip/postal":"60632","last name":"McGee","geo_score":0.0,"organization":"Amerimax Real Estate Partners","id":"a6hff5zy8mqw","geo_precision":"unmatched","address":"4169 S Archer Ave","phone 1":"(773) 890-2900 Work"},"type":"Feature","geometry":null},{"properties":{"name":"Gregorio Izaquirre","city":"Chicago","category":"Realtor","details":null,"zip/postal":"60632","last name":"Izaquirre","geo_score":0.0,"organization":"Amerimax Real Estate Partners","id":"a6hff5uvcxqp","geo_precision":"unmatched","address":"4169 S Archer Ave","phone 1":"(773) 890-2900 Work"},"type":"Feature","geometry":null},{"properties":{"name":"Greg Serrato","city":"Chicago","category":"Sales Asst","details":null,"zip/postal":"60632","last name":"Serrato","geo_score":0.0,"organization":"Serrato Law Ltd.","id":"a6hff6815xut","geo_precision":"unmatched","address":"4111 S Richmond","phone 1":"(773) 523-4200 Work"},"type":"Feature","geometry":null},{"properties":{"name":"Raul Serrato","city":"Chicago","category":"Attorney","details":"knows Nery 8/29/09 he signed","zip/postal":"60632","last name":"Serrato","geo_score":0.0,"organization":"Serrato Law Ltd.","id":"a6hff5rymlgv","geo_precision":"unmatched","address":"4111 S Richmond","phone 1":"(773) 523-4200 Work"},"type":"Feature","geometry":null},{"properties":{"name":"Jaime Barragan","city":"Chicago","category":"Attorney","details":null,"zip/postal":"60632","last name":"Barragan","geo_score":0.0,"organization":null,"id":"a6hff65stkjg","geo_precision":"unmatched","address":"4106 W 47th St","phone 1":"(773) 762-1942 Work"},"type":"Feature","geometry":null},{"properties":{"name":"Carole Volanti","city":"Chicago","category":"Realtor","details":null,"zip/postal":"60632","last name":"Volanti","geo_score":0.0,"organization":"Amerimax Real Estate Partners","id":"a6hff62fvb67","geo_precision":"unmatched","address":"4169 S Archer Ave","phone 1":"(773) 890-2900 Work"},"type":"Feature","geometry":null},{"properties":{"name":"Lourdes Maria Cortes","city":"Chicago","category":"Realtor","details":null,"zip/postal":"60632","last name":"Cortes","geo_score":0.0,"organization":"Amerimax Real Estate Partners","id":"a6hff5ze7owc","geo_precision":"unmatched","address":"4169 S Archer Ave","phone 1":"(773) 890-2900 Work"},"type":"Feature","geometry":null},{"properties":{"name":"Chris A Hould","city":"Chicago","category":"VP","details":null,"zip/postal":"60631","last name":"Hould","geo_score":0.0,"organization":"First Nations Bank","id":"a6hff5utkro1","geo_precision":"unmatched","address":"7757 W Devon Ave","phone 1":"(773) 594-5900 Work"},"type":"Feature","geometry":null},{"properties":{"name":"Mario DiLorenzo","city":"Chicago","category":"Realtor","details":"4/15/10: talked w/ Mario on sss product and we have seminar set for 5/8/10 w/ Joe\nHe owns bldg was the old ReMax and he took the whole crew. biz was bought then sold 15 agents","zip/postal":"60630","last name":"DiLorenzo","geo_score":0.0,"organization":"Landview Realty Group","id":"a6hff61ih68b","geo_precision":"unmatched","address":"6160 W Higgins","phone 1":"(773) 631-3636 Work"},"type":"Feature","geometry":null},{"properties":{"name":"Arcesio","city":"Chicago","category":"Paralegal","details":null,"zip/postal":"60630","last name":null,"geo_score":0.0,"organization":"Budzik &amp; Dynia, LLC","id":"a6hff64ivv99","geo_precision":"unmatched","address":"4849 N Milwaukee Ave #801","phone 1":"(773) 427-1900 Work"},"type":"Feature","geometry":null},{"properties":{"name":"Kathy Kaminska","city":"Chicago","category":"Paralegal","details":null,"zip/postal":"60630","last name":"Kaminska","geo_score":0.0,"organization":"Budzik &amp; Dynia, LLC","id":"a6hff6531q6n","geo_precision":"unmatched","address":"4849 N Milwaukee Ave #801","phone 1":"(773) 427-1900 x25 Work"},"type":"Feature","geometry":null},{"properties":{"name":"Al S Dynia","city":"Chicago","category":"Attorney","details":null,"zip/postal":"60630","last name":"Dynia","geo_score":0.0,"organization":"Budzik &amp; Dynia, LLC","id":"a6hff5z9fgb0","geo_precision":"unmatched","address":"4849 N Milwaukee Ave #801","phone 1":"(773) 427-1900 Work"},"type":"Feature","geometry":null},{"properties":{"name":"Joseph Nery","city":"Chicago","category":"Attorney","details":"1 Eaast Wacker Dr #2300, Chicago\t60601 312-3346876","zip/postal":"60629","last name":"Nery","geo_score":0.0,"organization":null,"id":"a6hff5xyrafh","geo_precision":"unmatched","address":"4258 West 63rd Street","phone 1":"(312) 334-6876 Work Phone 2"},"type":"Feature","geometry":null},{"properties":{"name":"Rafael Ruiz","city":"Chicago","category":"Realtor","details":"from Torgler's contracts","zip/postal":"60629","last name":"Ruiz","geo_score":0.0,"organization":"Ruiz/Realty","id":"a6hff63isiff","geo_precision":"unmatched","address":"5616 S Pulaski","phone 1":"(773) 767-9470 Work"},"type":"Feature","geometry":null},{"properties":{"name":"Robert H Bisaillon","city":"Chicago","category":"Attorney","details":"WASTE!","zip/postal":"60629","last name":"Bisaillon","geo_score":0.0,"organization":null,"id":"a6hff5thdggq","geo_precision":"unmatched","address":"4246 W 63rd St","phone 1":"(773) 284-2999 Work"},"type":"Feature","geometry":null},{"properties":{"name":"Arthur R Pierce","city":"Chicago","category":"Attorney","details":null,"zip/postal":"60629","last name":"Pierce","geo_score":0.0,"organization":null,"id":"a6hff62c43sv","geo_precision":"unmatched","address":"4246 W 63rd St","phone 1":"(773) 582-2400 Work"},"type":"Feature","geometry":null},{"properties":{"name":"Benjamin E Starks","city":"Chicago","category":"Attorney","details":null,"zip/postal":"60628","last name":"Starks","geo_score":0.0,"organization":"Starks &amp; Boyd","id":"a6hff5zydsn1","geo_precision":"unmatched","address":"11528 S Halsted","phone 1":"(773) 995-7900 Work"},"type":"Feature","geometry":null},{"properties":{"name":"Carl B Boyd","city":"Chicago","category":"Attorney","details":null,"zip/postal":"60628","last name":"Boyd","geo_score":0.0,"organization":"Starks &amp; Boyd","id":"a6hff5t58upo","geo_precision":"unmatched","address":"11528 S Halsted","phone 1":"(773) 995-7900 Work"},"type":"Feature","geometry":null},{"properties":{"name":"Lisa Kang","city":"Chicago","category":"LO","details":"she is in charge of res lending","zip/postal":"60625","last name":"Kang","geo_score":0.0,"organization":"Foster Bank-Main","id":"a6hff63x99z0","geo_precision":"unmatched","address":"5225 N Kedzie Ave","phone 1":null},"type":"Feature","geometry":null},{"properties":{"name":"Nick R Dodaro","city":"Chicago","category":"LO","details":null,"zip/postal":"60625","last name":"Dodaro","geo_score":0.0,"organization":"Chase-Downers Grove","id":"a6hff618maed","geo_precision":"unmatched","address":"5224 N Lincoln Ave","phone 1":"(773) 271-4258 Work"},"type":"Feature","geometry":null},{"properties":{"name":"Efrain Mena","city":"Chicago","category":"LO","details":null,"zip/postal":"60623","last name":"Mena","geo_score":0.0,"organization":"Second Federal Savings","id":"a6hff5w3t8yz","geo_precision":"unmatched","address":"3960 W 26th St","phone 1":"(773) 450-4413 Mobile"},"type":"Feature","geometry":null},{"properties":{"name":"Gerardo Hernandez","city":"Chicago","category":"LO","details":"sent deals to Navas\n4215 W Fullerton Ave, Chicago, IL  is NAVAS Financial, he puts loans through his buddy there","zip/postal":"60623","last name":"Hernandez","geo_score":0.0,"organization":"WAMU","id":"a6hff5yqa4re","geo_precision":"unmatched","address":"3051 W 26th St","phone 1":"312-696-2305 Work Fax"},"type":"Feature","geometry":null},{"properties":{"name":"Dave Urbaniak","city":"Chicago","category":"LO","details":null,"zip/postal":"60622","last name":"Urbaniak","geo_score":0.0,"organization":"Wachovia","id":"a6hff66ghc1w","geo_precision":"unmatched","address":"1952 N Elston Ave","phone 1":"(773) 292-6152 Work Fax"},"type":"Feature","geometry":null},{"properties":{"name":"Ruby Ramsey","city":"Chicago","category":"Broker/Owner","details":"attended Woodfield sss 8/5/08","zip/postal":"60619","last name":"Ramsey","geo_score":0.0,"organization":"RG Ramsey &amp; Assoc","id":"a6hff62ii0sg","geo_precision":"unmatched","address":"363 E 81st St","phone 1":null},"type":"Feature","geometry":null},{"properties":{"name":"Tony Panzica","city":"Chicago","category":"Attorney","details":null,"zip/postal":"60618","last name":"Panzica","geo_score":0.0,"organization":null,"id":"a6hff5zhmxw4","geo_precision":"unmatched","address":"2510 W Irving Park Rd","phone 1":null},"type":"Feature","geometry":null},{"properties":{"name":"Lupe Rubalcaba","city":"Chicago","category":"LO","details":null,"zip/postal":"60618","last name":"Rubalcaba","geo_score":0.0,"organization":"Primera Mortgage Company","id":"a6hff5u89tyn","geo_precision":"unmatched","address":"2898 N Milwaukee Ave","phone 1":"(773) 862-4900 Work"},"type":"Feature","geometry":null},{"properties":{"name":"Jamie Kane","city":"Chicago","category":"LO","details":null,"zip/postal":"60618","last name":"Kane","geo_score":0.0,"organization":"Wintrust Mortgage Corporation","id":"a6hff5xhelai","geo_precision":"unmatched","address":"2107 W Irving Park Rd","phone 1":"(773) 315-2305 Mobile"},"type":"Feature","geometry":null},{"properties":{"name":"Delia D'Sanchez","city":"Chicago","category":"LO","details":null,"zip/postal":"60618","last name":"D'Sanchez","geo_score":0.0,"organization":"Primera Mortgage Company","id":"a6hff5xxu86b","geo_precision":"unmatched","address":"2898 N Milwaukee Ave","phone 1":"(773) 862-4751 Work"},"type":"Feature","geometry":null},{"properties":{"name":"John J Hoevel","city":"Chicago","category":"Attorney","details":null,"zip/postal":"60618","last name":"Hoevel","geo_score":0.0,"organization":"Hoevel &amp; Associates, PC","id":"a6hff67w3zsm","geo_precision":"unmatched","address":"3725 N Western Ave","phone 1":"(773) 539-0937 Work"},"type":"Feature","geometry":null},{"properties":{"name":"Barry Stoltze","city":"Chicago","category":"LO","details":"old cust from way back, Title Dept and Mort Dept works with Eric Whitelaw","zip/postal":"60618","last name":"Stoltze","geo_score":0.0,"organization":"Baytree Lending","id":"a6hff65iycso","geo_precision":"unmatched","address":"2865 N Clyborn Ave","phone 1":"(773) 328-2260 Work"},"type":"Feature","geometry":null},{"properties":{"name":"Frank Binetti","city":"Chicago","category":"Residential Lending","details":null,"zip/postal":"60618","last name":"Binetti","geo_score":0.0,"organization":"LPSB","id":"a6hff624jnn0","geo_precision":"unmatched","address":"3234 N Damen Ave","phone 1":"(773) 871-1986 x608 Work"},"type":"Feature","geometry":null},{"properties":{"name":"Saadia Ali","city":"Chicago","category":"LO","details":"she took over for Konja in Frank's office","zip/postal":"60618","last name":"Ali","geo_score":0.0,"organization":"Chase-Downers Grove","id":"a6hff607i5xb","geo_precision":"unmatched","address":"3531 N Western Ave","phone 1":"(773) 466-1513 Work Fax"},"type":"Feature","geometry":null},{"properties":{"name":"Eric Whitelaw","city":"Chicago","category":"LO","details":null,"zip/postal":"60618","last name":"Whitelaw","geo_score":0.0,"organization":"Baytree Lending","id":"a6hff62ssb17","geo_precision":"unmatched","address":"2865 N Clyborn Ave","phone 1":"(847) 338-2800 Mobile"},"type":"Feature","geometry":null},{"properties":{"name":"Chris Paradis","city":"Chicago","category":"LO","details":"4/23/09: came from PA  referred me 2 guys at JC Financial","zip/postal":"60618","last name":"Paradis","geo_score":0.0,"organization":"Destiny Mortgage Group, Inc.","id":"a6hff65h6n0z","geo_precision":"unmatched","address":"2050 W Belmont Ave #1","phone 1":"(866) 802-7852 Work"},"type":"Feature","geometry":null},{"properties":{"name":"Julio C Resendiz","city":"Chicago","category":"LO","details":"11/1/10: pepsnick's team","zip/postal":"60618","last name":"Resendiz","geo_score":0.0,"organization":"Chase-Downers Grove","id":"a6hff5zkrsfy","geo_precision":"unmatched","address":"3531 N Western Ave","phone 1":"(773) 348-1242 Work"},"type":"Feature","geometry":null},{"properties":{"name":"Victoria Silvano","city":"Chicago","category":"Realtor","details":null,"zip/postal":"60616","last name":"Silvano","geo_score":0.0,"organization":"Century 21 S.G.R., Inc.","id":"a6hff5yef7xz","geo_precision":"unmatched","address":"1823 S Michigan Ave","phone 1":"(312) 326-2121 Work"},"type":"Feature","geometry":null},{"properties":{"name":"Nadine Sackor","city":"Chicago","category":"LO","details":"Trouble","zip/postal":"60616","last name":"Sackor","geo_score":0.0,"organization":"Transpacific Mortgage Co.","id":"a6hff66ks9o9","geo_precision":"unmatched","address":"2738 S Wentworth Ave","phone 1":"773-471-4256 Work Fax"},"type":"Feature","geometry":null},{"properties":{"name":"Todd D Carcelli","city":"Chicago","category":"Attorney","details":null,"zip/postal":"60616","last name":"Carcelli","geo_score":0.0,"organization":null,"id":"a6hff628tn1k","geo_precision":"unmatched","address":"3105 S Wallace St","phone 1":"(312) 842-8992 Work"},"type":"Feature","geometry":null},{"properties":{"name":"Ron G Sears","city":"Chicago","category":"Realtor","details":null,"zip/postal":"60616","last name":"Sears","geo_score":0.0,"organization":"Century 21 S.G.R., Inc.","id":"a6hff652qglv","geo_precision":"unmatched","address":"1823 S Michigan Ave","phone 1":"(312) 326-2121 Work"},"type":"Feature","geometry":null},{"properties":{"name":"Nancy Suvarnamani","city":"Chicago","category":"Realtor","details":null,"zip/postal":"60616","last name":"Suvarnamani","geo_score":0.0,"organization":"Century 21 S.G.R., Inc.","id":"a6hff642y52q","geo_precision":"unmatched","address":"1823 S Michigan Ave","phone 1":"(312) 326-2121 Work"},"type":"Feature","geometry":null},{"properties":{"name":"Iraida Flores","city":"Chicago","category":"Realtor","details":null,"zip/postal":"60616","last name":"Flores","geo_score":0.0,"organization":"Century 21 S.G.R., Inc.","id":"a6hff5sl6198","geo_precision":"unmatched","address":"1823 S Michigan Ave","phone 1":"(312) 326-2121 Work"},"type":"Feature","geometry":null},{"properties":{"name":"Anastasia M Poulopoulos","city":"Chicago","category":"Attorney","details":null,"zip/postal":"60616","last name":"Poulopoulos","geo_score":0.0,"organization":null,"id":"a6hff66x2vpg","geo_precision":"unmatched","address":"PO Box 16315","phone 1":"(312) 208-1747 Work"},"type":"Feature","geometry":null},{"properties":{"name":"Sarah Han","city":"Chicago","category":"Realtor","details":null,"zip/postal":"60616","last name":"Han","geo_score":0.0,"organization":"Century 21 S.G.R., Inc.","id":"a6hff650e4j2","geo_precision":"unmatched","address":"1823 S Michigan Ave","phone 1":"(312) 326-2121 Work"},"type":"Feature","geometry":null},{"properties":{"name":"John Lee Bingham","city":"Chicago","category":"Realtor","details":null,"zip/postal":"60616","last name":"Bingham","geo_score":0.0,"organization":"Century 21 S.G.R., Inc.","id":"a6hff6878ccl","geo_precision":"unmatched","address":"1823 S Michigan Ave","phone 1":"(312) 326-2121 Work"},"type":"Feature","geometry":null},{"properties":{"name":"Rebecca Corlew","city":"Chicago","category":"LO","details":null,"zip/postal":"60615","last name":"Corlew","geo_score":0.0,"organization":"Hyde Park Bank","id":"a6hff5webcsk","geo_precision":"unmatched","address":"1525 East 53rd Street","phone 1":"(773) 753-4303 Work"},"type":"Feature","geometry":null},{"properties":{"name":"Bob Bucher","city":"Chicago","category":"LO","details":"came from Nat City/MidAmerica","zip/postal":"60615","last name":"Bucher","geo_score":0.0,"organization":"Hyde Park Bank","id":"a6hff639lofw","geo_precision":"unmatched","address":"1525 East 53rd Street","phone 1":"(773) 753-4303 Work"},"type":"Feature","geometry":null},{"properties":{"name":"Alex Pinon","city":"Chicago","category":"LO","details":"spanish speaking closings","zip/postal":"60615","last name":"Pinon","geo_score":0.0,"organization":"Hyde Park Bank","id":"a6hff5u9vj5q","geo_precision":"unmatched","address":"1525 East 53rd Street","phone 1":"(773) 753-4303 Work"},"type":"Feature","geometry":null},{"properties":{"name":"Chad Boulanger","city":"Chicago","category":"Processor","details":null,"zip/postal":"60615","last name":"Boulanger","geo_score":0.0,"organization":"Hyde Park Bank","id":"a6hff5zghkvk","geo_precision":"unmatched","address":"1525 East 53rd Street","phone 1":"(773) 753-4303 Work"},"type":"Feature","geometry":null},{"properties":{"name":"Laura Allen","city":"Chicago","category":"LO","details":"Louis Jeffries her husband-she referred MWF (MidWest Funding) 11 E Wilson, Batavia  630-406-9990 Michael Farenbacher","zip/postal":"60615","last name":"Allen","geo_score":0.0,"organization":null,"id":"a6hff5s3n4l3","geo_precision":"unmatched","address":"1364 E 53rd St FCIL4493","phone 1":"773-667-9179 Work"},"type":"Feature","geometry":null},{"properties":{"name":"Kevin A Kaspers","city":"Chicago","category":"LO","details":null,"zip/postal":"60615","last name":"Kaspers","geo_score":0.0,"organization":"Hyde Park Bank","id":"a6hff5v6i3vg","geo_precision":"unmatched","address":"1525 East 53rd Street","phone 1":"(773) 753-4303 Work"},"type":"Feature","geometry":null},{"properties":{"name":"Willa Neely","city":"Chicago","category":"LO","details":null,"zip/postal":"60615","last name":"Neely","geo_score":0.0,"organization":"Hyde Park Bank","id":"a6hff5w7w2y0","geo_precision":"unmatched","address":"1525 East 53rd Street","phone 1":"(773) 753-4303 Work"},"type":"Feature","geometry":null},{"properties":{"name":"Annette Reindorf","city":"Chicago","category":"Processor","details":"File Opener","zip/postal":"60615","last name":"Reindorf","geo_score":0.0,"organization":null,"id":"a6hff5zgisnk","geo_precision":"unmatched","address":"1525 E 53rd St","phone 1":null},"type":"Feature","geometry":null},{"properties":{"name":"Diana Petersen","city":"Chicago","category":"LO","details":null,"zip/postal":"60615","last name":"Petersen","geo_score":0.0,"organization":"Hyde Park Bank","id":"a6hff621jbeu","geo_precision":"unmatched","address":"1525 East 53rd Street","phone 1":"(773) 753-4303 Work"},"type":"Feature","geometry":null},{"properties":{"name":"Emily Chapman","city":"Chicago","category":"Processor","details":null,"zip/postal":"60615","last name":"Chapman","geo_score":0.0,"organization":"Hyde Park Bank","id":"a6hff671fbfg","geo_precision":"unmatched","address":"1525 East 53rd Street","phone 1":null},"type":"Feature","geometry":null},{"properties":{"name":"Arlene Cygan","city":"Chicago","category":"Processor","details":null,"zip/postal":"60615","last name":"Cygan","geo_score":0.0,"organization":"Hyde Park Bank","id":"a6hff67msn7u","geo_precision":"unmatched","address":"1525 East 53rd Street","phone 1":"(773) 753-9618 Work"},"type":"Feature","geometry":null},{"properties":{"name":"Jeff Kaplan","city":"Chicago","category":"Vendor","details":null,"zip/postal":"60614","last name":"Kaplan","geo_score":0.0,"organization":"Household Inspection Team\n\nAdvanced Real Estate Learning Center, LLC","id":"a6hff5ygqnxs","geo_precision":"unmatched","address":"2252 N. Elston","phone 1":"(773) 388-9000 Work"},"type":"Feature","geometry":null},{"properties":{"name":"Jim Quist","city":"Chicago","category":"LO","details":null,"zip/postal":"60614","last name":"Quist","geo_score":0.0,"organization":"New Castle Home Loans","id":"a6hff6400t1s","geo_precision":"unmatched","address":"2349 N Elston Ave","phone 1":"(773) 486-1100 Work"},"type":"Feature","geometry":null},{"properties":{"name":"Ted Fish","city":"Chicago","category":"LO","details":"used to be on 101 w 22nd st in Lombard","zip/postal":"60614","last name":"Fish","geo_score":0.0,"organization":"New Castle Home Loans","id":"a6hff64z3y4h","geo_precision":"unmatched","address":"2349 N Elston Ave","phone 1":null},"type":"Feature","geometry":null},{"properties":{"name":"Donald R Rauschert","city":"Chicago","category":"Attorney","details":null,"zip/postal":"60614","last name":"Rauschert","geo_score":0.0,"organization":"RDR Realty, Inc.","id":"a6hff675d6yz","geo_precision":"unmatched","address":"1025 W Webster Ave","phone 1":"(773) 348-3093 Work"},"type":"Feature","geometry":null},{"properties":{"name":"Rick Reyes","city":"Chicago","category":"LO","details":"4/30/10: stop in he remembered me from Randy Blakesly's old shop","zip/postal":"60614","last name":"Reyes","geo_score":0.0,"organization":"New Castle Home Loans","id":"a6hff67th4au","geo_precision":"unmatched","address":"2349 N Elston Ave","phone 1":null},"type":"Feature","geometry":null},{"properties":{"name":"Daniel Radevski","city":"Chicago","category":"Realtor","details":null,"zip/postal":"60614","last name":"Radevski","geo_score":0.0,"organization":"RDR Realty, Inc.","id":"a6hff60itlg2","geo_precision":"unmatched","address":"1023 W Webster Ave","phone 1":"(773) 348-2775 Work"},"type":"Feature","geometry":null},{"properties":{"name":"Ron","city":"Chicago","category":"LO","details":"was at countrywide; played poker at Kev's house; was in Lombard but that office was sold looking for new space","zip/postal":"60614","last name":null,"geo_score":0.0,"organization":"New Castle Home Loans","id":"a6hff5sn4jgk","geo_precision":"unmatched","address":"2349 N Elston Ave","phone 1":null},"type":"Feature","geometry":null},{"properties":{"name":"Daniel C Kreuger","city":"Chicago","category":"LO","details":null,"zip/postal":"60614","last name":"Kreuger","geo_score":0.0,"organization":"Chase-Downers Grove","id":"a6hff6560f9w","geo_precision":"unmatched","address":"1700 N Wells","phone 1":"(312) 397-1831 Work"},"type":"Feature","geometry":null},{"properties":{"name":"Kristy M LaPine","city":"Chicago","category":"LO","details":"11/1/10: Sharon Pham is her processor","zip/postal":"60613","last name":"LaPine","geo_score":0.0,"organization":"Chase-Downers Grove","id":"a6hff658ez08","geo_precision":"unmatched","address":"3868 N Lincoln Ave","phone 1":null},"type":"Feature","geometry":null},{"properties":{"name":"Anthony Rothberg","city":"Chicago","category":"Branch Manager","details":null,"zip/postal":"60613","last name":"Rothberg","geo_score":0.0,"organization":"Smart Property USA","id":"a6hff607fpct","geo_precision":"unmatched","address":"3700 N Ashland","phone 1":"(773) 248-8888 Work"},"type":"Feature","geometry":null},{"properties":{"name":"Scott Shapiro","city":"Chicago","category":"Realtor","details":null,"zip/postal":"60613","last name":"Shapiro","geo_score":0.0,"organization":"Smart Property USA","id":"a6hff67tfyua","geo_precision":"unmatched","address":"3700 N Ashland","phone 1":"(773) 248-8888 Work"},"type":"Feature","geometry":null},{"properties":{"name":"Rachelle Garcia","city":"Chicago","category":"Realtor","details":null,"zip/postal":"60613","last name":"Garcia","geo_score":0.0,"organization":"Smart Property USA","id":"a6hff5uz9mub","geo_precision":"unmatched","address":"3700 N Ashland","phone 1":"(773) 248-8888 Work"},"type":"Feature","geometry":null},{"properties":{"name":"Mel Alvizures","city":"Chicago","category":"LO","details":"Sandra is his processor","zip/postal":"60613","last name":"Alvizures","geo_score":0.0,"organization":"ABC Mortgage Group, Inc.","id":"a6hff5s3kzs4","geo_precision":"unmatched","address":"1937 W Irving Park","phone 1":"(773) 218-8635 Mobile"},"type":"Feature","geometry":null},{"properties":{"name":"Nancy Toledo","city":"Chicago","category":"LO","details":null,"zip/postal":"60613","last name":"Toledo","geo_score":0.0,"organization":"ABC Mortgage Group, Inc.","id":"a6hff5yojrck","geo_precision":"unmatched","address":"1937 W Irving Park Rd","phone 1":"7737552200 x110 Work"},"type":"Feature","geometry":null},{"properties":{"name":"Kevin Perez","city":"Chicago","category":"LO","details":"Walked in cold w/ Kenny they said this is the guy to talk to; great guy he is going to introduce me to Phil Baker 773-884-4357; Metropolitan Bank Group (10 banks)\nARCHER, Chicago Community, Allegiance, Citizens, Metropolitan, Poplar Creek, Bank of Oswego\nother LO Robin Nienberg 1244 w grand in Chicago $495 pricing","zip/postal":"60613","last name":"Perez","geo_score":0.0,"organization":"North Community Bank","id":"a6hff61312bm","geo_precision":"unmatched","address":"3639 N. Broadway","phone 1":"(773) 244-7016 Work Fax"},"type":"Feature","geometry":null},{"properties":{"name":"Craig Hogan","city":"Chicago","category":"Realtor","details":null,"zip/postal":"60611","last name":"Hogan","geo_score":0.0,"organization":"Keller Williams-Gold Coast","id":"a6hff5vxrznt","geo_precision":"unmatched","address":"676 N Michigan Ave #3010","phone 1":"(312) 981-5355 Work"},"type":"Feature","geometry":null},{"properties":{"name":"Bob McCorry","city":"Chciago","category":"Realtor","details":"Healy knows him; does lease listings, new to the biz-refer Mark Verni","zip/postal":"60611","last name":"McCorry","geo_score":0.0,"organization":"Keller Williams-Gold Coast","id":"a6hff5yosni6","geo_precision":"unmatched","address":"676 N Michigan Ave #3010","phone 1":"(312) 981-5500 Work"},"type":"Feature","geometry":null},{"properties":{"name":"Bette Bleeker","city":"Chicago","category":"Realtor","details":null,"zip/postal":"60611","last name":"Bleeker","geo_score":0.0,"organization":null,"id":"a6hff60xn5ni","geo_precision":"unmatched","address":"737 N Michigan Ave #1900","phone 1":"(312) 268-2717 Work"},"type":"Feature","geometry":null},{"properties":{"name":"Izetta Carroll","city":"Chicago","category":"Realtor","details":null,"zip/postal":"60611","last name":"Carroll","geo_score":0.0,"organization":"Keller Williams-Gold Coast","id":"a6hff63cfqbb","geo_precision":"unmatched","address":"676 N Michigan Ave #3010","phone 1":"(847) 910-1806 Work"},"type":"Feature","geometry":null},{"properties":{"name":"William Delaney","city":"Chicago","category":"Attorney","details":null,"zip/postal":"60611","last name":"Delaney","geo_score":0.0,"organization":null,"id":"a6hff5zfnway","geo_precision":"unmatched","address":"444 N Wabash Ave Third Floor","phone 1":"(312) 276-0263 Work"},"type":"Feature","geometry":null},{"properties":{"name":"Marie Leaner","city":"Chicago","category":"Realtor","details":null,"zip/postal":"60611","last name":"Leaner","geo_score":0.0,"organization":"Keller Williams-Gold Coast","id":"a6hff5t3earx","geo_precision":"unmatched","address":"676 N Michigan Ave #3010","phone 1":"(312) 981-5393 Work"},"type":"Feature","geometry":null},{"properties":{"name":"Jay Carroll","city":"Chicago","category":"Realtor","details":null,"zip/postal":"60611","last name":"Carroll","geo_score":0.0,"organization":"Keller Williams-Gold Coast","id":"a6hff5xcyuh5","geo_precision":"unmatched","address":"676 N Michigan Ave #3010","phone 1":null},"type":"Feature","geometry":null},{"properties":{"name":"Larissa Brodsky","city":"Chicago","category":"Realtor","details":null,"zip/postal":"60611","last name":"Brodsky","geo_score":0.0,"organization":"Keller Williams-Gold Coast","id":"a6hff64xy778","geo_precision":"unmatched","address":"676 N Michigan Ave #3010","phone 1":null},"type":"Feature","geometry":null},{"properties":{"name":"Brooke Cheney","city":"Chicago","category":"Vendor","details":null,"zip/postal":"60611","last name":"Cheney","geo_score":0.0,"organization":"Regus","id":"a6hff61e37cj","geo_precision":"unmatched","address":"John Hancock Center\n875 N Michigan Ave #3100","phone 1":"(312) 214-3505 Work"},"type":"Feature","geometry":null},{"properties":{"name":"Connie Garrison","city":"Chicago","category":"Realtor","details":null,"zip/postal":"60611","last name":"Garrison","geo_score":0.0,"organization":"Keller Williams-Gold Coast","id":"a6hff64wjskl","geo_precision":"unmatched","address":"676 N Michigan Ave #3010","phone 1":null},"type":"Feature","geometry":null},{"properties":{"name":"Rick Pantoga","city":"Chicago","category":"LO","details":null,"zip/postal":"60611","last name":"Pantoga","geo_score":0.0,"organization":"Guaranty Mortgage","id":"a6hff5x1qzlu","geo_precision":"unmatched","address":"875 N Michigan Ave #3100","phone 1":"(866) 826-2048 Work"},"type":"Feature","geometry":null},{"properties":{"name":"Kelli LaBroi","city":"Chicago","category":"Realtor","details":null,"zip/postal":"60611","last name":"LaBroi","geo_score":0.0,"organization":"Keller Williams-Gold Coast","id":"a6hff64ujf3t","geo_precision":"unmatched","address":"676 N Michigan Ave #3010","phone 1":null},"type":"Feature","geometry":null},{"properties":{"name":"Jay Skwierawski","city":"Chicago","category":"LO","details":null,"zip/postal":"60611","last name":"Skwierawski","geo_score":0.0,"organization":"Guaranty Mortgage","id":"a6hff5wd9sfh","geo_precision":"unmatched","address":"737 N Michigan Ave #1900","phone 1":"(312) 268-7601 Work"},"type":"Feature","geometry":null},{"properties":{"name":"Joe Neylan","city":"Chicago","category":"LO","details":"Jackie Melvin is his processor","zip/postal":"60610","last name":"Neylan","geo_score":0.0,"organization":"Chase-Downers Grove","id":"a6hff5vovn64","geo_precision":"unmatched","address":"609 W North Ave","phone 1":"(312) 751-9286 Work"},"type":"Feature","geometry":null},{"properties":{"name":"Sanja Karatosic","city":"Chicago","category":"Processor","details":null,"zip/postal":"60610","last name":"Karatosic","geo_score":0.0,"organization":"Bank of America-N. Clybourn","id":"a6hff63qb727","geo_precision":"unmatched","address":"1565 N Clybourn Ave 2nd Floor","phone 1":"(773) 715-1741 Mobile"},"type":"Feature","geometry":null},{"properties":{"name":"Christopher T Hahn","city":"Chicago","category":"LO","details":null,"zip/postal":"60610","last name":"Hahn","geo_score":0.0,"organization":"Bank of America-N. Clybourn","id":"a6hff67emqnw","geo_precision":"unmatched","address":"1565 N Clybourn Ave 2nd Floor","phone 1":"(312) 640-8151 Work Fax"},"type":"Feature","geometry":null},{"properties":{"name":"Nasreen Safri","city":"Chicago","category":"LO","details":null,"zip/postal":"60610","last name":"Safri","geo_score":0.0,"organization":"Bank of America-N. Clybourn","id":"a6hff5z6tyns","geo_precision":"unmatched","address":"1565 N Clybourn Ave 2nd Floor","phone 1":"(773) 320-9756 Mobile"},"type":"Feature","geometry":null},{"properties":{"name":"Michael J Sato","city":"Chicago","category":"Realtor","details":null,"zip/postal":"60610","last name":"Sato","geo_score":0.0,"organization":"Jameson Real Estate","id":"a6hff5ry7sr5","geo_precision":"unmatched","address":"425 W North Ave","phone 1":"(312) 751-0300 Work"},"type":"Feature","geometry":null},{"properties":{"name":"Chris Kaye","city":"Chicago","category":"LO","details":null,"zip/postal":"60610","last name":"Kaye","geo_score":0.0,"organization":"Bank of America-N. Clybourn","id":"a6hff5to7coi","geo_precision":"unmatched","address":"1565 N Clybourn Ave 2nd Floor","phone 1":"(773) 459-6832 Mobile"},"type":"Feature","geometry":null},{"properties":{"name":"Erica Swanstrom","city":"Chicago","category":"LO","details":"used to be at Skyline mortgage","zip/postal":"60610","last name":"Swanstrom","geo_score":0.0,"organization":"US Bank","id":"a6hff5uht8f0","geo_precision":"unmatched","address":"801 N Clark St","phone 1":"(312) 335-4528 Work"},"type":"Feature","geometry":null},{"properties":{"name":"Sandesh Bilgi","city":"Chicago","category":"Realtor","details":null,"zip/postal":"60610","last name":"Bilgi","geo_score":0.0,"organization":"Jameson Real Estate","id":"a6hff637jjd3","geo_precision":"unmatched","address":"425 W North Ave","phone 1":"(312) 751-0300 Work"},"type":"Feature","geometry":null},{"properties":{"name":"Don Calloway","city":"Chicago","category":"LO","details":null,"zip/postal":"60610","last name":"Calloway","geo_score":0.0,"organization":"Chicago National","id":"a6hff5yohn2x","geo_precision":"unmatched","address":"162 W. Hubbard, Suite 200","phone 1":"3125600536 Mobile"},"type":"Feature","geometry":null},{"properties":{"name":"James F Brady","city":"Chicago","category":"LO","details":null,"zip/postal":"60610","last name":"Brady","geo_score":0.0,"organization":"The PrivateBank Mortgage Company","id":"a6hff5uumzgy","geo_precision":"unmatched","address":"640 N LaSalle #557","phone 1":"(312) 329-6440 Work"},"type":"Feature","geometry":null},{"properties":{"name":"Naomi","city":"Chicago","category":"Citywide Title","details":null,"zip/postal":"60607","last name":null,"geo_score":0.0,"organization":"Citywide Title Corp","id":"a6hff5zk2lol","geo_precision":"unmatched","address":"850 W Jackson Blvd #320","phone 1":null},"type":"Feature","geometry":null},{"properties":{"name":"Mandy","city":"Chicago","category":"Citywide Title","details":null,"zip/postal":"60607","last name":null,"geo_score":0.0,"organization":"Citywide Title Corp","id":"a6hff5yf1uj0","geo_precision":"unmatched","address":"850 W Jackson Blvd #320","phone 1":null},"type":"Feature","geometry":null},{"properties":{"name":"Champ","city":"Chicago","category":"Citywide Title","details":null,"zip/postal":"60607","last name":null,"geo_score":0.0,"organization":"Citywide Title Corp","id":"a6hff61c1yf7","geo_precision":"unmatched","address":"850 W Jackson Blvd #320","phone 1":null},"type":"Feature","geometry":null},{"properties":{"name":"Matt Barton","city":"Chicago","category":"Citywide Title","details":null,"zip/postal":"60607","last name":"Barton","geo_score":0.0,"organization":"Citywide Title Corp","id":"a6hff65i1ypr","geo_precision":"unmatched","address":"850 W Jackson #320","phone 1":null},"type":"Feature","geometry":null},{"properties":{"name":"Tom K","city":"Chicago","category":"Citywide Title","details":null,"zip/postal":"60607","last name":"K","geo_score":0.0,"organization":"Citywide Title Corp","id":"a6hff64ss218","geo_precision":"unmatched","address":"850 W Jackson Blvd #320","phone 1":null},"type":"Feature","geometry":null},{"properties":{"name":"Karen","city":"Chicago","category":"Citywide Title","details":null,"zip/postal":"60607","last name":null,"geo_score":0.0,"organization":"Citywide Title Corp","id":"a6hff5v57nqb","geo_precision":"unmatched","address":"850 W Jackson Blvd #320","phone 1":null},"type":"Feature","geometry":null},{"properties":{"name":"Joe Logan","city":"Chicago","category":"Citywide Title","details":null,"zip/postal":"60607","last name":"Logan","geo_score":0.0,"organization":"Citywide Title Corp","id":"a6hff5t6mzpv","geo_precision":"unmatched","address":"850 W. Jackson Blvd #320","phone 1":"877-363-4612 Pager"},"type":"Feature","geometry":null},{"properties":{"name":"Jeremy Butterfield","city":"Chicago","category":"Personal","details":"3332 Union Ave., Chicago 60616","zip/postal":"60607","last name":"Butterfield","geo_score":0.0,"organization":null,"id":"a6hff63dtozi","geo_precision":"unmatched","address":"1250 W. VanBuren #712","phone 1":"312-836-5515 Work"},"type":"Feature","geometry":null},{"properties":{"name":"Cynthia Lorimer","city":"Chicago","category":"Citywide Title","details":null,"zip/postal":"60607","last name":"Lorimer","geo_score":0.0,"organization":"Citywide Title Corp","id":"a6hff5yk0asj","geo_precision":"unmatched","address":"850 W Jackson Blvd #320","phone 1":null},"type":"Feature","geometry":null},{"properties":{"name":"Jim DeBoer","city":"Chicago","category":"Citywide Title","details":null,"zip/postal":"60607","last name":"DeBoer","geo_score":0.0,"organization":"Citywide Title Corp","id":"a6hff669im5d","geo_precision":"unmatched","address":"850 W Jackson Blvd #320","phone 1":"3125065056 Work"},"type":"Feature","geometry":null},{"properties":{"name":"Willis","city":"Chicago","category":"Citywide Title","details":null,"zip/postal":"60607","last name":null,"geo_score":0.0,"organization":"Citywide Title Corp","id":"a6hff6002qoo","geo_precision":"unmatched","address":"850 W Jackson Blvd #320","phone 1":null},"type":"Feature","geometry":null},{"properties":{"name":"Cindy Olary","city":"Chicago","category":"Citywide Title","details":null,"zip/postal":"60607","last name":"Olary","geo_score":0.0,"organization":"Citywide Title Corp","id":"a6hff5ut0c5m","geo_precision":"unmatched","address":"850 W Jackson Blvd #320","phone 1":null},"type":"Feature","geometry":null},{"properties":{"name":"Milt","city":"Chicago","category":"Citywide Title","details":null,"zip/postal":"60607","last name":null,"geo_score":0.0,"organization":"Citywide Title Corp","id":"a6hff5z6nt2l","geo_precision":"unmatched","address":"850 W Jackson Blvd #320","phone 1":null},"type":"Feature","geometry":null},{"properties":{"name":"Kent","city":"Chicago","category":"Citywide Title","details":null,"zip/postal":"60607","last name":null,"geo_score":0.0,"organization":"Citywide Title Corp","id":"a6hff5t4xqbb","geo_precision":"unmatched","address":"850 W Jackson Blvd #320","phone 1":null},"type":"Feature","geometry":null},{"properties":{"name":"Vaughn White","city":"Chicago","category":"Attorney","details":null,"zip/postal":"60607","last name":"White","geo_score":0.0,"organization":null,"id":"a6hff63oe5dq","geo_precision":"unmatched","address":"234 S Ashland Ave","phone 1":"(630) 640-2105 Work"},"type":"Feature","geometry":null},{"properties":{"name":"Carlos O","city":"Chicago","category":"Citywide Title","details":null,"zip/postal":"60607","last name":"O","geo_score":0.0,"organization":"Citywide Title Corp","id":"a6hff62o2q77","geo_precision":"unmatched","address":"850 W Jackson Blvd #320","phone 1":null},"type":"Feature","geometry":null},{"properties":{"name":"Tammy","city":"Chicago","category":"Citywide Title","details":null,"zip/postal":"60607","last name":null,"geo_score":0.0,"organization":"Citywide Title Corp","id":"a6hff5u4w6xu","geo_precision":"unmatched","address":"850 W Jackson Blvd #320","phone 1":null},"type":"Feature","geometry":null},{"properties":{"name":"Mike Brooks","city":"Chicago","category":"Citywide Title","details":null,"zip/postal":"60607","last name":"Brooks","geo_score":0.0,"organization":"Citywide Title Corp","id":"a6hff5vxu1p2","geo_precision":"unmatched","address":"850 W Jackson Blvd #320","phone 1":null},"type":"Feature","geometry":null},{"properties":{"name":"Trish","city":"Chicago","category":"Citywide Title","details":null,"zip/postal":"60607","last name":null,"geo_score":0.0,"organization":"Citywide Title Corp","id":"a6hff5v2b8uy","geo_precision":"unmatched","address":"850 W Jackson Blvd #320","phone 1":null},"type":"Feature","geometry":null},{"properties":{"name":"Mike Brown","city":"Chicago","category":"Citywide Title","details":null,"zip/postal":"60607","last name":"Brown","geo_score":0.0,"organization":"Citywide Title Corp","id":"a6hff5xfhar4","geo_precision":"unmatched","address":"850 W Jackson #320","phone 1":null},"type":"Feature","geometry":null},{"properties":{"name":"Joshua M Martin","city":"Chicago","category":"Attorney","details":null,"zip/postal":"60607","last name":"Martin","geo_score":0.0,"organization":null,"id":"a6hff6277zj4","geo_precision":"unmatched","address":"14 N Peoria St #2-C","phone 1":"(312) 698-8764 Work"},"type":"Feature","geometry":null},{"properties":{"name":"Cynthia L","city":"Chicago","category":"Citywide Title","details":null,"zip/postal":"60607","last name":"L","geo_score":0.0,"organization":"Citywide Title Corp","id":"a6hff6368arx","geo_precision":"unmatched","address":"850 W Jackson Blvd #320","phone 1":"(815) 693-7301 Mobile"},"type":"Feature","geometry":null},{"properties":{"name":"Dawn","city":"Chicago","category":"Citywide Title","details":null,"zip/postal":"60607","last name":null,"geo_score":0.0,"organization":"Citywide Title Corp","id":"a6hff65s58me","geo_precision":"unmatched","address":"850 W Jackson Blvd #320","phone 1":null},"type":"Feature","geometry":null},{"properties":{"name":"Mario Kielar","city":"Chicago","category":"Citywide Title","details":null,"zip/postal":"60607","last name":"Kielar","geo_score":0.0,"organization":"Citywide Title Corp","id":"a6hff5xyhla1","geo_precision":"unmatched","address":"850 W Jackson Blvd #320","phone 1":"(630) 935-0843 Mobile"},"type":"Feature","geometry":null},{"properties":{"name":"Maria Barraza","city":"Chicago","category":"Vendor","details":null,"zip/postal":"60607","last name":"Barraza","geo_score":0.0,"organization":"American Family Insurance","id":"a6hff5zb45wu","geo_precision":"unmatched","address":"845 W Monroe","phone 1":"(312) 563-1333 Work"},"type":"Feature","geometry":null},{"properties":{"name":"Mirella","city":"Chicago","category":"Citywide Title","details":null,"zip/postal":"60607","last name":null,"geo_score":0.0,"organization":"Citywide Title Corp","id":"a6hff60y4k5n","geo_precision":"unmatched","address":"850 W Jackson Blvd #320","phone 1":null},"type":"Feature","geometry":null},{"properties":{"name":"Scott Yu","city":"Chicago","category":"Attorney","details":null,"zip/postal":"606062","last name":"Yu","geo_score":0.0,"organization":null,"id":"a6hff5tc12v7","geo_precision":"unmatched","address":"70 W Madison #400","phone 1":"(312) 558-7778 Work"},"type":"Feature","geometry":null},{"properties":{"name":"Mike R Williams","city":"Chicago","category":"LO","details":"pricing up to $750k if needed-lots of out of state stuff","zip/postal":"60606","last name":"Williams","geo_score":0.0,"organization":"Wells Fargo-Hoffman Estates","id":"a6hff67yxmqw","geo_precision":"unmatched","address":"123 N Wacker Dr #1100","phone 1":"(312) 592-5653 Work"},"type":"Feature","geometry":null},{"properties":{"name":"Roxolna I Harasymiw","city":"Chicago","category":"Attorney","details":null,"zip/postal":"60606","last name":"Harasymiw","geo_score":0.0,"organization":null,"id":"a6hff5zay79w","geo_precision":"unmatched","address":"150 S Wacker Dr #650","phone 1":"(312) 346-4355 Work"},"type":"Feature","geometry":null},{"properties":{"name":"Sean Lowry","city":"Chicago","category":"LO","details":null,"zip/postal":"60605","last name":"Lowry","geo_score":0.0,"organization":"Pacor Mortgage Corp","id":"a6hff63h0nc1","geo_precision":"unmatched","address":"401 S LaSalle #201","phone 1":"(312) 786-5844 Work"},"type":"Feature","geometry":null},{"properties":{"name":"Bill Sweitzer","city":"Chicago","category":"LO","details":null,"zip/postal":"60604","last name":"Sweitzer","geo_score":0.0,"organization":"US Bank","id":"a6hff67nav4k","geo_precision":"unmatched","address":"209 S. Lasalle 4th Floor","phone 1":"(815) 341-1522 Mobile"},"type":"Feature","geometry":null},{"properties":{"name":"Mary Beth Durkin","city":"Chicago","category":"Vendor","details":"took over for Andrew Fiszer","zip/postal":"60604","last name":"Durkin","geo_score":0.0,"organization":"C.A.R.","id":"a6hff60nkf6p","geo_precision":"unmatched","address":"200 S Michigan Ave #400","phone 1":"(312) 214-5530 Work"},"type":"Feature","geometry":null},{"properties":{"name":"Ian B Berliner","city":"Chicago","category":"Attorney","details":null,"zip/postal":"60604","last name":"Berliner","geo_score":0.0,"organization":null,"id":"a6hff66nzkjl","geo_precision":"unmatched","address":"53 W Jackson Blvd #1403","phone 1":"(312) 566-9900 Work"},"type":"Feature","geometry":null},{"properties":{"name":"Marc R Campagna","city":"Chicago","category":"Attorney","details":"met 4/5/10\nnot much real estate-Jason does it mostly","zip/postal":"60604","last name":"Campagna","geo_score":0.0,"organization":"Ciardelli &amp; Cummings","id":"a6hff5ttilph","geo_precision":"unmatched","address":"19 W Jackson Blvd #300","phone 1":"(312) 346-2522 Work"},"type":"Feature","geometry":null},{"properties":{"name":"Mark Johnson","city":"Chicago","category":"LO","details":"came from Wells and Nat City; worked w/ Vince Manglardi at First Home","zip/postal":"60604","last name":"Johnson","geo_score":0.0,"organization":"US Bank","id":"a6hff64syfoj","geo_precision":"unmatched","address":"209 South LaSalle #501","phone 1":"(312) 325-2028 Work"},"type":"Feature","geometry":null},{"properties":{"name":"Andy Karabetsos","city":"Chicago","category":"LO","details":"only 2 LO's he used to be broker; referred us to Juanita Perez 312-567-0501 2141 s. indiana Chicago","zip/postal":"60604","last name":"Karabetsos","geo_score":0.0,"organization":"Lakeside Bank","id":"a6hff653fgfi","geo_precision":"unmatched","address":"141 W Jackson Blvd","phone 1":"(312) 808-5862 Work"},"type":"Feature","geometry":null},{"properties":{"name":"LaDonna Reed","city":"Chicago","category":"Processor","details":null,"zip/postal":"60603","last name":"Reed","geo_score":0.0,"organization":"Chase-Downers Grove","id":"a6hff63d32uf","geo_precision":"unmatched","address":"10 S Dearborn 2nd Floor","phone 1":"(312) 732-3990 Work"},"type":"Feature","geometry":null},{"properties":{"name":"Colleen G Bara","city":"Chicago","category":"Regional Mgr","details":null,"zip/postal":"60603","last name":"Bara","geo_score":0.0,"organization":"Chase-Downers Grove","id":"a6hff5wjcvd3","geo_precision":"unmatched","address":"10 S Dearborn Floor 39","phone 1":null},"type":"Feature","geometry":null},{"properties":{"name":"Matthew Flaherty","city":"Chicago","category":"LO","details":null,"zip/postal":"60603","last name":"Flaherty","geo_score":0.0,"organization":"Chase-Downers Grove","id":"a6hff62xrfnu","geo_precision":"unmatched","address":"10 S Dearborn St","phone 1":null},"type":"Feature","geometry":null},{"properties":{"name":"Barbara Burns","city":"Chicago","category":"Attorney","details":null,"zip/postal":"60603","last name":"Burns","geo_score":0.0,"organization":"Barbara Burns Attorney at Law","id":"a6hff5zxhp14","geo_precision":"unmatched","address":"29 S LaSalle St #830","phone 1":"(312) 263-4570 Work"},"type":"Feature","geometry":null},{"properties":{"name":"LouAnn Luck","city":"Chicago","category":"LO","details":"she is doing Kathy Hess' loan","zip/postal":"60603","last name":"Luck","geo_score":0.0,"organization":"The PrivateBank Mortgage Company","id":"a6hff66kpdvb","geo_precision":"unmatched","address":"120 S LaSalle","phone 1":"(312) 564-6845 Work"},"type":"Feature","geometry":null},{"properties":{"name":"Charles B Bernstein","city":"Chicago","category":"Attorney","details":null,"zip/postal":"60603","last name":"Bernstein","geo_score":0.0,"organization":null,"id":"a6hff5xnce1u","geo_precision":"unmatched","address":"10 S LaSalle #1400","phone 1":"(312) 263-0005 Work"},"type":"Feature","geometry":null},{"properties":{"name":"John Botner","city":"Chicago","category":"Attorney","details":"good meeting used to work for DFI or DFR??","zip/postal":"60602","last name":"Botner","geo_score":0.0,"organization":"Law Offices of John Botner","id":"a6hff5u45z0k","geo_precision":"unmatched","address":"111 W Washington St #1660","phone 1":"(847) 845-7541 Work"},"type":"Feature","geometry":null},{"properties":{"name":"Richard Caifano","city":"Chicago","category":"Attorney","details":null,"zip/postal":"60602","last name":"Caifano","geo_score":0.0,"organization":null,"id":"a6hff64grhzq","geo_precision":"unmatched","address":"20 N Clark St #725","phone 1":"(312) 346-0570 Work"},"type":"Feature","geometry":null},{"properties":{"name":"Ronald G Pestine","city":"Chicago","category":"Attorney","details":null,"zip/postal":"60602","last name":"Pestine","geo_score":0.0,"organization":null,"id":"a6hff64z5nnh","geo_precision":"unmatched","address":"134 N LaSalle #2250","phone 1":"(312) 726-8770 Work"},"type":"Feature","geometry":null},{"properties":{"name":"Ronald K Branch","city":"Chicago","category":"LO","details":"11/2/10: came from Seaway Bank,  also was at American States mtg","zip/postal":"60602","last name":"Branch","geo_score":0.0,"organization":"Chase-Downers Grove","id":"a6hff62ufhhf","geo_precision":"unmatched","address":"41 N Wabash","phone 1":"(312) 795-0421 Work"},"type":"Feature","geometry":null},{"properties":{"name":"Louis Jeffries","city":"Chicago","category":"LO","details":"married to Laura Allen","zip/postal":"60602","last name":"Jeffries","geo_score":0.0,"organization":null,"id":"a6hff64ntit4","geo_precision":"unmatched","address":"120 N LaSalle #1700","phone 1":"312-696-2351 Work"},"type":"Feature","geometry":null},{"properties":{"name":"Georgette Nabhani","city":"Chicago","category":"Attorney","details":null,"zip/postal":"60602","last name":"Nabhani","geo_score":0.0,"organization":"City-Suburban Realty, Inc.","id":"a6hff5ybaiei","geo_precision":"unmatched","address":"77 W Washington #1012","phone 1":"(312) 726-6175 Work"},"type":"Feature","geometry":null},{"properties":{"name":"Steven A Grossman","city":"Chicago","category":"Attorney","details":null,"zip/postal":"60602","last name":"Grossman","geo_score":0.0,"organization":null,"id":"a6hff67nkq1s","geo_precision":"unmatched","address":"17 N State St #990","phone 1":"(312) 444-9528 Work"},"type":"Feature","geometry":null},{"properties":{"name":"Marc A Cervantes","city":"Chicago","category":"Attorney","details":"4/9/10: he is a hitter, on the Waste Mgmt project up north we were talking to Van about","zip/postal":"60602","last name":"Cervantes","geo_score":0.0,"organization":"Cervantes &amp; Cioffi LLP","id":"a6hff5zrx236","geo_precision":"unmatched","address":"111 W Washington St #1201","phone 1":"(312) 606-9529 Work"},"type":"Feature","geometry":null},{"properties":{"name":"Frank R Martin","city":"Chicago","category":"Attorney","details":null,"zip/postal":"60602","last name":"Martin","geo_score":0.0,"organization":null,"id":"a6hff5zavdjc","geo_precision":"unmatched","address":"20 N Clark St #1900","phone 1":"(312) 726-5646 Work"},"type":"Feature","geometry":null},{"properties":{"name":"Don Martin","city":"Chicago","category":"Attorney","details":"good mtg, old guy; CT  is down the hall","zip/postal":"60601-3376","last name":"Martin","geo_score":0.0,"organization":null,"id":"a6hff62d1yew","geo_precision":"unmatched","address":"161 N Clark St #550","phone 1":"(312) 332-4550 Work"},"type":"Feature","geometry":null},{"properties":{"name":"Cynthia M Custer","city":"Chicago","category":"Attorney","details":null,"zip/postal":"60601","last name":"Custer","geo_score":0.0,"organization":null,"id":"a6hff6209zmb","geo_precision":"unmatched","address":"155 N Michigan Ave #519","phone 1":"(312) 729-5190 Work"},"type":"Feature","geometry":null},{"properties":{"name":"Carl Abrahamson","city":"Chicago","category":"VP","details":null,"zip/postal":"60601","last name":"Abrahamson","geo_score":0.0,"organization":"Associated Bank","id":"a6hff61eurmr","geo_precision":"unmatched","address":"200 E Randolph Dr","phone 1":"(312) 861-1537 Work"},"type":"Feature","geometry":null},{"properties":{"name":"Dennis W Thorn","city":"Chicago","category":"Attorney","details":null,"zip/postal":"60601","last name":"Thorn","geo_score":0.0,"organization":null,"id":"a6hff5y1q8hv","geo_precision":"unmatched","address":"180 N Michigan Ave #2105","phone 1":"(312) 726-7000 Work"},"type":"Feature","geometry":null},{"properties":{"name":"Kevin F Brennan","city":"Chicago","category":"Attorney","details":null,"zip/postal":"60601","last name":"Brennan","geo_score":0.0,"organization":null,"id":"a6hff5z0vw52","geo_precision":"unmatched","address":"155 N Michigan #700","phone 1":"(312) 729-5420 Work"},"type":"Feature","geometry":null},{"properties":{"name":"Matthew E Wolfe","city":"Chicago","category":"VP","details":"commercial side-Thanh's boss","zip/postal":"60601","last name":"Wolfe","geo_score":0.0,"organization":"Associated Bank","id":"a6hff5txf64v","geo_precision":"unmatched","address":"200 E Randolph Dr","phone 1":"(312) 861-1500 Work"},"type":"Feature","geometry":null},{"properties":{"name":"Alex R Thiersch","city":"Chiago","category":"Attorney","details":"referrla from Stephanie at Keller Williams","zip/postal":"60601","last name":"Thiersch","geo_score":0.0,"organization":null,"id":"a6hff655ubfk","geo_precision":"unmatched","address":"161 N Clark #4700","phone 1":"(312) 753-6000 Work"},"type":"Feature","geometry":null},{"properties":{"name":"Thanh Pham","city":"Chicago","category":"LO","details":"he is in the commercial side of things-lots of opportunities w/ him he is in charge of warehouse lines for mort banks","zip/postal":"60601","last name":"Pham","geo_score":0.0,"organization":"Associated Bank","id":"a6hff60pnnqk","geo_precision":"unmatched","address":"200 E Randolph","phone 1":"(312) 861-1735 Work"},"type":"Feature","geometry":null},{"properties":{"name":"Douglas A Hanson","city":"Chicago","category":"Attorney","details":null,"zip/postal":"60601","last name":"Hanson","geo_score":0.0,"organization":null,"id":"a6hff63nlrjn","geo_precision":"unmatched","address":"130 E Randolph #3800","phone 1":"(312) 565-8375 Work"},"type":"Feature","geometry":null},{"properties":{"name":"Leon J Teichner","city":"Chicago","category":"Attorney","details":null,"zip/postal":"60601","last name":"Teichner","geo_score":0.0,"organization":null,"id":"a6hff61sd7nt","geo_precision":"unmatched","address":"180 N LaSalle St #2900","phone 1":"(312) 541-2822 Work"},"type":"Feature","geometry":null},{"properties":{"name":"Clarissa Y Cutler","city":"Chicago","category":"Attorney","details":null,"zip/postal":"60601","last name":"Cutler","geo_score":0.0,"organization":null,"id":"a6hff5u2zbmz","geo_precision":"unmatched","address":"155 N Michigan Ave #375","phone 1":"(312) 729-5067 Work"},"type":"Feature","geometry":null},{"properties":{"name":"Mark Verni","city":"Chicago","category":"LO","details":"deals w/ private banking clients; $1mm loans","zip/postal":"60601","last name":"Verni","geo_score":0.0,"organization":"Associated Bank","id":"a6hff5uv55tk","geo_precision":"unmatched","address":"130 E Randolph Dr","phone 1":"(312) 861-1527 Work"},"type":"Feature","geometry":null}],"is_temporal":false,"author":{"url":"","metadata":"","contact_name":"","contact_address":"","source":"","contact_phone":""},"source":"","pagination":{"sort":null,"start":0,"total":249,"limit":1000000},"state":"complete","tags":"atty","published":"2014-08-13T06:53:16-04:00","id":106444}