{"type":"FeatureCollection","data_type":"Dataset","url_type":null,"permissions":[{"permissions":{"download":true,"view":true},"group_id":"everyone"}],"classification":null,"title":"GPSpoints","count":9,"stream_id":107588,"contributor":{"url":"http://geocommons.com/users/24865","name":"bulls9938"},"data_attributes":null,"calculation_params":null,"icon_link":null,"link":"http://geocommons.com/overlays/107588.json","extent":[-78.7853,43.0077,-78.7827,43.0093],"geometry_types":["point"],"unique_name":null,"name":"GPSpoints","feature_count":9,"description":"","next_feature":null,"is_raster":false,"short_classification":"Y","stats":{"Bars":{"max":7.0,"mean":5.44444444444444,"variance":0.777777777777778,"stdev":0.881917103688197,"min":4.0,"median":5.0},"LAT":{"max":43.00927,"mean":43.00838,"variance":1.95325000000026e-07,"stdev":0.000441955880150978,"min":43.0077,"median":43.00836},"Object_ID":{"max":9.0,"mean":5.0,"variance":7.5,"stdev":2.73861278752583,"min":1.0,"median":5.0},"LONG":{"max":-78.78268,"mean":-78.78389,"variance":1.05892500000344e-06,"stdev":0.00102904081551872,"min":-78.78529,"median":-78.78387}},"features":[{"properties":{"Name":"Tiger","Bars":5.0,"Descr":"Pavement","id":"a696has76eb0","LAT":43.00813,"Object_ID":1.0,"LONG":-78.78469},"type":"Feature","geometry":{"type":"Point","coordinates":[-78.78469,43.00813]}},{"properties":{"Name":"Spectral Tarsears","Bars":5.0,"Descr":"grass","id":"a696hai3p5v8","LAT":43.00842,"Object_ID":2.0,"LONG":-78.78529},"type":"Feature","geometry":{"type":"Point","coordinates":[-78.78529,43.00842]}},{"properties":{"Name":"Pete Avery All-Stars","Bars":6.0,"Descr":"picnic table","id":"a696hadf0a2f","LAT":43.00836,"Object_ID":3.0,"LONG":-78.78288},"type":"Feature","geometry":{"type":"Point","coordinates":[-78.78288,43.00836]}},{"properties":{"Name":"Islanders","Bars":6.0,"Descr":"tree","id":"a696hamjhmua","LAT":43.008,"Object_ID":4.0,"LONG":-78.78268},"type":"Feature","geometry":{"type":"Point","coordinates":[-78.78268,43.008]}},{"properties":{"Name":"Blue","Bars":6.0,"Descr":"fire hydrant","id":"a696hapg9tjt","LAT":43.00834,"Object_ID":5.0,"LONG":-78.78387},"type":"Feature","geometry":{"type":"Point","coordinates":[-78.78387,43.00834]}},{"properties":{"Name":"Mike Rules","Bars":4.0,"Descr":"pavement","id":"a696hackgirr","LAT":43.0077,"Object_ID":6.0,"LONG":-78.78484},"type":"Feature","geometry":{"type":"Point","coordinates":[-78.78484,43.0077]}},{"properties":{"Name":"Duck","Bars":5.0,"Descr":"grass","id":"a696han1i8dl","LAT":43.00858,"Object_ID":7.0,"LONG":-78.7848},"type":"Feature","geometry":{"type":"Point","coordinates":[-78.7848,43.00858]}},{"properties":{"Name":"Bear","Bars":7.0,"Descr":"grass","id":"a696haplqpny","LAT":43.00927,"Object_ID":8.0,"LONG":-78.78298},"type":"Feature","geometry":{"type":"Point","coordinates":[-78.78298,43.00927]}},{"properties":{"Name":"Red","Bars":5.0,"Descr":"pavement","id":"a696hal0zneq","LAT":43.00862,"Object_ID":9.0,"LONG":-78.78298},"type":"Feature","geometry":{"type":"Point","coordinates":[-78.78298,43.00862]}}],"is_temporal":false,"author":{"url":"","metadata":"","contact_name":"","contact_address":"","source":"","contact_phone":""},"source":"","pagination":{"sort":null,"start":0,"total":9,"limit":1000000},"state":"complete","tags":"","published":"2014-08-13T08:45:10-04:00","id":107588}