{"type":"FeatureCollection","data_type":"Dataset","url_type":null,"permissions":[{"permissions":{"download":true,"view":true},"group_id":"everyone"}],"classification":null,"title":"PA CleanWays - Illegal Dump Surveys - points, Pennsylvania, 2009","count":2493,"stream_id":11218,"contributor":{"url":"http://geocommons.com/users/955","name":"williambenjaminiv"},"data_attributes":null,"calculation_params":null,"icon_link":null,"link":"http://geocommons.com/overlays/11218.json","extent":[-80.5193,0.0,0.0,42.2604],"geometry_types":["point"],"unique_name":null,"name":"PA CleanWays - Illegal Dump Surveys - points, Pennsylvania, 2009","feature_count":2493,"description":"PA CleanWays' illegal dump surveys educate state, county and local officials, as well as citizens, about the problem of illegal dumping and provide valuable data about the dumpsites and the community in which they reside. Illegal dumping mostly occurs in remote and secluded places, rural areas where few persons live, and the roads are less traveled. However, for many people who are residents of an urban area, an illegal dump is often within a one-mile radius of their home. Overall, very few people are aware of the widespread problem of illegal dumping in Pennsylvania.","next_feature":null,"is_raster":false,"short_classification":"Y","stats":{"LONGITUDE":{"max":0.0,"mean":-78.8005708383474,"variance":7.15930950878352,"stdev":2.67568860459948,"min":-80.51931,"median":-79.53658},"ID":{"max":217.0,"mean":70.0393100681909,"variance":2599.56747496522,"stdev":50.9859537026152,"min":1.0,"median":60.0},"LATITUDE":{"max":42.26042,"mean":40.7212718210991,"variance":1.72305373220511,"stdev":1.31265141305874,"min":0.0,"median":40.7425},"SITE_NUMBE":{"max":223.0,"mean":72.9281989570798,"variance":2708.76089390583,"stdev":52.0457576936471,"min":0.0,"median":63.0}},"features":[{"properties":{"MUNICIPALI":"Avalon","LONGITUDE":-80.07102,"ID":1.0,"LATITUDE":40.50406,"SITE_NUMBE":69.0,"SITE_NAME":"Spruce Run &amp; Frederick","id":"a6ewb5o6ki5h"},"type":"Feature","geometry":{"type":"Point","coordinates":[-80.07102,40.50406]}},{"properties":{"MUNICIPALI":"Bedford Township","LONGITUDE":-78.49344,"ID":1.0,"LATITUDE":40.01925,"SITE_NUMBE":1.0,"SITE_NAME":"Backsprings Road","id":"a6ewb5sjw3rs"},"type":"Feature","geometry":{"type":"Point","coordinates":[-78.49344,40.01925]}},{"properties":{"MUNICIPALI":"Coal / Mt. Carmel Towns","LONGITUDE":-76.49387,"ID":1.0,"LATITUDE":40.77237,"SITE_NUMBE":36.0,"SITE_NAME":"Pep's Railroad","id":"a6ewb5n0ksgi"},"type":"Feature","geometry":{"type":"Point","coordinates":[-76.49387,40.77237]}},{"properties":{"MUNICIPALI":"Barry Township","LONGITUDE":-76.43819,"ID":1.0,"LATITUDE":40.68429,"SITE_NUMBE":1.0,"SITE_NAME":"Weishample Hollow","id":"a6ewb5p9gldd"},"type":"Feature","geometry":{"type":"Point","coordinates":[-76.43819,40.68429]}},{"properties":{"MUNICIPALI":"Amwell Twp.","LONGITUDE":-80.18511,"ID":1.0,"LATITUDE":40.09269,"SITE_NUMBE":2.0,"SITE_NAME":"Shipe Road","id":"a6ewb5m3e17b"},"type":"Feature","geometry":{"type":"Point","coordinates":[-80.18511,40.09269]}},{"properties":{"MUNICIPALI":"Addison Township","LONGITUDE":-79.38126,"ID":1.0,"LATITUDE":39.74341,"SITE_NUMBE":1.0,"SITE_NAME":"Braddocks Run Road","id":"a6ewb5tk6usv"},"type":"Feature","geometry":{"type":"Point","coordinates":[-79.38126,39.74341]}},{"properties":{"MUNICIPALI":"Albany Township","LONGITUDE":-75.81373,"ID":1.0,"LATITUDE":40.59588,"SITE_NUMBE":1.0,"SITE_NAME":"Snyder Road","id":"a6ewb5y9ht0z"},"type":"Feature","geometry":{"type":"Point","coordinates":[-75.81373,40.59588]}},{"properties":{"MUNICIPALI":"Allegheny Township","LONGITUDE":-79.56583,"ID":1.0,"LATITUDE":41.58749,"SITE_NUMBE":1.0,"SITE_NAME":"Skunk Hollow Road","id":"a6ewb5qdwyct"},"type":"Feature","geometry":{"type":"Point","coordinates":[-79.56583,41.58749]}},{"properties":{"MUNICIPALI":"Clark","LONGITUDE":-80.39322,"ID":1.0,"LATITUDE":41.28133,"SITE_NUMBE":120.0,"SITE_NAME":"N. Neshannock Road","id":"a6ewb5r8fwfc"},"type":"Feature","geometry":{"type":"Point","coordinates":[-80.39322,41.28133]}},{"properties":{"MUNICIPALI":"Adams Township","LONGITUDE":-79.9666,"ID":1.0,"LATITUDE":40.68496,"SITE_NUMBE":11.0,"SITE_NAME":"Three Degree Road","id":"a6ewb5l099qw"},"type":"Feature","geometry":{"type":"Point","coordinates":[-79.9666,40.68496]}},{"properties":{"MUNICIPALI":"Annin Township","LONGITUDE":-78.29806,"ID":1.0,"LATITUDE":41.8633,"SITE_NUMBE":1.0,"SITE_NAME":"Birch Run Road","id":"a6ewb5uwlk6z"},"type":"Feature","geometry":{"type":"Point","coordinates":[-78.29806,41.8633]}},{"properties":{"MUNICIPALI":"Ashley Borough","LONGITUDE":-75.90286,"ID":1.0,"LATITUDE":41.22411,"SITE_NUMBE":96.0,"SITE_NAME":"West Liberty Street ECP Site 1","id":"a6ewb5m4baem"},"type":"Feature","geometry":{"type":"Point","coordinates":[-75.90286,41.22411]}},{"properties":{"MUNICIPALI":"Benton Township","LONGITUDE":-76.44044,"ID":1.0,"LATITUDE":41.18579,"SITE_NUMBE":21.0,"SITE_NAME":"McHenry Hill Road Site 1","id":"a6ewb5vc1ws9"},"type":"Feature","geometry":{"type":"Point","coordinates":[-76.44044,41.18579]}},{"properties":{"MUNICIPALI":"Mahoning Township","LONGITUDE":-80.50078,"ID":1.0,"LATITUDE":41.02765,"SITE_NUMBE":1.0,"SITE_NAME":"CSX, RR Stop 30  River Road","id":"a6ewb5mp7b6z"},"type":"Feature","geometry":{"type":"Point","coordinates":[-80.50078,41.02765]}},{"properties":{"MUNICIPALI":"Athens Township","LONGITUDE":-79.77374,"ID":1.0,"LATITUDE":41.74042,"SITE_NUMBE":1.0,"SITE_NAME":"Cemetery Road Site 1","id":"a6ewb5mh3mrc"},"type":"Feature","geometry":{"type":"Point","coordinates":[-79.77374,41.74042]}},{"properties":{"MUNICIPALI":"Beaver Township","LONGITUDE":-79.14912,"ID":1.0,"LATITUDE":41.08305,"SITE_NUMBE":37.0,"SITE_NAME":"Heathville Road","id":"a6ewb5tkrnef"},"type":"Feature","geometry":{"type":"Point","coordinates":[-79.14912,41.08305]}},{"properties":{"MUNICIPALI":"Cooke","LONGITUDE":-77.27898,"ID":1.0,"LATITUDE":40.06321,"SITE_NUMBE":33.0,"SITE_NAME":"Ridge Road","id":"a6ewb5utkd9j"},"type":"Feature","geometry":{"type":"Point","coordinates":[-77.27898,40.06321]}},{"properties":{"MUNICIPALI":"Armstrong Township","LONGITUDE":-79.27611,"ID":1.0,"LATITUDE":40.58,"SITE_NUMBE":55.0,"SITE_NAME":"Locust Road - Site 1","id":"a6ewb5kei5lw"},"type":"Feature","geometry":{"type":"Point","coordinates":[-79.27611,40.58]}},{"properties":{"MUNICIPALI":"Benezette Township","LONGITUDE":-78.42134,"ID":1.0,"LATITUDE":41.31505,"SITE_NUMBE":27.0,"SITE_NAME":"Gray Hill Road","id":"a6ewb5s8mn7f"},"type":"Feature","geometry":{"type":"Point","coordinates":[-78.42134,41.31505]}},{"properties":{"MUNICIPALI":"Aleppo Township","LONGITUDE":-80.45204,"ID":1.0,"LATITUDE":39.82933,"SITE_NUMBE":11.0,"SITE_NAME":"Fairview Road","id":"a6ewb5nlckx9"},"type":"Feature","geometry":{"type":"Point","coordinates":[-80.45204,39.82933]}},{"properties":{"MUNICIPALI":"City of Erie","LONGITUDE":-80.05706,"ID":1.0,"LATITUDE":42.12573,"SITE_NUMBE":67.0,"SITE_NAME":"E. 18th Street / Buffalo Road","id":"a6ewb5mmcbcj"},"type":"Feature","geometry":{"type":"Point","coordinates":[-80.05706,42.12573]}},{"properties":{"MUNICIPALI":"Dublin Township","LONGITUDE":-77.96491,"ID":1.0,"LATITUDE":40.04442,"SITE_NUMBE":1.0,"SITE_NAME":"Great Cove Road","id":"a6ewb5nxmcb0"},"type":"Feature","geometry":{"type":"Point","coordinates":[-77.96491,40.04442]}},{"properties":{"MUNICIPALI":"Bullskin","LONGITUDE":-79.48809,"ID":1.0,"LATITUDE":40.08354,"SITE_NUMBE":28.0,"SITE_NAME":"Wiltrout Hollow Road","id":"a6ewb5z7ljau"},"type":"Feature","geometry":{"type":"Point","coordinates":[-79.48809,40.08354]}},{"properties":{"MUNICIPALI":"Bullskin","LONGITUDE":-79.50479,"ID":2.0,"LATITUDE":40.13357,"SITE_NUMBE":29.0,"SITE_NAME":"Zelmore Road","id":"a6ewb5o2594g"},"type":"Feature","geometry":{"type":"Point","coordinates":[-79.50479,40.13357]}},{"properties":{"MUNICIPALI":"City of Erie","LONGITUDE":-80.07229,"ID":2.0,"LATITUDE":42.10568,"SITE_NUMBE":68.0,"SITE_NAME":"Erie Street","id":"a6ewb5ukp1ml"},"type":"Feature","geometry":{"type":"Point","coordinates":[-80.07229,42.10568]}},{"properties":{"MUNICIPALI":"Dublin Township","LONGITUDE":-77.96142,"ID":2.0,"LATITUDE":40.03939,"SITE_NUMBE":2.0,"SITE_NAME":"Log Cabin Road","id":"a6ewb5q5qa16"},"type":"Feature","geometry":{"type":"Point","coordinates":[-77.96142,40.03939]}},{"properties":{"MUNICIPALI":"Benezette Township","LONGITUDE":-78.34915,"ID":2.0,"LATITUDE":41.33429,"SITE_NUMBE":28.0,"SITE_NAME":"Sumerson Road","id":"a6ewb5t8jhw3"},"type":"Feature","geometry":{"type":"Point","coordinates":[-78.34915,41.33429]}},{"properties":{"MUNICIPALI":"Aleppo Township","LONGITUDE":-80.46085,"ID":2.0,"LATITUDE":39.83335,"SITE_NUMBE":14.0,"SITE_NAME":"Valley Farm Drive","id":"a6ewb5w5yh74"},"type":"Feature","geometry":{"type":"Point","coordinates":[-80.46085,39.83335]}},{"properties":{"MUNICIPALI":"Cooke","LONGITUDE":-77.19515,"ID":2.0,"LATITUDE":40.0749,"SITE_NUMBE":35.0,"SITE_NAME":"Cold Springs Road","id":"a6ewb5k9sr4m"},"type":"Feature","geometry":{"type":"Point","coordinates":[-77.19515,40.0749]}},{"properties":{"MUNICIPALI":"Armstrong Township","LONGITUDE":-79.29528,"ID":2.0,"LATITUDE":40.62278,"SITE_NUMBE":56.0,"SITE_NAME":"Millen Road - Site 1","id":"a6ewb5ygljed"},"type":"Feature","geometry":{"type":"Point","coordinates":[-79.29528,40.62278]}},{"properties":{"MUNICIPALI":"Athens Township","LONGITUDE":-79.77235,"ID":2.0,"LATITUDE":41.7401,"SITE_NUMBE":2.0,"SITE_NAME":"Cemetery Road Site 2","id":"a6ewb5jddrwg"},"type":"Feature","geometry":{"type":"Point","coordinates":[-79.77235,41.7401]}},{"properties":{"MUNICIPALI":"Beaver Township","LONGITUDE":-79.14633,"ID":2.0,"LATITUDE":41.06081,"SITE_NUMBE":38.0,"SITE_NAME":"Reitz Road","id":"a6ewb5teboen"},"type":"Feature","geometry":{"type":"Point","coordinates":[-79.14633,41.06081]}},{"properties":{"MUNICIPALI":"Benton Township","LONGITUDE":-76.39952,"ID":2.0,"LATITUDE":41.19357,"SITE_NUMBE":23.0,"SITE_NAME":"McHenry Hill Road Site 2","id":"a6ewb5ittz4e"},"type":"Feature","geometry":{"type":"Point","coordinates":[-76.39952,41.19357]}},{"properties":{"MUNICIPALI":"Mahoning Township","LONGITUDE":-80.51432,"ID":2.0,"LATITUDE":41.03286,"SITE_NUMBE":2.0,"SITE_NAME":"Graham Road","id":"a6ewb5szmc05"},"type":"Feature","geometry":{"type":"Point","coordinates":[-80.51432,41.03286]}},{"properties":{"MUNICIPALI":"Ashley Borough","LONGITUDE":-75.90331,"ID":2.0,"LATITUDE":41.22431,"SITE_NUMBE":97.0,"SITE_NAME":"West Liberty Street ECP Site 2","id":"a6ewb5vkv9dx"},"type":"Feature","geometry":{"type":"Point","coordinates":[-75.90331,41.22431]}},{"properties":{"MUNICIPALI":"Annin Township","LONGITUDE":-78.34163,"ID":2.0,"LATITUDE":41.85789,"SITE_NUMBE":2.0,"SITE_NAME":"Pine Grove Road","id":"a6ewb5thqvwg"},"type":"Feature","geometry":{"type":"Point","coordinates":[-78.34163,41.85789]}},{"properties":{"MUNICIPALI":"Adams Township","LONGITUDE":-79.97233,"ID":2.0,"LATITUDE":40.72385,"SITE_NUMBE":13.0,"SITE_NAME":"List Hill Road","id":"a6ewb5way4e2"},"type":"Feature","geometry":{"type":"Point","coordinates":[-79.97233,40.72385]}},{"properties":{"MUNICIPALI":"Clark","LONGITUDE":-80.39208,"ID":2.0,"LATITUDE":41.28779,"SITE_NUMBE":121.0,"SITE_NAME":"Golden Run Wildlife Area","id":"a6ewb5kzdnq8"},"type":"Feature","geometry":{"type":"Point","coordinates":[-80.39208,41.28779]}},{"properties":{"MUNICIPALI":"Albany Township","LONGITUDE":-75.86612,"ID":2.0,"LATITUDE":40.61189,"SITE_NUMBE":2.0,"SITE_NAME":"Kirk Road","id":"a6ewb5k3oqv2"},"type":"Feature","geometry":{"type":"Point","coordinates":[-75.86612,40.61189]}},{"properties":{"MUNICIPALI":"Allegheny Township","LONGITUDE":-79.55522,"ID":2.0,"LATITUDE":41.6208,"SITE_NUMBE":2.0,"SITE_NAME":"Golby Road","id":"a6ewb5ju9ph9"},"type":"Feature","geometry":{"type":"Point","coordinates":[-79.55522,41.6208]}},{"properties":{"MUNICIPALI":"Addison Township","LONGITUDE":-79.33426,"ID":2.0,"LATITUDE":39.7578,"SITE_NUMBE":2.0,"SITE_NAME":"Campground Run Road","id":"a6ewb5ydpl7g"},"type":"Feature","geometry":{"type":"Point","coordinates":[-79.33426,39.7578]}},{"properties":{"MUNICIPALI":"Amwell Twp.","LONGITUDE":-80.17485,"ID":2.0,"LATITUDE":40.12705,"SITE_NUMBE":3.0,"SITE_NAME":"Wherry Road","id":"a6ewb5x6bqe4"},"type":"Feature","geometry":{"type":"Point","coordinates":[-80.17485,40.12705]}},{"properties":{"MUNICIPALI":"Coal Township","LONGITUDE":-76.52722,"ID":2.0,"LATITUDE":40.7953,"SITE_NUMBE":3.0,"SITE_NAME":"Fidler's Green","id":"a6ewb5uprp3q"},"type":"Feature","geometry":{"type":"Point","coordinates":[-76.52722,40.7953]}},{"properties":{"MUNICIPALI":"Avalon","LONGITUDE":-80.06906,"ID":2.0,"LATITUDE":40.50789,"SITE_NUMBE":70.0,"SITE_NAME":"Norwood &amp; City View","id":"a6ewb5o0yffv"},"type":"Feature","geometry":{"type":"Point","coordinates":[-80.06906,40.50789]}},{"properties":{"MUNICIPALI":"Bedford Township","LONGITUDE":-78.50857,"ID":2.0,"LATITUDE":39.99502,"SITE_NUMBE":2.0,"SITE_NAME":"Bedford Springs","id":"a6ewb5ujdsy5"},"type":"Feature","geometry":{"type":"Point","coordinates":[-78.50857,39.99502]}},{"properties":{"MUNICIPALI":"Barry Township","LONGITUDE":-76.40969,"ID":2.0,"LATITUDE":40.73171,"SITE_NUMBE":2.0,"SITE_NAME":"Hinkle Road","id":"a6ewb5r3n3y8"},"type":"Feature","geometry":{"type":"Point","coordinates":[-76.40969,40.73171]}},{"properties":{"MUNICIPALI":"Allegheny Township","LONGITUDE":-79.53151,"ID":3.0,"LATITUDE":41.58983,"SITE_NUMBE":4.0,"SITE_NAME":"Otto Road","id":"a6ewb5w8yqjn"},"type":"Feature","geometry":{"type":"Point","coordinates":[-79.53151,41.58983]}},{"properties":{"MUNICIPALI":"Barry Township","LONGITUDE":-76.40764,"ID":3.0,"LATITUDE":40.73835,"SITE_NUMBE":3.0,"SITE_NAME":"Taylorsville Road","id":"a6ewb5tqep5s"},"type":"Feature","geometry":{"type":"Point","coordinates":[-76.40764,40.73835]}},{"properties":{"MUNICIPALI":"Benezette Township","LONGITUDE":-78.41576,"ID":3.0,"LATITUDE":41.28898,"SITE_NUMBE":71.0,"SITE_NAME":"Rock Hill Road","id":"a6ewb5to1ich"},"type":"Feature","geometry":{"type":"Point","coordinates":[-78.41576,41.28898]}},{"properties":{"MUNICIPALI":"Armstrong Township","LONGITUDE":-79.28361,"ID":3.0,"LATITUDE":40.6575,"SITE_NUMBE":58.0,"SITE_NAME":"Creek Road","id":"a6ewb5p6d3jm"},"type":"Feature","geometry":{"type":"Point","coordinates":[-79.28361,40.6575]}},{"properties":{"MUNICIPALI":"Bell Acres","LONGITUDE":-80.18956,"ID":3.0,"LATITUDE":40.5723,"SITE_NUMBE":209.0,"SITE_NAME":"Sevin Road","id":"a6ewb5ssxf78"},"type":"Feature","geometry":{"type":"Point","coordinates":[-80.18956,40.5723]}},{"properties":{"MUNICIPALI":"Bradford Township","LONGITUDE":-78.44097,"ID":3.0,"LATITUDE":41.57251,"SITE_NUMBE":3.0,"SITE_NAME":"West Washington Street","id":"a6ewb5t24b0z"},"type":"Feature","geometry":{"type":"Point","coordinates":[-78.44097,41.57251]}},{"properties":{"MUNICIPALI":"Amwell Twp.","LONGITUDE":-80.15619,"ID":3.0,"LATITUDE":40.04447,"SITE_NUMBE":64.0,"SITE_NAME":"Penn Hill Road","id":"a6ewb5tetion"},"type":"Feature","geometry":{"type":"Point","coordinates":[-80.15619,40.04447]}},{"properties":{"MUNICIPALI":"Dickinson","LONGITUDE":-77.20071,"ID":3.0,"LATITUDE":40.06935,"SITE_NUMBE":10.0,"SITE_NAME":"Myerstown Road","id":"a6ewb5u0rw8k"},"type":"Feature","geometry":{"type":"Point","coordinates":[-77.20071,40.06935]}},{"properties":{"MUNICIPALI":"Beaver Township","LONGITUDE":-80.44091,"ID":3.0,"LATITUDE":41.86067,"SITE_NUMBE":3.0,"SITE_NAME":"State Gamelands 101","id":"a6ewb5mvieo3"},"type":"Feature","geometry":{"type":"Point","coordinates":[-80.44091,41.86067]}},{"properties":{"MUNICIPALI":"Beaver Township","LONGITUDE":-79.20348,"ID":3.0,"LATITUDE":41.09167,"SITE_NUMBE":65.0,"SITE_NAME":"Johns Hill Road","id":"a6ewb5mstdwe"},"type":"Feature","geometry":{"type":"Point","coordinates":[-79.20348,41.09167]}},{"properties":{"MUNICIPALI":"Dublin Township","LONGITUDE":-78.03425,"ID":3.0,"LATITUDE":40.0242,"SITE_NUMBE":3.0,"SITE_NAME":"Pleasant Ridge Road","id":"a6ewb5quqlmj"},"type":"Feature","geometry":{"type":"Point","coordinates":[-78.03425,40.0242]}},{"properties":{"MUNICIPALI":"Coal Township","LONGITUDE":-76.60362,"ID":3.0,"LATITUDE":40.76578,"SITE_NUMBE":14.0,"SITE_NAME":"High Bank","id":"a6ewb5uxmiwe"},"type":"Feature","geometry":{"type":"Point","coordinates":[-76.60362,40.76578]}},{"properties":{"MUNICIPALI":"Addison Township","LONGITUDE":-79.2372,"ID":3.0,"LATITUDE":39.78056,"SITE_NUMBE":3.0,"SITE_NAME":"High Point Road","id":"a6ewb5ye2m8e"},"type":"Feature","geometry":{"type":"Point","coordinates":[-79.2372,39.78056]}},{"properties":{"MUNICIPALI":"Coolspring","LONGITUDE":-80.24353,"ID":3.0,"LATITUDE":41.29993,"SITE_NUMBE":103.0,"SITE_NAME":"Russell Road","id":"a6ewb5w5ng3w"},"type":"Feature","geometry":{"type":"Point","coordinates":[-80.24353,41.29993]}},{"properties":{"MUNICIPALI":"Center Township","LONGITUDE":-80.3186,"ID":3.0,"LATITUDE":39.92125,"SITE_NUMBE":12.0,"SITE_NAME":"Hopewell Ridge","id":"a6ewb5uwjqdo"},"type":"Feature","geometry":{"type":"Point","coordinates":[-80.3186,39.92125]}},{"properties":{"MUNICIPALI":"Bullskin","LONGITUDE":-79.50479,"ID":3.0,"LATITUDE":40.13357,"SITE_NUMBE":30.0,"SITE_NAME":"Pletcher Road","id":"a6ewb5qtgqum"},"type":"Feature","geometry":{"type":"Point","coordinates":[-79.50479,40.13357]}},{"properties":{"MUNICIPALI":"Ashley Borough","LONGITUDE":-75.90322,"ID":3.0,"LATITUDE":41.22547,"SITE_NUMBE":98.0,"SITE_NAME":"West Liberty Street ECP Site 3","id":"a6ewb5jn1xag"},"type":"Feature","geometry":{"type":"Point","coordinates":[-75.90322,41.22547]}},{"properties":{"MUNICIPALI":"Mahoning Township","LONGITUDE":-80.51093,"ID":3.0,"LATITUDE":41.04416,"SITE_NUMBE":30.0,"SITE_NAME":"Erskine Quarry Road","id":"a6ewb5rwd47p"},"type":"Feature","geometry":{"type":"Point","coordinates":[-80.51093,41.04416]}},{"properties":{"MUNICIPALI":"Albany Township","LONGITUDE":-75.88893,"ID":3.0,"LATITUDE":40.58745,"SITE_NUMBE":3.0,"SITE_NAME":"Long Road","id":"a6ewb5lxssd6"},"type":"Feature","geometry":{"type":"Point","coordinates":[-75.88893,40.58745]}},{"properties":{"MUNICIPALI":"Briar Creek Township","LONGITUDE":-76.24787,"ID":3.0,"LATITUDE":41.11345,"SITE_NUMBE":38.0,"SITE_NAME":"Mountain Road","id":"a6ewb5xo1vpp"},"type":"Feature","geometry":{"type":"Point","coordinates":[-76.24787,41.11345]}},{"properties":{"MUNICIPALI":"Bedford Township","LONGITUDE":-78.50159,"ID":3.0,"LATITUDE":40.03166,"SITE_NUMBE":3.0,"SITE_NAME":"Briar Valley Road","id":"a6ewb5phrrxy"},"type":"Feature","geometry":{"type":"Point","coordinates":[-78.50159,40.03166]}},{"properties":{"MUNICIPALI":"Adams Township","LONGITUDE":-80.00478,"ID":3.0,"LATITUDE":40.73913,"SITE_NUMBE":18.0,"SITE_NAME":"Union Church Road","id":"a6ewb5yhdgnb"},"type":"Feature","geometry":{"type":"Point","coordinates":[-80.00478,40.73913]}},{"properties":{"MUNICIPALI":"City of Erie","LONGITUDE":-80.07301,"ID":3.0,"LATITUDE":42.0939,"SITE_NUMBE":69.0,"SITE_NAME":"West Grandview / Glenwood Drive","id":"a6ewb5m8go67"},"type":"Feature","geometry":{"type":"Point","coordinates":[-80.07301,42.0939]}},{"properties":{"MUNICIPALI":"Dublin Township","LONGITUDE":-77.95044,"ID":4.0,"LATITUDE":40.1069,"SITE_NUMBE":19.0,"SITE_NAME":"Sinoquipe Road","id":"a6ewb5orj16x"},"type":"Feature","geometry":{"type":"Point","coordinates":[-77.95044,40.1069]}},{"properties":{"MUNICIPALI":"Allegheny Township","LONGITUDE":-79.55373,"ID":4.0,"LATITUDE":41.58919,"SITE_NUMBE":5.0,"SITE_NAME":"Dunham Road","id":"a6ewb5voo3js"},"type":"Feature","geometry":{"type":"Point","coordinates":[-79.55373,41.58919]}},{"properties":{"MUNICIPALI":"Briar Creek Township","LONGITUDE":-76.30861,"ID":4.0,"LATITUDE":41.07152,"SITE_NUMBE":39.0,"SITE_NAME":"Yost Hollow Road","id":"a6ewb5xsvsgw"},"type":"Feature","geometry":{"type":"Point","coordinates":[-76.30861,41.07152]}},{"properties":{"MUNICIPALI":"Adams Township","LONGITUDE":-80.01,"ID":4.0,"LATITUDE":40.72688,"SITE_NUMBE":19.0,"SITE_NAME":"Dobson Road","id":"a6ewb5oj5q5g"},"type":"Feature","geometry":{"type":"Point","coordinates":[-80.01,40.72688]}},{"properties":{"MUNICIPALI":"Armstrong Township","LONGITUDE":-79.24806,"ID":4.0,"LATITUDE":40.60917,"SITE_NUMBE":59.0,"SITE_NAME":"Hickory Road","id":"a6ewb5qg9e5z"},"type":"Feature","geometry":{"type":"Point","coordinates":[-79.24806,40.60917]}},{"properties":{"MUNICIPALI":"Coal Township","LONGITUDE":-76.54153,"ID":4.0,"LATITUDE":40.7752,"SITE_NUMBE":19.0,"SITE_NAME":"Big Mountain Road","id":"a6ewb5x6tfnc"},"type":"Feature","geometry":{"type":"Point","coordinates":[-76.54153,40.7752]}},{"properties":{"MUNICIPALI":"Albany Township","LONGITUDE":-75.85014,"ID":4.0,"LATITUDE":40.64226,"SITE_NUMBE":4.0,"SITE_NAME":"Bailey Road","id":"a6ewb5k884g6"},"type":"Feature","geometry":{"type":"Point","coordinates":[-75.85014,40.64226]}},{"properties":{"MUNICIPALI":"Connellsville","LONGITUDE":-79.587,"ID":4.0,"LATITUDE":40.0285,"SITE_NUMBE":27.0,"SITE_NAME":"Jefferson Street","id":"a6ewb5l0j9v1"},"type":"Feature","geometry":{"type":"Point","coordinates":[-79.587,40.0285]}},{"properties":{"MUNICIPALI":"Allegheny Township","LONGITUDE":-78.76406,"ID":4.0,"LATITUDE":39.94042,"SITE_NUMBE":4.0,"SITE_NAME":"Barkley Road","id":"a6ewb5khemxa"},"type":"Feature","geometry":{"type":"Point","coordinates":[-78.76406,39.94042]}},{"properties":{"MUNICIPALI":"Ashley Borough","LONGITUDE":-75.90287,"ID":4.0,"LATITUDE":41.2252,"SITE_NUMBE":99.0,"SITE_NAME":"West Liberty Street ECP Site 4","id":"a6ewb5w2rj9a"},"type":"Feature","geometry":{"type":"Point","coordinates":[-75.90287,41.2252]}},{"properties":{"MUNICIPALI":"Coolspring","LONGITUDE":-80.22559,"ID":4.0,"LATITUDE":41.25911,"SITE_NUMBE":128.0,"SITE_NAME":"East Cornell Road","id":"a6ewb5nftxqu"},"type":"Feature","geometry":{"type":"Point","coordinates":[-80.22559,41.25911]}},{"properties":{"MUNICIPALI":"Center Township","LONGITUDE":-80.33196,"ID":4.0,"LATITUDE":39.90809,"SITE_NUMBE":13.0,"SITE_NAME":"Morris Run Road","id":"a6ewb5yv3467"},"type":"Feature","geometry":{"type":"Point","coordinates":[-80.33196,39.90809]}},{"properties":{"MUNICIPALI":"Bedford Township","LONGITUDE":-78.52781,"ID":4.0,"LATITUDE":40.10278,"SITE_NUMBE":4.0,"SITE_NAME":"Cessna Overpass","id":"a6ewb5lv45az"},"type":"Feature","geometry":{"type":"Point","coordinates":[-78.52781,40.10278]}},{"properties":{"MUNICIPALI":"City of Erie","LONGITUDE":-80.01737,"ID":4.0,"LATITUDE":42.14313,"SITE_NUMBE":70.0,"SITE_NAME":"Otto Road","id":"a6ewb5n3grpw"},"type":"Feature","geometry":{"type":"Point","coordinates":[-80.01737,42.14313]}},{"properties":{"MUNICIPALI":"Bellevue","LONGITUDE":-80.05334,"ID":4.0,"LATITUDE":40.50784,"SITE_NUMBE":68.0,"SITE_NAME":"Klemont Ave","id":"a6ewb5rpc9qh"},"type":"Feature","geometry":{"type":"Point","coordinates":[-80.05334,40.50784]}},{"properties":{"MUNICIPALI":"Dickinson","LONGITUDE":-77.21667,"ID":4.0,"LATITUDE":40.10886,"SITE_NUMBE":34.0,"SITE_NAME":"Ridge Road","id":"a6ewb5mpd3ay"},"type":"Feature","geometry":{"type":"Point","coordinates":[-77.21667,40.10886]}},{"properties":{"MUNICIPALI":"New Castle City","LONGITUDE":-80.33322,"ID":4.0,"LATITUDE":40.973,"SITE_NUMBE":3.0,"SITE_NAME":"Deshon Road","id":"a6ewb5y1rnbx"},"type":"Feature","geometry":{"type":"Point","coordinates":[-80.33322,40.973]}},{"properties":{"MUNICIPALI":"Amwell Twp.","LONGITUDE":-80.20647,"ID":4.0,"LATITUDE":40.02518,"SITE_NUMBE":83.0,"SITE_NAME":"Hackney Station Road (SR 2007)","id":"a6ewb5qaldsl"},"type":"Feature","geometry":{"type":"Point","coordinates":[-80.20647,40.02518]}},{"properties":{"MUNICIPALI":"Beaver Township","LONGITUDE":-79.20003,"ID":4.0,"LATITUDE":41.09129,"SITE_NUMBE":66.0,"SITE_NAME":"Unmarked Road off Johns Hill Road","id":"a6ewb5j7g5ia"},"type":"Feature","geometry":{"type":"Point","coordinates":[-79.20003,41.09129]}},{"properties":{"MUNICIPALI":"Fox Township","LONGITUDE":-78.6734,"ID":4.0,"LATITUDE":41.34712,"SITE_NUMBE":75.0,"SITE_NAME":"Squab Hollow Road","id":"a6ewb5l03m0l"},"type":"Feature","geometry":{"type":"Point","coordinates":[-78.6734,41.34712]}},{"properties":{"MUNICIPALI":"Blythe Township","LONGITUDE":-76.15273,"ID":4.0,"LATITUDE":40.73744,"SITE_NUMBE":4.0,"SITE_NAME":"Burma Road Site 2","id":"a6ewb5vd155f"},"type":"Feature","geometry":{"type":"Point","coordinates":[-76.15273,40.73744]}},{"properties":{"MUNICIPALI":"Beaver Township","LONGITUDE":-80.40332,"ID":4.0,"LATITUDE":41.83871,"SITE_NUMBE":4.0,"SITE_NAME":"Jerusalem Road Path","id":"a6ewb5sfhtle"},"type":"Feature","geometry":{"type":"Point","coordinates":[-80.40332,41.83871]}},{"properties":{"MUNICIPALI":"Bradford Township","LONGITUDE":-78.67158,"ID":4.0,"LATITUDE":41.93989,"SITE_NUMBE":4.0,"SITE_NAME":"West Corydon Street","id":"a6ewb5k4d0nf"},"type":"Feature","geometry":{"type":"Point","coordinates":[-78.67158,41.93989]}},{"properties":{"MUNICIPALI":"Bentleyville","LONGITUDE":-80.0058,"ID":5.0,"LATITUDE":40.12864,"SITE_NUMBE":66.0,"SITE_NAME":"Pittsburgh Road, Route 911","id":"a6ewb5ji4bmo"},"type":"Feature","geometry":{"type":"Point","coordinates":[-80.0058,40.12864]}},{"properties":{"MUNICIPALI":"Fox Township","LONGITUDE":-78.59235,"ID":5.0,"LATITUDE":41.26423,"SITE_NUMBE":76.0,"SITE_NAME":"Bennet Rd","id":"a6ewb5u7bjne"},"type":"Feature","geometry":{"type":"Point","coordinates":[-78.59235,41.26423]}},{"properties":{"MUNICIPALI":"Cumberland Township","LONGITUDE":-79.9371,"ID":5.0,"LATITUDE":39.89878,"SITE_NUMBE":53.0,"SITE_NAME":"Browns Ferry Road","id":"a6ewb5o5cv25"},"type":"Feature","geometry":{"type":"Point","coordinates":[-79.9371,39.89878]}},{"properties":{"MUNICIPALI":"Albany Township","LONGITUDE":-75.88018,"ID":5.0,"LATITUDE":40.61337,"SITE_NUMBE":5.0,"SITE_NAME":"Kunkel Road","id":"a6ewb5rwunjw"},"type":"Feature","geometry":{"type":"Point","coordinates":[-75.88018,40.61337]}},{"properties":{"MUNICIPALI":"Coal Township","LONGITUDE":-76.55324,"ID":5.0,"LATITUDE":40.77675,"SITE_NUMBE":20.0,"SITE_NAME":"Black Bank","id":"a6ewb5mg0g3y"},"type":"Feature","geometry":{"type":"Point","coordinates":[-76.55324,40.77675]}},{"properties":{"MUNICIPALI":"City of Erie","LONGITUDE":-80.06158,"ID":5.0,"LATITUDE":42.14256,"SITE_NUMBE":71.0,"SITE_NAME":"East 2nd / Dunn Blvd","id":"a6ewb5nl6hrv"},"type":"Feature","geometry":{"type":"Point","coordinates":[-80.06158,42.14256]}},{"properties":{"MUNICIPALI":"Connellsville","LONGITUDE":-79.54576,"ID":5.0,"LATITUDE":40.01226,"SITE_NUMBE":31.0,"SITE_NAME":"McCoy Run Road","id":"a6ewb5j93ga6"},"type":"Feature","geometry":{"type":"Point","coordinates":[-79.54576,40.01226]}},{"properties":{"MUNICIPALI":"Centralia Borough","LONGITUDE":-76.33902,"ID":5.0,"LATITUDE":40.79491,"SITE_NUMBE":10.0,"SITE_NAME":"Centralia Site 1","id":"a6ewb5oatk82"},"type":"Feature","geometry":{"type":"Point","coordinates":[-76.33902,40.79491]}},{"properties":{"MUNICIPALI":"Armstrong Township","LONGITUDE":-79.28111,"ID":5.0,"LATITUDE":40.64667,"SITE_NUMBE":60.0,"SITE_NAME":"Anthony Run","id":"a6ewb5xynuox"},"type":"Feature","geometry":{"type":"Point","coordinates":[-79.28111,40.64667]}},{"properties":{"MUNICIPALI":"Beaver Township","LONGITUDE":-80.50392,"ID":5.0,"LATITUDE":41.78805,"SITE_NUMBE":5.0,"SITE_NAME":"Artman Road","id":"a6ewb5lsk4qb"},"type":"Feature","geometry":{"type":"Point","coordinates":[-80.50392,41.78805]}},{"properties":{"MUNICIPALI":"Bradford Township","LONGITUDE":-78.40787,"ID":5.0,"LATITUDE":41.55499,"SITE_NUMBE":5.0,"SITE_NAME":"Niles Hollow","id":"a6ewb5jihaxg"},"type":"Feature","geometry":{"type":"Point","coordinates":[-78.40787,41.55499]}},{"properties":{"MUNICIPALI":"Taylor Township","LONGITUDE":-78.04972,"ID":5.0,"LATITUDE":40.06674,"SITE_NUMBE":4.0,"SITE_NAME":"Doran Road","id":"a6ewb5sfb1gg"},"type":"Feature","geometry":{"type":"Point","coordinates":[-78.04972,40.06674]}},{"properties":{"MUNICIPALI":"Allegheny Township","LONGITUDE":-79.7709,"ID":5.0,"LATITUDE":41.15168,"SITE_NUMBE":123.0,"SITE_NAME":"McKee Road Site 1","id":"a6ewb5s4yk4w"},"type":"Feature","geometry":{"type":"Point","coordinates":[-79.7709,41.15168]}},{"properties":{"MUNICIPALI":"Coolspring","LONGITUDE":-80.18365,"ID":5.0,"LATITUDE":41.23529,"SITE_NUMBE":129.0,"SITE_NAME":"Andrusky Road","id":"a6ewb5k7bl11"},"type":"Feature","geometry":{"type":"Point","coordinates":[-80.18365,41.23529]}},{"properties":{"MUNICIPALI":"Bethel Park","LONGITUDE":-80.03113,"ID":5.0,"LATITUDE":40.29306,"SITE_NUMBE":52.0,"SITE_NAME":"Library Road (88 South) / Clifton","id":"a6ewb5o2tptw"},"type":"Feature","geometry":{"type":"Point","coordinates":[-80.03113,40.29306]}},{"properties":{"MUNICIPALI":"New Castle City","LONGITUDE":-80.3296,"ID":5.0,"LATITUDE":41.01328,"SITE_NUMBE":4.0,"SITE_NAME":"Dilworth Ave, PaperMill Bridge","id":"a6ewb5k8nsah"},"type":"Feature","geometry":{"type":"Point","coordinates":[-80.3296,41.01328]}},{"properties":{"MUNICIPALI":"Ashley Borough","LONGITUDE":-75.90283,"ID":5.0,"LATITUDE":41.22468,"SITE_NUMBE":100.0,"SITE_NAME":"West Liberty Street ECP Site 5","id":"a6ewb5x48j1c"},"type":"Feature","geometry":{"type":"Point","coordinates":[-75.90283,41.22468]}},{"properties":{"MUNICIPALI":"East Pennsboro","LONGITUDE":-76.9314,"ID":5.0,"LATITUDE":40.26714,"SITE_NUMBE":24.0,"SITE_NAME":"Creekside Drive","id":"a6ewb5pa7ine"},"type":"Feature","geometry":{"type":"Point","coordinates":[-76.9314,40.26714]}},{"properties":{"MUNICIPALI":"Bedford Township","LONGITUDE":-78.48483,"ID":5.0,"LATITUDE":40.02906,"SITE_NUMBE":5.0,"SITE_NAME":"Chalybeate Road","id":"a6ewb5tjjgzm"},"type":"Feature","geometry":{"type":"Point","coordinates":[-78.48483,40.02906]}},{"properties":{"MUNICIPALI":"Beaver Township","LONGITUDE":-79.15209,"ID":5.0,"LATITUDE":41.07816,"SITE_NUMBE":74.0,"SITE_NAME":"Copenhaver","id":"a6ewb5tqmhki"},"type":"Feature","geometry":{"type":"Point","coordinates":[-79.15209,41.07816]}},{"properties":{"MUNICIPALI":"Blythe Township","LONGITUDE":-76.15492,"ID":5.0,"LATITUDE":40.73642,"SITE_NUMBE":5.0,"SITE_NAME":"Burma Road Site 1","id":"a6ewb5v3q5ch"},"type":"Feature","geometry":{"type":"Point","coordinates":[-76.15492,40.73642]}},{"properties":{"MUNICIPALI":"Allegheny Township","LONGITUDE":-78.77623,"ID":5.0,"LATITUDE":39.9599,"SITE_NUMBE":5.0,"SITE_NAME":"Benning Road","id":"a6ewb5ttsd5d"},"type":"Feature","geometry":{"type":"Point","coordinates":[-78.77623,39.9599]}},{"properties":{"MUNICIPALI":"Allegheny Township","LONGITUDE":-79.53658,"ID":5.0,"LATITUDE":41.57147,"SITE_NUMBE":6.0,"SITE_NAME":"Bailey Road","id":"a6ewb5m8bdlq"},"type":"Feature","geometry":{"type":"Point","coordinates":[-79.53658,41.57147]}},{"properties":{"MUNICIPALI":"Taylor Township","LONGITUDE":-78.068,"ID":6.0,"LATITUDE":40.06517,"SITE_NUMBE":5.0,"SITE_NAME":"Hollow Road","id":"a6ewb5xadsxu"},"type":"Feature","geometry":{"type":"Point","coordinates":[-78.068,40.06517]}},{"properties":{"MUNICIPALI":"City of Erie","LONGITUDE":-80.10838,"ID":6.0,"LATITUDE":42.12771,"SITE_NUMBE":72.0,"SITE_NAME":"Bayfront Highway","id":"a6ewb5k6toeu"},"type":"Feature","geometry":{"type":"Point","coordinates":[-80.10838,42.12771]}},{"properties":{"MUNICIPALI":"Blythe Township","LONGITUDE":-76.16681,"ID":6.0,"LATITUDE":40.73351,"SITE_NUMBE":6.0,"SITE_NAME":"Burma Road Site 3","id":"a6ewb5t5j9ry"},"type":"Feature","geometry":{"type":"Point","coordinates":[-76.16681,40.73351]}},{"properties":{"MUNICIPALI":"Beaver Township","LONGITUDE":-79.14616,"ID":6.0,"LATITUDE":41.06849,"SITE_NUMBE":75.0,"SITE_NAME":"Boddorf","id":"a6ewb5nikt15"},"type":"Feature","geometry":{"type":"Point","coordinates":[-79.14616,41.06849]}},{"properties":{"MUNICIPALI":"Hampden","LONGITUDE":-76.98822,"ID":6.0,"LATITUDE":40.29139,"SITE_NUMBE":23.0,"SITE_NAME":"Lambs Gap Road","id":"a6ewb5qeaslk"},"type":"Feature","geometry":{"type":"Point","coordinates":[-76.98822,40.29139]}},{"properties":{"MUNICIPALI":"Borough of Millvale","LONGITUDE":-79.98325,"ID":6.0,"LATITUDE":40.47759,"SITE_NUMBE":167.0,"SITE_NAME":"Alfred Street","id":"a6ewb5w3trqq"},"type":"Feature","geometry":{"type":"Point","coordinates":[-79.98325,40.47759]}},{"properties":{"MUNICIPALI":"Ashley Borough","LONGITUDE":-75.904,"ID":6.0,"LATITUDE":41.224,"SITE_NUMBE":101.0,"SITE_NAME":"West Liberty Street ECP Site 6","id":"a6ewb5uis0uw"},"type":"Feature","geometry":{"type":"Point","coordinates":[-75.904,41.224]}},{"properties":{"MUNICIPALI":"Allegheny Township","LONGITUDE":-79.77266,"ID":6.0,"LATITUDE":41.1573,"SITE_NUMBE":124.0,"SITE_NAME":"McKee Road Site 2","id":"a6ewb5r2toh1"},"type":"Feature","geometry":{"type":"Point","coordinates":[-79.77266,41.1573]}},{"properties":{"MUNICIPALI":"Allegheny Township","LONGITUDE":-79.54814,"ID":6.0,"LATITUDE":41.54127,"SITE_NUMBE":7.0,"SITE_NAME":"Pleasant Valley Drive","id":"a6ewb5w29njh"},"type":"Feature","geometry":{"type":"Point","coordinates":[-79.54814,41.54127]}},{"properties":{"MUNICIPALI":"Coolspring","LONGITUDE":-80.20941,"ID":6.0,"LATITUDE":41.27421,"SITE_NUMBE":130.0,"SITE_NAME":"McEwen Road","id":"a6ewb5o74izf"},"type":"Feature","geometry":{"type":"Point","coordinates":[-80.20941,41.27421]}},{"properties":{"MUNICIPALI":"Allegheny Township","LONGITUDE":-78.84175,"ID":6.0,"LATITUDE":39.88604,"SITE_NUMBE":6.0,"SITE_NAME":"Brush Creek Road","id":"a6ewb5nnes2r"},"type":"Feature","geometry":{"type":"Point","coordinates":[-78.84175,39.88604]}},{"properties":{"MUNICIPALI":"Dunbar","LONGITUDE":-79.68051,"ID":6.0,"LATITUDE":40.01925,"SITE_NUMBE":8.0,"SITE_NAME":"Nellie Road","id":"a6ewb5nf79fz"},"type":"Feature","geometry":{"type":"Point","coordinates":[-79.68051,40.01925]}},{"properties":{"MUNICIPALI":"Beaver Township","LONGITUDE":-80.51308,"ID":6.0,"LATITUDE":41.80789,"SITE_NUMBE":6.0,"SITE_NAME":"Lockwood Road","id":"a6ewb5j6hrpa"},"type":"Feature","geometry":{"type":"Point","coordinates":[-80.51308,41.80789]}},{"properties":{"MUNICIPALI":"Bradford Township","LONGITUDE":-78.66617,"ID":6.0,"LATITUDE":41.92407,"SITE_NUMBE":6.0,"SITE_NAME":"Songbird Road","id":"a6ewb5t36kz3"},"type":"Feature","geometry":{"type":"Point","coordinates":[-78.66617,41.92407]}},{"properties":{"MUNICIPALI":"Coal Township","LONGITUDE":-76.55641,"ID":6.0,"LATITUDE":40.77614,"SITE_NUMBE":21.0,"SITE_NAME":"Iron Pole Line Pit","id":"a6ewb5ryzrki"},"type":"Feature","geometry":{"type":"Point","coordinates":[-76.55641,40.77614]}},{"properties":{"MUNICIPALI":"Armstrong Township","LONGITUDE":-79.29893,"ID":6.0,"LATITUDE":40.5736,"SITE_NUMBE":104.0,"SITE_NAME":"Locust Road - Site 2","id":"a6ewb5y0owfv"},"type":"Feature","geometry":{"type":"Point","coordinates":[-79.29893,40.5736]}},{"properties":{"MUNICIPALI":"Blaine Twp.","LONGITUDE":-80.3834,"ID":6.0,"LATITUDE":40.175,"SITE_NUMBE":123.0,"SITE_NAME":"Reed Road","id":"a6ewb5jedrrq"},"type":"Feature","geometry":{"type":"Point","coordinates":[-80.3834,40.175]}},{"properties":{"MUNICIPALI":"Centralia Borough","LONGITUDE":-76.33739,"ID":6.0,"LATITUDE":40.80101,"SITE_NUMBE":11.0,"SITE_NAME":"Centralia Site 2","id":"a6ewb5yqt9zx"},"type":"Feature","geometry":{"type":"Point","coordinates":[-76.33739,40.80101]}},{"properties":{"MUNICIPALI":"Fox Township","LONGITUDE":-78.59412,"ID":6.0,"LATITUDE":41.33126,"SITE_NUMBE":77.0,"SITE_NAME":"Browns Road","id":"a6ewb5m01gzf"},"type":"Feature","geometry":{"type":"Point","coordinates":[-78.59412,41.33126]}},{"properties":{"MUNICIPALI":"Albany Township","LONGITUDE":-75.896,"ID":6.0,"LATITUDE":40.64682,"SITE_NUMBE":6.0,"SITE_NAME":"Trexler Road","id":"a6ewb5jtkfth"},"type":"Feature","geometry":{"type":"Point","coordinates":[-75.896,40.64682]}},{"properties":{"MUNICIPALI":"Dunkard Township","LONGITUDE":-79.98408,"ID":6.0,"LATITUDE":39.76059,"SITE_NUMBE":54.0,"SITE_NAME":"Walnut Hill","id":"a6ewb5kuimno"},"type":"Feature","geometry":{"type":"Point","coordinates":[-79.98408,39.76059]}},{"properties":{"MUNICIPALI":"New Castle City","LONGITUDE":-80.33133,"ID":6.0,"LATITUDE":41.01011,"SITE_NUMBE":5.0,"SITE_NAME":"Neshannock Avenue","id":"a6ewb5vnhh9g"},"type":"Feature","geometry":{"type":"Point","coordinates":[-80.33133,41.01011]}},{"properties":{"MUNICIPALI":"Bedford Township","LONGITUDE":-78.5259,"ID":6.0,"LATITUDE":40.05218,"SITE_NUMBE":6.0,"SITE_NAME":"Country Ridge Road","id":"a6ewb5uminpy"},"type":"Feature","geometry":{"type":"Point","coordinates":[-78.5259,40.05218]}},{"properties":{"MUNICIPALI":"New Castle City","LONGITUDE":-80.33353,"ID":7.0,"LATITUDE":41.00682,"SITE_NUMBE":6.0,"SITE_NAME":"Rural Road","id":"a6ewb5wfv4pp"},"type":"Feature","geometry":{"type":"Point","coordinates":[-80.33353,41.00682]}},{"properties":{"MUNICIPALI":"Fox Township","LONGITUDE":-78.59891,"ID":7.0,"LATITUDE":41.35278,"SITE_NUMBE":78.0,"SITE_NAME":"Chicken Hill Road","id":"a6ewb5qu1ooq"},"type":"Feature","geometry":{"type":"Point","coordinates":[-78.59891,41.35278]}},{"properties":{"MUNICIPALI":"Dunkard Township","LONGITUDE":-79.98741,"ID":7.0,"LATITUDE":39.77141,"SITE_NUMBE":60.0,"SITE_NAME":"Rocky Run","id":"a6ewb5w0hehz"},"type":"Feature","geometry":{"type":"Point","coordinates":[-79.98741,39.77141]}},{"properties":{"MUNICIPALI":"Buffalo Twp.","LONGITUDE":-80.34471,"ID":7.0,"LATITUDE":40.20188,"SITE_NUMBE":100.0,"SITE_NAME":"Intersection of Rural Valley Rd &amp;","id":"a6ewb5rvtrh0"},"type":"Feature","geometry":{"type":"Point","coordinates":[-80.34471,40.20188]}},{"properties":{"MUNICIPALI":"Dunbar","LONGITUDE":-79.70358,"ID":7.0,"LATITUDE":39.9613,"SITE_NUMBE":11.0,"SITE_NAME":"Barron Road Site 2","id":"a6ewb5rbgfk3"},"type":"Feature","geometry":{"type":"Point","coordinates":[-79.70358,39.9613]}},{"properties":{"MUNICIPALI":"Beaver Township","LONGITUDE":-80.51139,"ID":7.0,"LATITUDE":41.81819,"SITE_NUMBE":7.0,"SITE_NAME":"Shadeland Road","id":"a6ewb5yzl4zp"},"type":"Feature","geometry":{"type":"Point","coordinates":[-80.51139,41.81819]}},{"properties":{"MUNICIPALI":"Taylor Township","LONGITUDE":-78.06349,"ID":7.0,"LATITUDE":40.0608,"SITE_NUMBE":6.0,"SITE_NAME":"King Road","id":"a6ewb5q120jo"},"type":"Feature","geometry":{"type":"Point","coordinates":[-78.06349,40.0608]}},{"properties":{"MUNICIPALI":"Centralia Borough","LONGITUDE":-76.34305,"ID":7.0,"LATITUDE":40.80082,"SITE_NUMBE":12.0,"SITE_NAME":"Centralia Site 3","id":"a6ewb5qqhtfi"},"type":"Feature","geometry":{"type":"Point","coordinates":[-76.34305,40.80082]}},{"properties":{"MUNICIPALI":"Alsace Township","LONGITUDE":-75.86873,"ID":7.0,"LATITUDE":40.36096,"SITE_NUMBE":7.0,"SITE_NAME":"Antietam Road","id":"a6ewb5wip1n4"},"type":"Feature","geometry":{"type":"Point","coordinates":[-75.86873,40.36096]}},{"properties":{"MUNICIPALI":"Allegheny Township","LONGITUDE":-78.76191,"ID":7.0,"LATITUDE":40.01168,"SITE_NUMBE":7.0,"SITE_NAME":"Club Road","id":"a6ewb5xwh1pz"},"type":"Feature","geometry":{"type":"Point","coordinates":[-78.76191,40.01168]}},{"properties":{"MUNICIPALI":"Coal Township","LONGITUDE":-76.55152,"ID":7.0,"LATITUDE":40.77333,"SITE_NUMBE":22.0,"SITE_NAME":"Iron Pole Line","id":"a6ewb5yo0ul8"},"type":"Feature","geometry":{"type":"Point","coordinates":[-76.55152,40.77333]}},{"properties":{"MUNICIPALI":"Deer Creek","LONGITUDE":-80.17323,"ID":7.0,"LATITUDE":41.45967,"SITE_NUMBE":46.0,"SITE_NAME":"East Pine Road","id":"a6ewb5w7ldhm"},"type":"Feature","geometry":{"type":"Point","coordinates":[-80.17323,41.45967]}},{"properties":{"MUNICIPALI":"Borough of Millvale","LONGITUDE":-79.97893,"ID":7.0,"LATITUDE":40.48026,"SITE_NUMBE":168.0,"SITE_NAME":"Martle Avenue","id":"a6ewb5v6vfe8"},"type":"Feature","geometry":{"type":"Point","coordinates":[-79.97893,40.48026]}},{"properties":{"MUNICIPALI":"Allegheny Township","LONGITUDE":-79.54814,"ID":7.0,"LATITUDE":41.54127,"SITE_NUMBE":8.0,"SITE_NAME":"Pithole Road","id":"a6ewb5xy2w7v"},"type":"Feature","geometry":{"type":"Point","coordinates":[-79.54814,41.54127]}},{"properties":{"MUNICIPALI":"Hampden","LONGITUDE":-76.9668,"ID":7.0,"LATITUDE":40.25805,"SITE_NUMBE":26.0,"SITE_NAME":"Sears Run Road","id":"a6ewb5tey9e9"},"type":"Feature","geometry":{"type":"Point","coordinates":[-76.9668,40.25805]}},{"properties":{"MUNICIPALI":"Avoca Borough","LONGITUDE":-75.732,"ID":7.0,"LATITUDE":41.34,"SITE_NUMBE":74.0,"SITE_NAME":"Spruce Street","id":"a6ewb5t2dau6"},"type":"Feature","geometry":{"type":"Point","coordinates":[-75.732,41.34]}},{"properties":{"MUNICIPALI":"Armstrong Township","LONGITUDE":-79.28746,"ID":7.0,"LATITUDE":40.66005,"SITE_NUMBE":113.0,"SITE_NAME":"Bash Road - Site 1","id":"a6ewb5qckzc5"},"type":"Feature","geometry":{"type":"Point","coordinates":[-79.28746,40.66005]}},{"properties":{"MUNICIPALI":"City of Erie","LONGITUDE":-80.05087,"ID":7.0,"LATITUDE":42.12789,"SITE_NUMBE":73.0,"SITE_NAME":"E. 19th Street","id":"a6ewb5ul8z04"},"type":"Feature","geometry":{"type":"Point","coordinates":[-80.05087,42.12789]}},{"properties":{"MUNICIPALI":"Allegheny Township","LONGITUDE":-79.75608,"ID":7.0,"LATITUDE":41.1519,"SITE_NUMBE":125.0,"SITE_NAME":"Milford Road","id":"a6ewb5jlx7qr"},"type":"Feature","geometry":{"type":"Point","coordinates":[-79.75608,41.1519]}},{"properties":{"MUNICIPALI":"Blythe Township","LONGITUDE":-76.09318,"ID":7.0,"LATITUDE":40.71724,"SITE_NUMBE":7.0,"SITE_NAME":"Ferndale Road Site 1","id":"a6ewb5w6sjqe"},"type":"Feature","geometry":{"type":"Point","coordinates":[-76.09318,40.71724]}},{"properties":{"MUNICIPALI":"Beaver Township","LONGITUDE":-79.13899,"ID":7.0,"LATITUDE":41.08489,"SITE_NUMBE":84.0,"SITE_NAME":"Conifer","id":"a6ewb5k58u0c"},"type":"Feature","geometry":{"type":"Point","coordinates":[-79.13899,41.08489]}},{"properties":{"MUNICIPALI":"Bedford Township","LONGITUDE":-78.46931,"ID":7.0,"LATITUDE":40.03359,"SITE_NUMBE":7.0,"SITE_NAME":"Dibert Road","id":"a6ewb5jwwrmf"},"type":"Feature","geometry":{"type":"Point","coordinates":[-78.46931,40.03359]}},{"properties":{"MUNICIPALI":"Bradford Township","LONGITUDE":-78.66862,"ID":7.0,"LATITUDE":41.90061,"SITE_NUMBE":7.0,"SITE_NAME":"State Route 770 Site 1","id":"a6ewb5r75i1i"},"type":"Feature","geometry":{"type":"Point","coordinates":[-78.66862,41.90061]}},{"properties":{"MUNICIPALI":"Taylor Township","LONGITUDE":-78.0304,"ID":8.0,"LATITUDE":40.12107,"SITE_NUMBE":7.0,"SITE_NAME":"Millers Road","id":"a6ewb5m06iwj"},"type":"Feature","geometry":{"type":"Point","coordinates":[-78.0304,40.12107]}},{"properties":{"MUNICIPALI":"Armstrong Township","LONGITUDE":-79.29,"ID":8.0,"LATITUDE":40.64194,"SITE_NUMBE":114.0,"SITE_NAME":"Bash Road - Site 2","id":"a6ewb5ynptyj"},"type":"Feature","geometry":{"type":"Point","coordinates":[-79.29,40.64194]}},{"properties":{"MUNICIPALI":"Bedford Township","LONGITUDE":-78.48697,"ID":8.0,"LATITUDE":40.01664,"SITE_NUMBE":8.0,"SITE_NAME":"Donahoe Manor Road","id":"a6ewb5yeoyp5"},"type":"Feature","geometry":{"type":"Point","coordinates":[-78.48697,40.01664]}},{"properties":{"MUNICIPALI":"Allegheny Township","LONGITUDE":-78.79045,"ID":8.0,"LATITUDE":39.94191,"SITE_NUMBE":8.0,"SITE_NAME":"Commissary Road Site 1","id":"a6ewb5n47ho1"},"type":"Feature","geometry":{"type":"Point","coordinates":[-78.79045,39.94191]}},{"properties":{"MUNICIPALI":"Beaver Township","LONGITUDE":-80.49745,"ID":8.0,"LATITUDE":41.82387,"SITE_NUMBE":8.0,"SITE_NAME":"Reeds Corners Road","id":"a6ewb5wso40g"},"type":"Feature","geometry":{"type":"Point","coordinates":[-80.49745,41.82387]}},{"properties":{"MUNICIPALI":"Fox Township","LONGITUDE":-78.61378,"ID":8.0,"LATITUDE":41.33229,"SITE_NUMBE":79.0,"SITE_NAME":"South Kersey Road","id":"a6ewb5tom6cz"},"type":"Feature","geometry":{"type":"Point","coordinates":[-78.61378,41.33229]}},{"properties":{"MUNICIPALI":"Bradford Township","LONGITUDE":-78.6739,"ID":8.0,"LATITUDE":41.89794,"SITE_NUMBE":8.0,"SITE_NAME":"State Route 770 Site 2","id":"a6ewb5ra20om"},"type":"Feature","geometry":{"type":"Point","coordinates":[-78.6739,41.89794]}},{"properties":{"MUNICIPALI":"New Castle City","LONGITUDE":-80.37099,"ID":8.0,"LATITUDE":40.97441,"SITE_NUMBE":17.0,"SITE_NAME":"Route 168 South","id":"a6ewb5v2vp2v"},"type":"Feature","geometry":{"type":"Point","coordinates":[-80.37099,40.97441]}},{"properties":{"MUNICIPALI":"Dunbar","LONGITUDE":-79.70357,"ID":8.0,"LATITUDE":39.96511,"SITE_NUMBE":12.0,"SITE_NAME":"Barron Road Site 3","id":"a6ewb5iyn9sc"},"type":"Feature","geometry":{"type":"Point","coordinates":[-79.70357,39.96511]}},{"properties":{"MUNICIPALI":"Bell Township","LONGITUDE":-78.94251,"ID":8.0,"LATITUDE":40.91118,"SITE_NUMBE":42.0,"SITE_NAME":"Juneau Road","id":"a6ewb5o1awea"},"type":"Feature","geometry":{"type":"Point","coordinates":[-78.94251,40.91118]}},{"properties":{"MUNICIPALI":"Bear Creek Township","LONGITUDE":-75.742,"ID":8.0,"LATITUDE":41.163,"SITE_NUMBE":5.0,"SITE_NAME":"SR 2041 Site 1","id":"a6ewb5psb9cx"},"type":"Feature","geometry":{"type":"Point","coordinates":[-75.742,41.163]}},{"properties":{"MUNICIPALI":"City of Erie","LONGITUDE":-80.04311,"ID":8.0,"LATITUDE":42.13065,"SITE_NUMBE":74.0,"SITE_NAME":"Camphousen / E. 19th","id":"a6ewb5z0gsga"},"type":"Feature","geometry":{"type":"Point","coordinates":[-80.04311,42.13065]}},{"properties":{"MUNICIPALI":"Canal Township","LONGITUDE":-79.92515,"ID":8.0,"LATITUDE":41.46339,"SITE_NUMBE":9.0,"SITE_NAME":"Utica Road &amp; Route 322","id":"a6ewb5jgryck"},"type":"Feature","geometry":{"type":"Point","coordinates":[-79.92515,41.46339]}},{"properties":{"MUNICIPALI":"Coal Township","LONGITUDE":-76.54622,"ID":8.0,"LATITUDE":40.76732,"SITE_NUMBE":23.0,"SITE_NAME":"South Burnside","id":"a6ewb5tk8r8y"},"type":"Feature","geometry":{"type":"Point","coordinates":[-76.54622,40.76732]}},{"properties":{"MUNICIPALI":"Clairton","LONGITUDE":-79.87524,"ID":8.0,"LATITUDE":40.29184,"SITE_NUMBE":57.0,"SITE_NAME":"837 South","id":"a6ewb5jyspui"},"type":"Feature","geometry":{"type":"Point","coordinates":[-79.87524,40.29184]}},{"properties":{"MUNICIPALI":"California","LONGITUDE":-79.92368,"ID":8.0,"LATITUDE":40.0566,"SITE_NUMBE":17.0,"SITE_NAME":"Pike Run Road - Site 1 (SR 2036)","id":"a6ewb5k8rcmb"},"type":"Feature","geometry":{"type":"Point","coordinates":[-79.92368,40.0566]}},{"properties":{"MUNICIPALI":"Dunkard Township","LONGITUDE":-80.05329,"ID":8.0,"LATITUDE":39.76647,"SITE_NUMBE":62.0,"SITE_NAME":"Glades Run","id":"a6ewb5llfv3s"},"type":"Feature","geometry":{"type":"Point","coordinates":[-80.05329,39.76647]}},{"properties":{"MUNICIPALI":"Centralia Borough","LONGITUDE":-76.32271,"ID":8.0,"LATITUDE":40.80107,"SITE_NUMBE":13.0,"SITE_NAME":"Centralia Site 4","id":"a6ewb5jx1bak"},"type":"Feature","geometry":{"type":"Point","coordinates":[-76.32271,40.80107]}},{"properties":{"MUNICIPALI":"Bethel Township","LONGITUDE":-76.23995,"ID":8.0,"LATITUDE":40.49185,"SITE_NUMBE":8.0,"SITE_NAME":"Kline Road","id":"a6ewb5vfa7l4"},"type":"Feature","geometry":{"type":"Point","coordinates":[-76.23995,40.49185]}},{"properties":{"MUNICIPALI":"Deer Creek","LONGITUDE":-80.15847,"ID":8.0,"LATITUDE":41.47386,"SITE_NUMBE":47.0,"SITE_NAME":"East Black Run Road","id":"a6ewb5rjyeay"},"type":"Feature","geometry":{"type":"Point","coordinates":[-80.15847,41.47386]}},{"properties":{"MUNICIPALI":"Hampden","LONGITUDE":-76.97698,"ID":8.0,"LATITUDE":40.28863,"SITE_NUMBE":27.0,"SITE_NAME":"Route 994 near Orrs Bridge Road","id":"a6ewb5ws6z59"},"type":"Feature","geometry":{"type":"Point","coordinates":[-76.97698,40.28863]}},{"properties":{"MUNICIPALI":"Blythe Township","LONGITUDE":-76.09049,"ID":8.0,"LATITUDE":40.7171,"SITE_NUMBE":8.0,"SITE_NAME":"Ferndale Road Site 2","id":"a6ewb5ycy4ns"},"type":"Feature","geometry":{"type":"Point","coordinates":[-76.09049,40.7171]}},{"properties":{"MUNICIPALI":"Allegheny Township","LONGITUDE":-79.7682,"ID":8.0,"LATITUDE":41.1246,"SITE_NUMBE":126.0,"SITE_NAME":"Slater Road","id":"a6ewb5u9ehv6"},"type":"Feature","geometry":{"type":"Point","coordinates":[-79.7682,41.1246]}},{"properties":{"MUNICIPALI":"Centralia Borough","LONGITUDE":-76.34371,"ID":9.0,"LATITUDE":40.80669,"SITE_NUMBE":14.0,"SITE_NAME":"Centralia Site 5","id":"a6ewb5tyvssp"},"type":"Feature","geometry":{"type":"Point","coordinates":[-76.34371,40.80669]}},{"properties":{"MUNICIPALI":"Beaver Township","LONGITUDE":-80.42797,"ID":9.0,"LATITUDE":41.80662,"SITE_NUMBE":9.0,"SITE_NAME":"Palmer Road","id":"a6ewb5q4ot8e"},"type":"Feature","geometry":{"type":"Point","coordinates":[-80.42797,41.80662]}},{"properties":{"MUNICIPALI":"Branch Township","LONGITUDE":-76.30329,"ID":9.0,"LATITUDE":40.66383,"SITE_NUMBE":9.0,"SITE_NAME":"Gum Boot Road","id":"a6ewb5rvnqb9"},"type":"Feature","geometry":{"type":"Point","coordinates":[-76.30329,40.66383]}},{"properties":{"MUNICIPALI":"Coal Township","LONGITUDE":-76.58216,"ID":9.0,"LATITUDE":40.76961,"SITE_NUMBE":29.0,"SITE_NAME":"Bear Valley Pole Line","id":"a6ewb5saooko"},"type":"Feature","geometry":{"type":"Point","coordinates":[-76.58216,40.76961]}},{"properties":{"MUNICIPALI":"New Castle City","LONGITUDE":-80.35054,"ID":9.0,"LATITUDE":40.98438,"SITE_NUMBE":31.0,"SITE_NAME":"Gardner Avenue","id":"a6ewb5wlh09v"},"type":"Feature","geometry":{"type":"Point","coordinates":[-80.35054,40.98438]}},{"properties":{"MUNICIPALI":"City of Erie","LONGITUDE":-80.08004,"ID":9.0,"LATITUDE":42.14465,"SITE_NUMBE":76.0,"SITE_NAME":"Ore Dock Road","id":"a6ewb5ti92sd"},"type":"Feature","geometry":{"type":"Point","coordinates":[-80.08004,42.14465]}},{"properties":{"MUNICIPALI":"Allegheny Township","LONGITUDE":-79.83333,"ID":9.0,"LATITUDE":41.18805,"SITE_NUMBE":162.0,"SITE_NAME":"Division Road Ext. Site 1","id":"a6ewb5j06aid"},"type":"Feature","geometry":{"type":"Point","coordinates":[-79.83333,41.18805]}},{"properties":{"MUNICIPALI":"Dunbar","LONGITUDE":-79.61499,"ID":9.0,"LATITUDE":40.04702,"SITE_NUMBE":13.0,"SITE_NAME":"River Road","id":"a6ewb5tirpnb"},"type":"Feature","geometry":{"type":"Point","coordinates":[-79.61499,40.04702]}},{"properties":{"MUNICIPALI":"Taylor Township","LONGITUDE":-78.04535,"ID":9.0,"LATITUDE":40.12138,"SITE_NUMBE":8.0,"SITE_NAME":"North Maden Road","id":"a6ewb5xbbevy"},"type":"Feature","geometry":{"type":"Point","coordinates":[-78.04535,40.12138]}},{"properties":{"MUNICIPALI":"Allegheny Township","LONGITUDE":-78.79231,"ID":9.0,"LATITUDE":39.94278,"SITE_NUMBE":9.0,"SITE_NAME":"Commissary Road Site 2","id":"a6ewb5wg08l1"},"type":"Feature","geometry":{"type":"Point","coordinates":[-78.79231,39.94278]}},{"properties":{"MUNICIPALI":"Lower Allen","LONGITUDE":-76.94167,"ID":9.0,"LATITUDE":40.19686,"SITE_NUMBE":25.0,"SITE_NAME":"Rossmoyne Road","id":"a6ewb5nl5b76"},"type":"Feature","geometry":{"type":"Point","coordinates":[-76.94167,40.19686]}},{"properties":{"MUNICIPALI":"Clairton","LONGITUDE":-79.89965,"ID":9.0,"LATITUDE":40.28377,"SITE_NUMBE":105.0,"SITE_NAME":"Ridge / Desiderio (2028)","id":"a6ewb5obfst3"},"type":"Feature","geometry":{"type":"Point","coordinates":[-79.89965,40.28377]}},{"properties":{"MUNICIPALI":"Armstrong Township","LONGITUDE":-79.26833,"ID":9.0,"LATITUDE":40.63389,"SITE_NUMBE":115.0,"SITE_NAME":"Bash Road - Site 3","id":"a6ewb5xtjppy"},"type":"Feature","geometry":{"type":"Point","coordinates":[-79.26833,40.63389]}},{"properties":{"MUNICIPALI":"Canal Township","LONGITUDE":-79.9498,"ID":9.0,"LATITUDE":41.42883,"SITE_NUMBE":10.0,"SITE_NAME":"French Creek Road","id":"a6ewb5lnfvuu"},"type":"Feature","geometry":{"type":"Point","coordinates":[-79.9498,41.42883]}},{"properties":{"MUNICIPALI":"Deer Creek","LONGITUDE":-80.14162,"ID":9.0,"LATITUDE":41.42824,"SITE_NUMBE":48.0,"SITE_NAME":"Cranberry Road Site 1","id":"a6ewb5r738zj"},"type":"Feature","geometry":{"type":"Point","coordinates":[-80.14162,41.42824]}},{"properties":{"MUNICIPALI":"California","LONGITUDE":-79.9241,"ID":9.0,"LATITUDE":40.06209,"SITE_NUMBE":20.0,"SITE_NAME":"Pike Run Road - Site 3 (SR 2036)","id":"a6ewb5m63nwf"},"type":"Feature","geometry":{"type":"Point","coordinates":[-79.9241,40.06209]}},{"properties":{"MUNICIPALI":"Dunkard Township","LONGITUDE":-79.92486,"ID":9.0,"LATITUDE":39.73622,"SITE_NUMBE":55.0,"SITE_NAME":"Brick House","id":"a6ewb5o35lj2"},"type":"Feature","geometry":{"type":"Point","coordinates":[-79.92486,39.73622]}},{"properties":{"MUNICIPALI":"Bedford Township","LONGITUDE":-78.53817,"ID":9.0,"LATITUDE":40.0681,"SITE_NUMBE":10.0,"SITE_NAME":"Mountain Road","id":"a6ewb5u71vg6"},"type":"Feature","geometry":{"type":"Point","coordinates":[-78.53817,40.0681]}},{"properties":{"MUNICIPALI":"Bethel Township","LONGITUDE":-76.22404,"ID":9.0,"LATITUDE":40.4902,"SITE_NUMBE":9.0,"SITE_NAME":"Merkey Road","id":"a6ewb5u1bdq5"},"type":"Feature","geometry":{"type":"Point","coordinates":[-76.22404,40.4902]}},{"properties":{"MUNICIPALI":"Bear Creek Township","LONGITUDE":-75.739,"ID":9.0,"LATITUDE":41.162,"SITE_NUMBE":6.0,"SITE_NAME":"SR 2041 Site 2","id":"a6ewb5lgs4hp"},"type":"Feature","geometry":{"type":"Point","coordinates":[-75.739,41.162]}},{"properties":{"MUNICIPALI":"Bell Township","LONGITUDE":-78.92774,"ID":9.0,"LATITUDE":40.98651,"SITE_NUMBE":71.0,"SITE_NAME":"Weaver Road","id":"a6ewb5slyi7y"},"type":"Feature","geometry":{"type":"Point","coordinates":[-78.92774,40.98651]}},{"properties":{"MUNICIPALI":"Bradford Township","LONGITUDE":-78.68008,"ID":9.0,"LATITUDE":41.88891,"SITE_NUMBE":9.0,"SITE_NAME":"State Route 770 Site 3","id":"a6ewb5wbdd5q"},"type":"Feature","geometry":{"type":"Point","coordinates":[-78.68008,41.88891]}},{"properties":{"MUNICIPALI":"Fox Township","LONGITUDE":-78.61833,"ID":9.0,"LATITUDE":41.34021,"SITE_NUMBE":80.0,"SITE_NAME":"Coal Hollow Road","id":"a6ewb5yr9l9w"},"type":"Feature","geometry":{"type":"Point","coordinates":[-78.61833,41.34021]}},{"properties":{"MUNICIPALI":"Fox Township","LONGITUDE":-78.65714,"ID":10.0,"LATITUDE":41.35379,"SITE_NUMBE":81.0,"SITE_NAME":"Cunea Road","id":"a6ewb5nsiblg"},"type":"Feature","geometry":{"type":"Point","coordinates":[-78.65714,41.35379]}},{"properties":{"MUNICIPALI":"Lower Mifflin","LONGITUDE":-77.44851,"ID":10.0,"LATITUDE":40.24243,"SITE_NUMBE":4.0,"SITE_NAME":"Shed Road","id":"a6ewb5vsdxa4"},"type":"Feature","geometry":{"type":"Point","coordinates":[-77.44851,40.24243]}},{"properties":{"MUNICIPALI":"Bradford Township","LONGITUDE":-78.60036,"ID":10.0,"LATITUDE":41.88886,"SITE_NUMBE":10.0,"SITE_NAME":"State Route 770 Site 4","id":"a6ewb5l8vhzy"},"type":"Feature","geometry":{"type":"Point","coordinates":[-78.60036,41.88886]}},{"properties":{"MUNICIPALI":"Bear Creek Township","LONGITUDE":-75.721,"ID":10.0,"LATITUDE":41.135,"SITE_NUMBE":7.0,"SITE_NAME":"SR 2041 Site 3","id":"a6ewb5qbh4d2"},"type":"Feature","geometry":{"type":"Point","coordinates":[-75.721,41.135]}},{"properties":{"MUNICIPALI":"Bedford Township","LONGITUDE":-78.47332,"ID":10.0,"LATITUDE":40.0175,"SITE_NUMBE":11.0,"SITE_NAME":"Riverview Road","id":"a6ewb5k3ixen"},"type":"Feature","geometry":{"type":"Point","coordinates":[-78.47332,40.0175]}},{"properties":{"MUNICIPALI":"Clover Township","LONGITUDE":-79.1446,"ID":10.0,"LATITUDE":41.15708,"SITE_NUMBE":56.0,"SITE_NAME":"Seldom Seen Road","id":"a6ewb5mdn46n"},"type":"Feature","geometry":{"type":"Point","coordinates":[-79.1446,41.15708]}},{"properties":{"MUNICIPALI":"Bethel Township","LONGITUDE":-76.3776,"ID":10.0,"LATITUDE":40.47355,"SITE_NUMBE":10.0,"SITE_NAME":"Meckville Road","id":"a6ewb5udl03v"},"type":"Feature","geometry":{"type":"Point","coordinates":[-76.3776,40.47355]}},{"properties":{"MUNICIPALI":"Freeport Township","LONGITUDE":-80.40215,"ID":10.0,"LATITUDE":39.74326,"SITE_NUMBE":15.0,"SITE_NAME":"Slough Ridge","id":"a6ewb5ui5vzl"},"type":"Feature","geometry":{"type":"Point","coordinates":[-80.40215,39.74326]}},{"properties":{"MUNICIPALI":"Bloomfield Township","LONGITUDE":-79.86635,"ID":10.0,"LATITUDE":41.7897,"SITE_NUMBE":10.0,"SITE_NAME":"Range Road","id":"a6ewb5x3gxtv"},"type":"Feature","geometry":{"type":"Point","coordinates":[-79.86635,41.7897]}},{"properties":{"MUNICIPALI":"Taylor Township","LONGITUDE":-78.03099,"ID":10.0,"LATITUDE":40.07453,"SITE_NUMBE":9.0,"SITE_NAME":"Wooden Bridge Road","id":"a6ewb5l3vi63"},"type":"Feature","geometry":{"type":"Point","coordinates":[-78.03099,40.07453]}},{"properties":{"MUNICIPALI":"Concord","LONGITUDE":-79.69605,"ID":10.0,"LATITUDE":41.90676,"SITE_NUMBE":36.0,"SITE_NAME":"Lovell Road","id":"a6ewb5ubdxqt"},"type":"Feature","geometry":{"type":"Point","coordinates":[-79.69605,41.90676]}},{"properties":{"MUNICIPALI":"California Boro.","LONGITUDE":-79.91109,"ID":10.0,"LATITUDE":40.0273,"SITE_NUMBE":29.0,"SITE_NAME":"Malden Dr. - SR 2079","id":"a6ewb5qrgaxy"},"type":"Feature","geometry":{"type":"Point","coordinates":[-79.91109,40.0273]}},{"properties":{"MUNICIPALI":"Collier","LONGITUDE":-80.16103,"ID":10.0,"LATITUDE":40.41011,"SITE_NUMBE":25.0,"SITE_NAME":"Baldwin","id":"a6ewb5s8iyc3"},"type":"Feature","geometry":{"type":"Point","coordinates":[-80.16103,40.41011]}},{"properties":{"MUNICIPALI":"Deer Creek","LONGITUDE":-80.14154,"ID":10.0,"LATITUDE":41.43407,"SITE_NUMBE":49.0,"SITE_NAME":"Cranberry Road Site 2","id":"a6ewb5thjjn2"},"type":"Feature","geometry":{"type":"Point","coordinates":[-80.14154,41.43407]}},{"properties":{"MUNICIPALI":"Dunbar","LONGITUDE":-79.62135,"ID":10.0,"LATITUDE":40.00415,"SITE_NUMBE":14.0,"SITE_NAME":"Alpine Road","id":"a6ewb5vjadsa"},"type":"Feature","geometry":{"type":"Point","coordinates":[-79.62135,40.00415]}},{"properties":{"MUNICIPALI":"Coal Township","LONGITUDE":-76.50259,"ID":10.0,"LATITUDE":40.76282,"SITE_NUMBE":30.0,"SITE_NAME":"Woodcock","id":"a6ewb5w50gey"},"type":"Feature","geometry":{"type":"Point","coordinates":[-76.50259,40.76282]}},{"properties":{"MUNICIPALI":"Cleveland Township","LONGITUDE":-76.4974,"ID":10.0,"LATITUDE":40.83877,"SITE_NUMBE":15.0,"SITE_NAME":"Middle Road","id":"a6ewb5ozvrvb"},"type":"Feature","geometry":{"type":"Point","coordinates":[-76.4974,40.83877]}},{"properties":{"MUNICIPALI":"Armstrong Township","LONGITUDE":-79.29444,"ID":10.0,"LATITUDE":40.62556,"SITE_NUMBE":116.0,"SITE_NAME":"Millen Road - Site 2","id":"a6ewb5rjp269"},"type":"Feature","geometry":{"type":"Point","coordinates":[-79.29444,40.62556]}},{"properties":{"MUNICIPALI":"Allegheny Township","LONGITUDE":-78.83293,"ID":10.0,"LATITUDE":39.95476,"SITE_NUMBE":10.0,"SITE_NAME":"Deeter Gap Road Site 1","id":"a6ewb5uwmqk6"},"type":"Feature","geometry":{"type":"Point","coordinates":[-78.83293,39.95476]}},{"properties":{"MUNICIPALI":"Allegheny Township","LONGITUDE":-79.70425,"ID":10.0,"LATITUDE":41.11755,"SITE_NUMBE":163.0,"SITE_NAME":"Division Road Ext. Site 2","id":"a6ewb5qxf7if"},"type":"Feature","geometry":{"type":"Point","coordinates":[-79.70425,41.11755]}},{"properties":{"MUNICIPALI":"Butler Township","LONGITUDE":-76.29756,"ID":10.0,"LATITUDE":40.7527,"SITE_NUMBE":10.0,"SITE_NAME":"Lincoln Lane","id":"a6ewb5schl27"},"type":"Feature","geometry":{"type":"Point","coordinates":[-76.29756,40.7527]}},{"properties":{"MUNICIPALI":"Perry Township","LONGITUDE":-80.21046,"ID":10.0,"LATITUDE":40.87037,"SITE_NUMBE":7.0,"SITE_NAME":"488 near Mile Road","id":"a6ewb5t66bmf"},"type":"Feature","geometry":{"type":"Point","coordinates":[-80.21046,40.87037]}},{"properties":{"MUNICIPALI":"Canal Township","LONGITUDE":-79.93814,"ID":10.0,"LATITUDE":41.51352,"SITE_NUMBE":12.0,"SITE_NAME":"Judson Road","id":"a6ewb5jeocop"},"type":"Feature","geometry":{"type":"Point","coordinates":[-79.93814,41.51352]}},{"properties":{"MUNICIPALI":"Allegheny Township","LONGITUDE":-78.83424,"ID":11.0,"LATITUDE":39.95405,"SITE_NUMBE":11.0,"SITE_NAME":"Deeter Gap Road Site 2","id":"a6ewb5qt9izw"},"type":"Feature","geometry":{"type":"Point","coordinates":[-78.83424,39.95405]}},{"properties":{"MUNICIPALI":"Deer Creek","LONGITUDE":-80.13291,"ID":11.0,"LATITUDE":41.44018,"SITE_NUMBE":50.0,"SITE_NAME":"Smola Road Site 1","id":"a6ewb5uaor26"},"type":"Feature","geometry":{"type":"Point","coordinates":[-80.13291,41.44018]}},{"properties":{"MUNICIPALI":"Coal Township","LONGITUDE":-76.52354,"ID":11.0,"LATITUDE":40.76432,"SITE_NUMBE":31.0,"SITE_NAME":"Wisl","id":"a6ewb5kszoij"},"type":"Feature","geometry":{"type":"Point","coordinates":[-76.52354,40.76432]}},{"properties":{"MUNICIPALI":"Canton Twp.","LONGITUDE":-80.30056,"ID":11.0,"LATITUDE":40.16901,"SITE_NUMBE":97.0,"SITE_NAME":"Prigg Road","id":"a6ewb5ku6a74"},"type":"Feature","geometry":{"type":"Point","coordinates":[-80.30056,40.16901]}},{"properties":{"MUNICIPALI":"Freeport Township","LONGITUDE":-80.42344,"ID":11.0,"LATITUDE":39.76129,"SITE_NUMBE":16.0,"SITE_NAME":"Garrison Road","id":"a6ewb5lesmdt"},"type":"Feature","geometry":{"type":"Point","coordinates":[-80.42344,39.76129]}},{"properties":{"MUNICIPALI":"Canal Township","LONGITUDE":-79.95673,"ID":11.0,"LATITUDE":41.48401,"SITE_NUMBE":13.0,"SITE_NAME":"Long Road","id":"a6ewb5l82k9h"},"type":"Feature","geometry":{"type":"Point","coordinates":[-79.95673,41.48401]}},{"properties":{"MUNICIPALI":"Clover Township","LONGITUDE":-79.14525,"ID":11.0,"LATITUDE":41.1357,"SITE_NUMBE":60.0,"SITE_NAME":"Seneca Trail","id":"a6ewb5su3ds2"},"type":"Feature","geometry":{"type":"Point","coordinates":[-79.14525,41.1357]}},{"properties":{"MUNICIPALI":"Bedford Township","LONGITUDE":-78.49411,"ID":11.0,"LATITUDE":40.0221,"SITE_NUMBE":12.0,"SITE_NAME":"Roxbury Road","id":"a6ewb5yg4dak"},"type":"Feature","geometry":{"type":"Point","coordinates":[-78.49411,40.0221]}},{"properties":{"MUNICIPALI":"Lower Mifflin","LONGITUDE":-77.42619,"ID":11.0,"LATITUDE":40.19327,"SITE_NUMBE":5.0,"SITE_NAME":"Creekview Road","id":"a6ewb5wkvo25"},"type":"Feature","geometry":{"type":"Point","coordinates":[-77.42619,40.19327]}},{"properties":{"MUNICIPALI":"Highland Township","LONGITUDE":-78.84896,"ID":11.0,"LATITUDE":41.61916,"SITE_NUMBE":46.0,"SITE_NAME":"James City-Windy City","id":"a6ewb5sizqo0"},"type":"Feature","geometry":{"type":"Point","coordinates":[-78.84896,41.61916]}},{"properties":{"MUNICIPALI":"Collier","LONGITUDE":-80.13329,"ID":11.0,"LATITUDE":40.41646,"SITE_NUMBE":26.0,"SITE_NAME":"Scotts Run Road Site 1","id":"a6ewb5qu8bgo"},"type":"Feature","geometry":{"type":"Point","coordinates":[-80.13329,40.41646]}},{"properties":{"MUNICIPALI":"Cleveland Township","LONGITUDE":-76.4974,"ID":11.0,"LATITUDE":40.83879,"SITE_NUMBE":16.0,"SITE_NAME":"Lake Glory","id":"a6ewb5l26ipq"},"type":"Feature","geometry":{"type":"Point","coordinates":[-76.4974,40.83879]}},{"properties":{"MUNICIPALI":"Perry Township","LONGITUDE":-80.2326,"ID":11.0,"LATITUDE":40.86694,"SITE_NUMBE":8.0,"SITE_NAME":"Lovers College Road","id":"a6ewb5iyqzew"},"type":"Feature","geometry":{"type":"Point","coordinates":[-80.2326,40.86694]}},{"properties":{"MUNICIPALI":"Bradford Township","LONGITUDE":-78.6446,"ID":11.0,"LATITUDE":41.92496,"SITE_NUMBE":11.0,"SITE_NAME":"High Street Site 1","id":"a6ewb5obzbmz"},"type":"Feature","geometry":{"type":"Point","coordinates":[-78.6446,41.92496]}},{"properties":{"MUNICIPALI":"Bear Creek Township","LONGITUDE":-75.768,"ID":11.0,"LATITUDE":41.253,"SITE_NUMBE":9.0,"SITE_NAME":"Bald Mt. Road Site 1","id":"a6ewb5p2yz34"},"type":"Feature","geometry":{"type":"Point","coordinates":[-75.768,41.253]}},{"properties":{"MUNICIPALI":"Thompson Township","LONGITUDE":-78.12935,"ID":11.0,"LATITUDE":39.76912,"SITE_NUMBE":10.0,"SITE_NAME":"Delancey Road","id":"a6ewb5v4md39"},"type":"Feature","geometry":{"type":"Point","coordinates":[-78.12935,39.76912]}},{"properties":{"MUNICIPALI":"Brecknock Township","LONGITUDE":-76.0229,"ID":11.0,"LATITUDE":40.26156,"SITE_NUMBE":11.0,"SITE_NAME":"Blimline Road","id":"a6ewb5owlw2b"},"type":"Feature","geometry":{"type":"Point","coordinates":[-76.0229,40.26156]}},{"properties":{"MUNICIPALI":"Dunbar","LONGITUDE":-79.66292,"ID":11.0,"LATITUDE":40.04434,"SITE_NUMBE":15.0,"SITE_NAME":"T968","id":"a6ewb5yu77oi"},"type":"Feature","geometry":{"type":"Point","coordinates":[-79.66292,40.04434]}},{"properties":{"MUNICIPALI":"Allegheny Township","LONGITUDE":-79.71753,"ID":11.0,"LATITUDE":41.11738,"SITE_NUMBE":164.0,"SITE_NAME":"Sertik Road","id":"a6ewb5wtcp92"},"type":"Feature","geometry":{"type":"Point","coordinates":[-79.71753,41.11738]}},{"properties":{"MUNICIPALI":"Armstrong Township","LONGITUDE":-79.34556,"ID":11.0,"LATITUDE":40.61583,"SITE_NUMBE":117.0,"SITE_NAME":"Montgomery Road","id":"a6ewb5r157g9"},"type":"Feature","geometry":{"type":"Point","coordinates":[-79.34556,40.61583]}},{"properties":{"MUNICIPALI":"Butler Township","LONGITUDE":-76.40155,"ID":11.0,"LATITUDE":40.76571,"SITE_NUMBE":11.0,"SITE_NAME":"Steins Road","id":"a6ewb5m8yixd"},"type":"Feature","geometry":{"type":"Point","coordinates":[-76.40155,40.76571]}},{"properties":{"MUNICIPALI":"Conneaut","LONGITUDE":-80.44001,"ID":11.0,"LATITUDE":41.86067,"SITE_NUMBE":3.0,"SITE_NAME":"Wickwire Road","id":"a6ewb5j69f6z"},"type":"Feature","geometry":{"type":"Point","coordinates":[-80.44001,41.86067]}},{"properties":{"MUNICIPALI":"Bloomfield Township","LONGITUDE":-79.79436,"ID":11.0,"LATITUDE":41.82499,"SITE_NUMBE":11.0,"SITE_NAME":"Blakeslee Road Site 1","id":"a6ewb5sf828h"},"type":"Feature","geometry":{"type":"Point","coordinates":[-79.79436,41.82499]}},{"properties":{"MUNICIPALI":"Canal Township","LONGITUDE":-79.97768,"ID":12.0,"LATITUDE":41.49646,"SITE_NUMBE":14.0,"SITE_NAME":"Brown Hill Road","id":"a6ewb5w8d1xc"},"type":"Feature","geometry":{"type":"Point","coordinates":[-79.97768,41.49646]}},{"properties":{"MUNICIPALI":"Collier","LONGITUDE":-80.13019,"ID":12.0,"LATITUDE":40.40697,"SITE_NUMBE":27.0,"SITE_NAME":"Scotts Run Road Site 2","id":"a6ewb5xppfte"},"type":"Feature","geometry":{"type":"Point","coordinates":[-80.13019,40.40697]}},{"properties":{"MUNICIPALI":"Banks Township","LONGITUDE":-78.82333,"ID":12.0,"LATITUDE":40.81111,"SITE_NUMBE":1.0,"SITE_NAME":"Lutman Road","id":"a6ewb5w83f1c"},"type":"Feature","geometry":{"type":"Point","coordinates":[-78.82333,40.81111]}},{"properties":{"MUNICIPALI":"Canton Twp.","LONGITUDE":-80.29686,"ID":12.0,"LATITUDE":40.17609,"SITE_NUMBE":98.0,"SITE_NAME":"Miller Road","id":"a6ewb5xia3md"},"type":"Feature","geometry":{"type":"Point","coordinates":[-80.29686,40.17609]}},{"properties":{"MUNICIPALI":"Brady Township","LONGITUDE":-80.05146,"ID":12.0,"LATITUDE":40.99806,"SITE_NUMBE":140.0,"SITE_NAME":"Alexander Road","id":"a6ewb5n2joox"},"type":"Feature","geometry":{"type":"Point","coordinates":[-80.05146,40.99806]}},{"properties":{"MUNICIPALI":"Deer Creek","LONGITUDE":-80.12003,"ID":12.0,"LATITUDE":41.44059,"SITE_NUMBE":51.0,"SITE_NAME":"Smola Road Site 2","id":"a6ewb5tn7p70"},"type":"Feature","geometry":{"type":"Point","coordinates":[-80.12003,41.44059]}},{"properties":{"MUNICIPALI":"Lower Mifflin","LONGITUDE":-77.41216,"ID":12.0,"LATITUDE":40.219,"SITE_NUMBE":6.0,"SITE_NAME":"Rock Run Road","id":"a6ewb5yqn9l2"},"type":"Feature","geometry":{"type":"Point","coordinates":[-77.41216,40.219]}},{"properties":{"MUNICIPALI":"Dunbar","LONGITUDE":-79.67039,"ID":12.0,"LATITUDE":40.03382,"SITE_NUMBE":16.0,"SITE_NAME":"Linkey Road","id":"a6ewb5y91uhd"},"type":"Feature","geometry":{"type":"Point","coordinates":[-79.67039,40.03382]}},{"properties":{"MUNICIPALI":"Conyngham Township","LONGITUDE":-76.35277,"ID":12.0,"LATITUDE":40.789,"SITE_NUMBE":1.0,"SITE_NAME":"Route 61 Site 1","id":"a6ewb5iyypmq"},"type":"Feature","geometry":{"type":"Point","coordinates":[-76.35277,40.789]}},{"properties":{"MUNICIPALI":"Bloomfield Township","LONGITUDE":-79.79436,"ID":12.0,"LATITUDE":41.82499,"SITE_NUMBE":12.0,"SITE_NAME":"Blakeslee Road Site 2","id":"a6ewb5rvjaqq"},"type":"Feature","geometry":{"type":"Point","coordinates":[-79.79436,41.82499]}},{"properties":{"MUNICIPALI":"Conneaut","LONGITUDE":-80.4304,"ID":12.0,"LATITUDE":41.91967,"SITE_NUMBE":4.0,"SITE_NAME":"McKee Road Site 1","id":"a6ewb5xoi1gv"},"type":"Feature","geometry":{"type":"Point","coordinates":[-80.4304,41.91967]}},{"properties":{"MUNICIPALI":"Freeport Township","LONGITUDE":-80.40052,"ID":12.0,"LATITUDE":39.74845,"SITE_NUMBE":18.0,"SITE_NAME":"Berdine Road Site 1","id":"a6ewb5mni0t2"},"type":"Feature","geometry":{"type":"Point","coordinates":[-80.40052,39.74845]}},{"properties":{"MUNICIPALI":"Caernarvon Township","LONGITUDE":-75.92436,"ID":12.0,"LATITUDE":40.17728,"SITE_NUMBE":12.0,"SITE_NAME":"California Road","id":"a6ewb5q2u8rm"},"type":"Feature","geometry":{"type":"Point","coordinates":[-75.92436,40.17728]}},{"properties":{"MUNICIPALI":"Bradford Township","LONGITUDE":-78.38673,"ID":12.0,"LATITUDE":41.55249,"SITE_NUMBE":12.0,"SITE_NAME":"High Street Site 2","id":"a6ewb5sol9wi"},"type":"Feature","geometry":{"type":"Point","coordinates":[-78.38673,41.55249]}},{"properties":{"MUNICIPALI":"Clover Township","LONGITUDE":-79.15822,"ID":12.0,"LATITUDE":41.1545,"SITE_NUMBE":61.0,"SITE_NAME":"McGill Road","id":"a6ewb5y6qwm7"},"type":"Feature","geometry":{"type":"Point","coordinates":[-79.15822,41.1545]}},{"properties":{"MUNICIPALI":"Butler Township","LONGITUDE":-76.4016,"ID":12.0,"LATITUDE":40.75185,"SITE_NUMBE":12.0,"SITE_NAME":"Creek Road","id":"a6ewb5so6uve"},"type":"Feature","geometry":{"type":"Point","coordinates":[-76.4016,40.75185]}},{"properties":{"MUNICIPALI":"Coal Township","LONGITUDE":-76.51079,"ID":12.0,"LATITUDE":40.77224,"SITE_NUMBE":32.0,"SITE_NAME":"Old Rosini Strip Site","id":"a6ewb5obcpqh"},"type":"Feature","geometry":{"type":"Point","coordinates":[-76.51079,40.77224]}},{"properties":{"MUNICIPALI":"Bedford Township","LONGITUDE":-78.49411,"ID":12.0,"LATITUDE":40.0221,"SITE_NUMBE":13.0,"SITE_NAME":"SR 1001","id":"a6ewb5mi1emy"},"type":"Feature","geometry":{"type":"Point","coordinates":[-78.49411,40.0221]}},{"properties":{"MUNICIPALI":"Highland Township","LONGITUDE":-78.87591,"ID":12.0,"LATITUDE":41.61908,"SITE_NUMBE":47.0,"SITE_NAME":"Windy City","id":"a6ewb5wi7krs"},"type":"Feature","geometry":{"type":"Point","coordinates":[-78.87591,41.61908]}},{"properties":{"MUNICIPALI":"Thompson Township","LONGITUDE":-78.15655,"ID":12.0,"LATITUDE":39.80533,"SITE_NUMBE":11.0,"SITE_NAME":"Fisher Road","id":"a6ewb5u79ulp"},"type":"Feature","geometry":{"type":"Point","coordinates":[-78.15655,39.80533]}},{"properties":{"MUNICIPALI":"Allegheny Township","LONGITUDE":-78.83573,"ID":12.0,"LATITUDE":39.95363,"SITE_NUMBE":12.0,"SITE_NAME":"Deeter Gap Road Site 3","id":"a6ewb5rk3lez"},"type":"Feature","geometry":{"type":"Point","coordinates":[-78.83573,39.95363]}},{"properties":{"MUNICIPALI":"Perry Township","LONGITUDE":-80.17013,"ID":12.0,"LATITUDE":40.86638,"SITE_NUMBE":9.0,"SITE_NAME":"Reese Lane/Shingle Hollow Road","id":"a6ewb5lzyw0l"},"type":"Feature","geometry":{"type":"Point","coordinates":[-80.17013,40.86638]}},{"properties":{"MUNICIPALI":"Bear Creek Township","LONGITUDE":-75.737,"ID":12.0,"LATITUDE":41.253,"SITE_NUMBE":10.0,"SITE_NAME":"Bald Mt. Road Site 2","id":"a6ewb5nnzxtw"},"type":"Feature","geometry":{"type":"Point","coordinates":[-75.737,41.253]}},{"properties":{"MUNICIPALI":"Butler Township","LONGITUDE":-76.32058,"ID":13.0,"LATITUDE":40.74122,"SITE_NUMBE":13.0,"SITE_NAME":"Gordon Mountain Road","id":"a6ewb5t1bwh9"},"type":"Feature","geometry":{"type":"Point","coordinates":[-76.32058,40.74122]}},{"properties":{"MUNICIPALI":"Monroe","LONGITUDE":-77.04722,"ID":13.0,"LATITUDE":40.14985,"SITE_NUMBE":21.0,"SITE_NAME":"Locust Point Road","id":"a6ewb5x3emng"},"type":"Feature","geometry":{"type":"Point","coordinates":[-77.04722,40.14985]}},{"properties":{"MUNICIPALI":"Thompson Township","LONGITUDE":-78.08085,"ID":13.0,"LATITUDE":39.75887,"SITE_NUMBE":12.0,"SITE_NAME":"Licking Creek","id":"a6ewb5s0u1cl"},"type":"Feature","geometry":{"type":"Point","coordinates":[-78.08085,39.75887]}},{"properties":{"MUNICIPALI":"Allegheny Township","LONGITUDE":-78.83708,"ID":13.0,"LATITUDE":39.95335,"SITE_NUMBE":13.0,"SITE_NAME":"Deeter Gap Road Site 4","id":"a6ewb5rgj3v1"},"type":"Feature","geometry":{"type":"Point","coordinates":[-78.83708,39.95335]}},{"properties":{"MUNICIPALI":"Perry Township","LONGITUDE":-80.18536,"ID":13.0,"LATITUDE":40.90274,"SITE_NUMBE":10.0,"SITE_NAME":"488 West Turn off/ Studbaker Road","id":"a6ewb5xl2zfo"},"type":"Feature","geometry":{"type":"Point","coordinates":[-80.18536,40.90274]}},{"properties":{"MUNICIPALI":"Bear Creek Township","LONGITUDE":-75.737,"ID":13.0,"LATITUDE":41.253,"SITE_NUMBE":11.0,"SITE_NAME":"Bald Mt. Road Site 3","id":"a6ewb5sletc7"},"type":"Feature","geometry":{"type":"Point","coordinates":[-75.737,41.253]}},{"properties":{"MUNICIPALI":"Conyngham Township","LONGITUDE":-76.3575,"ID":13.0,"LATITUDE":40.78545,"SITE_NUMBE":2.0,"SITE_NAME":"Germantown Road Site 1","id":"a6ewb5swptnb"},"type":"Feature","geometry":{"type":"Point","coordinates":[-76.3575,40.78545]}},{"properties":{"MUNICIPALI":"Highland Township","LONGITUDE":-78.82812,"ID":13.0,"LATITUDE":41.62005,"SITE_NUMBE":48.0,"SITE_NAME":"Rt. 66 James City","id":"a6ewb5mce3at"},"type":"Feature","geometry":{"type":"Point","coordinates":[-78.82812,41.62005]}},{"properties":{"MUNICIPALI":"Collier","LONGITUDE":-80.12806,"ID":13.0,"LATITUDE":40.40405,"SITE_NUMBE":28.0,"SITE_NAME":"Scotts Run Road Site 3","id":"a6ewb5pfj2od"},"type":"Feature","geometry":{"type":"Point","coordinates":[-80.12806,40.40405]}},{"properties":{"MUNICIPALI":"Bloomfield Township","LONGITUDE":-78.44195,"ID":13.0,"LATITUDE":40.27157,"SITE_NUMBE":14.0,"SITE_NAME":"SR 1042","id":"a6ewb5lxe1v1"},"type":"Feature","geometry":{"type":"Point","coordinates":[-78.44195,40.27157]}},{"properties":{"MUNICIPALI":"Clover Township","LONGITUDE":-79.20135,"ID":13.0,"LATITUDE":41.11419,"SITE_NUMBE":64.0,"SITE_NAME":"Johns Hill Road","id":"a6ewb5r30khf"},"type":"Feature","geometry":{"type":"Point","coordinates":[-79.20135,41.11419]}},{"properties":{"MUNICIPALI":"Coal Township","LONGITUDE":-76.61488,"ID":13.0,"LATITUDE":40.76467,"SITE_NUMBE":35.0,"SITE_NAME":"Stump &amp; Pit","id":"a6ewb5o80d0y"},"type":"Feature","geometry":{"type":"Point","coordinates":[-76.61488,40.76467]}},{"properties":{"MUNICIPALI":"Cambridge Township","LONGITUDE":-80.06322,"ID":13.0,"LATITUDE":41.83704,"SITE_NUMBE":13.0,"SITE_NAME":"Krietz Road Bridge Pulloff","id":"a6ewb5nbfdqe"},"type":"Feature","geometry":{"type":"Point","coordinates":[-80.06322,41.83704]}},{"properties":{"MUNICIPALI":"Conneaut","LONGITUDE":-80.38044,"ID":13.0,"LATITUDE":41.90123,"SITE_NUMBE":5.0,"SITE_NAME":"Hilltop Road","id":"a6ewb5ouizql"},"type":"Feature","geometry":{"type":"Point","coordinates":[-80.38044,41.90123]}},{"properties":{"MUNICIPALI":"Dunbar","LONGITUDE":-79.62102,"ID":13.0,"LATITUDE":39.96222,"SITE_NUMBE":19.0,"SITE_NAME":"Ferguson Road Site 1","id":"a6ewb5lbs3xh"},"type":"Feature","geometry":{"type":"Point","coordinates":[-79.62102,39.96222]}},{"properties":{"MUNICIPALI":"Ceres Township","LONGITUDE":-78.21957,"ID":13.0,"LATITUDE":41.8865,"SITE_NUMBE":13.0,"SITE_NAME":"Annin Creek Road","id":"a6ewb5mu02zn"},"type":"Feature","geometry":{"type":"Point","coordinates":[-78.21957,41.8865]}},{"properties":{"MUNICIPALI":"Deer Creek","LONGITUDE":-80.11114,"ID":13.0,"LATITUDE":41.43558,"SITE_NUMBE":52.0,"SITE_NAME":"Deer Creek Road","id":"a6ewb5m7jm2g"},"type":"Feature","geometry":{"type":"Point","coordinates":[-80.11114,41.43558]}},{"properties":{"MUNICIPALI":"Caernarvon Township","LONGITUDE":-75.88998,"ID":13.0,"LATITUDE":40.18945,"SITE_NUMBE":13.0,"SITE_NAME":"Route 10","id":"a6ewb5noqar8"},"type":"Feature","geometry":{"type":"Point","coordinates":[-75.88998,40.18945]}},{"properties":{"MUNICIPALI":"Canton Twp.","LONGITUDE":-80.3296,"ID":13.0,"LATITUDE":40.20122,"SITE_NUMBE":99.0,"SITE_NAME":"Hewitt Road","id":"a6ewb5u5wcbf"},"type":"Feature","geometry":{"type":"Point","coordinates":[-80.3296,40.20122]}},{"properties":{"MUNICIPALI":"Freeport Township","LONGITUDE":-80.42972,"ID":13.0,"LATITUDE":39.74995,"SITE_NUMBE":17.0,"SITE_NAME":"Fox Hill","id":"a6ewb5xmwr5d"},"type":"Feature","geometry":{"type":"Point","coordinates":[-80.42972,39.74995]}},{"properties":{"MUNICIPALI":"Buffalo Township","LONGITUDE":-79.77531,"ID":13.0,"LATITUDE":40.6805,"SITE_NUMBE":58.0,"SITE_NAME":"Thompson Road","id":"a6ewb5l8g9v6"},"type":"Feature","geometry":{"type":"Point","coordinates":[-79.77531,40.6805]}},{"properties":{"MUNICIPALI":"Canal Township","LONGITUDE":-79.97405,"ID":13.0,"LATITUDE":41.51295,"SITE_NUMBE":15.0,"SITE_NAME":"Wheeling Hill Road","id":"a6ewb5qdtr1b"},"type":"Feature","geometry":{"type":"Point","coordinates":[-79.97405,41.51295]}},{"properties":{"MUNICIPALI":"Banks Township","LONGITUDE":-78.81731,"ID":13.0,"LATITUDE":40.85379,"SITE_NUMBE":6.0,"SITE_NAME":"Strip Mine Dump","id":"a6ewb5ymtenj"},"type":"Feature","geometry":{"type":"Point","coordinates":[-78.81731,40.85379]}},{"properties":{"MUNICIPALI":"Eldred Township","LONGITUDE":-79.16237,"ID":14.0,"LATITUDE":41.23422,"SITE_NUMBE":68.0,"SITE_NAME":"Blair Road","id":"a6ewb5nrnz3o"},"type":"Feature","geometry":{"type":"Point","coordinates":[-79.16237,41.23422]}},{"properties":{"MUNICIPALI":"Conneaut","LONGITUDE":-80.35606,"ID":14.0,"LATITUDE":41.91857,"SITE_NUMBE":18.0,"SITE_NAME":"Ore Docks Road Site #1","id":"a6ewb5ju4phr"},"type":"Feature","geometry":{"type":"Point","coordinates":[-80.35606,41.91857]}},{"properties":{"MUNICIPALI":"Buffalo Township","LONGITUDE":-79.73283,"ID":14.0,"LATITUDE":40.69788,"SITE_NUMBE":59.0,"SITE_NAME":"Parker Road","id":"a6ewb5olkn6v"},"type":"Feature","geometry":{"type":"Point","coordinates":[-79.73283,40.69788]}},{"properties":{"MUNICIPALI":"Delaware","LONGITUDE":-80.3317,"ID":14.0,"LATITUDE":41.35217,"SITE_NUMBE":90.0,"SITE_NAME":"Wasser Road","id":"a6ewb5pd2gmb"},"type":"Feature","geometry":{"type":"Point","coordinates":[-80.3317,41.35217]}},{"properties":{"MUNICIPALI":"Coal Township","LONGITUDE":-76.49055,"ID":14.0,"LATITUDE":40.77074,"SITE_NUMBE":37.0,"SITE_NAME":"Habitat For Wildlife","id":"a6ewb5r9nkb1"},"type":"Feature","geometry":{"type":"Point","coordinates":[-76.49055,40.77074]}},{"properties":{"MUNICIPALI":"Canal Township","LONGITUDE":-79.93091,"ID":14.0,"LATITUDE":41.4683,"SITE_NUMBE":16.0,"SITE_NAME":"Wood Hill Road","id":"a6ewb5ivizpj"},"type":"Feature","geometry":{"type":"Point","coordinates":[-79.93091,41.4683]}},{"properties":{"MUNICIPALI":"Highland Township","LONGITUDE":-78.83684,"ID":14.0,"LATITUDE":41.60162,"SITE_NUMBE":49.0,"SITE_NAME":"Old Lamont Road","id":"a6ewb5yvysa8"},"type":"Feature","geometry":{"type":"Point","coordinates":[-78.83684,41.60162]}},{"properties":{"MUNICIPALI":"Allegheny Township","LONGITUDE":-78.76682,"ID":14.0,"LATITUDE":39.94221,"SITE_NUMBE":14.0,"SITE_NAME":"Freedom Road","id":"a6ewb5ld9k1d"},"type":"Feature","geometry":{"type":"Point","coordinates":[-78.76682,39.94221]}},{"properties":{"MUNICIPALI":"Butler Township","LONGITUDE":-76.31834,"ID":14.0,"LATITUDE":40.78905,"SITE_NUMBE":15.0,"SITE_NAME":"Big Mine Run Road","id":"a6ewb5y5ux83"},"type":"Feature","geometry":{"type":"Point","coordinates":[-76.31834,40.78905]}},{"properties":{"MUNICIPALI":"Collier","LONGITUDE":-80.15339,"ID":14.0,"LATITUDE":40.38938,"SITE_NUMBE":40.0,"SITE_NAME":"County Road","id":"a6ewb5wqbfpb"},"type":"Feature","geometry":{"type":"Point","coordinates":[-80.15339,40.38938]}},{"properties":{"MUNICIPALI":"Dunbar","LONGITUDE":-79.62737,"ID":14.0,"LATITUDE":39.95633,"SITE_NUMBE":20.0,"SITE_NAME":"Ferguson Road Site 2","id":"a6ewb5vnoz10"},"type":"Feature","geometry":{"type":"Point","coordinates":[-79.62737,39.95633]}},{"properties":{"MUNICIPALI":"Conyngham Township","LONGITUDE":-76.36823,"ID":14.0,"LATITUDE":40.78806,"SITE_NUMBE":3.0,"SITE_NAME":"Germantown Road Site 2","id":"a6ewb5yedtlc"},"type":"Feature","geometry":{"type":"Point","coordinates":[-76.36823,40.78806]}},{"properties":{"MUNICIPALI":"North Newton","LONGITUDE":-77.44263,"ID":14.0,"LATITUDE":40.13255,"SITE_NUMBE":1.0,"SITE_NAME":"Red Shed Road","id":"a6ewb5jd9jm9"},"type":"Feature","geometry":{"type":"Point","coordinates":[-77.44263,40.13255]}},{"properties":{"MUNICIPALI":"Bear Creek Township","LONGITUDE":-75.709,"ID":14.0,"LATITUDE":41.243,"SITE_NUMBE":12.0,"SITE_NAME":"Bald Mt. Road Site 4","id":"a6ewb5xc0f76"},"type":"Feature","geometry":{"type":"Point","coordinates":[-75.709,41.243]}},{"properties":{"MUNICIPALI":"Broad Top Township","LONGITUDE":-78.31095,"ID":14.0,"LATITUDE":40.05434,"SITE_NUMBE":15.0,"SITE_NAME":"Bowser Farm Road Site 1","id":"a6ewb5n9zehm"},"type":"Feature","geometry":{"type":"Point","coordinates":[-78.31095,40.05434]}},{"properties":{"MUNICIPALI":"Perry Township","LONGITUDE":-80.19748,"ID":14.0,"LATITUDE":40.91036,"SITE_NUMBE":11.0,"SITE_NAME":"Nye Road","id":"a6ewb5ruz7pr"},"type":"Feature","geometry":{"type":"Point","coordinates":[-80.19748,40.91036]}},{"properties":{"MUNICIPALI":"Cambridge Township","LONGITUDE":-80.06844,"ID":14.0,"LATITUDE":41.8115,"SITE_NUMBE":14.0,"SITE_NAME":"McClellan Road Pulloff/Old State","id":"a6ewb5mbt4l6"},"type":"Feature","geometry":{"type":"Point","coordinates":[-80.06844,41.8115]}},{"properties":{"MUNICIPALI":"Canton Twp.","LONGITUDE":-80.313,"ID":14.0,"LATITUDE":40.2076,"SITE_NUMBE":101.0,"SITE_NAME":"Rex Road","id":"a6ewb5zbhc3f"},"type":"Feature","geometry":{"type":"Point","coordinates":[-80.313,40.2076]}},{"properties":{"MUNICIPALI":"Ceres Township","LONGITUDE":-78.28837,"ID":14.0,"LATITUDE":41.94451,"SITE_NUMBE":14.0,"SITE_NAME":"Newell Creek Road","id":"a6ewb5yj8auo"},"type":"Feature","geometry":{"type":"Point","coordinates":[-78.28837,41.94451]}},{"properties":{"MUNICIPALI":"Caernarvon Township","LONGITUDE":-75.86239,"ID":14.0,"LATITUDE":40.17111,"SITE_NUMBE":14.0,"SITE_NAME":"Joanna Road","id":"a6ewb5xv5800"},"type":"Feature","geometry":{"type":"Point","coordinates":[-75.86239,40.17111]}},{"properties":{"MUNICIPALI":"Banks Township","LONGITUDE":-78.83556,"ID":14.0,"LATITUDE":40.87139,"SITE_NUMBE":7.0,"SITE_NAME":"Sidney Road","id":"a6ewb5oebjwu"},"type":"Feature","geometry":{"type":"Point","coordinates":[-78.83556,40.87139]}},{"properties":{"MUNICIPALI":"Thompson Township","LONGITUDE":-78.14119,"ID":14.0,"LATITUDE":39.74893,"SITE_NUMBE":13.0,"SITE_NAME":"Warfordsburg","id":"a6ewb5p0gw6r"},"type":"Feature","geometry":{"type":"Point","coordinates":[-78.14119,39.74893]}},{"properties":{"MUNICIPALI":"Freeport Township","LONGITUDE":-80.40714,"ID":14.0,"LATITUDE":39.96001,"SITE_NUMBE":19.0,"SITE_NAME":"Berdine Road Site 2","id":"a6ewb5r6920z"},"type":"Feature","geometry":{"type":"Point","coordinates":[-80.40714,39.96001]}},{"properties":{"MUNICIPALI":"Broad Top Township","LONGITUDE":-78.30516,"ID":15.0,"LATITUDE":40.06806,"SITE_NUMBE":16.0,"SITE_NAME":"Bowser Farm Road Site 2","id":"a6ewb5xi7w2x"},"type":"Feature","geometry":{"type":"Point","coordinates":[-78.30516,40.06806]}},{"properties":{"MUNICIPALI":"Todd Township","LONGITUDE":-78.00782,"ID":15.0,"LATITUDE":39.95229,"SITE_NUMBE":66.0,"SITE_NAME":"Peach Orchard Road","id":"a6ewb5oa2tx7"},"type":"Feature","geometry":{"type":"Point","coordinates":[-78.00782,39.95229]}},{"properties":{"MUNICIPALI":"Canton Twp.","LONGITUDE":-80.314,"ID":15.0,"LATITUDE":40.2077,"SITE_NUMBE":102.0,"SITE_NAME":"Hewitt Ave.","id":"a6ewb5otv4l3"},"type":"Feature","geometry":{"type":"Point","coordinates":[-80.314,40.2077]}},{"properties":{"MUNICIPALI":"Plain Grove Township","LONGITUDE":-80.17937,"ID":15.0,"LATITUDE":41.09325,"SITE_NUMBE":12.0,"SITE_NAME":"Martin Road","id":"a6ewb5q9wue6"},"type":"Feature","geometry":{"type":"Point","coordinates":[-80.17937,41.09325]}},{"properties":{"MUNICIPALI":"Eldred Township","LONGITUDE":-79.1757,"ID":15.0,"LATITUDE":41.26595,"SITE_NUMBE":69.0,"SITE_NAME":"Jackson","id":"a6ewb5tml22m"},"type":"Feature","geometry":{"type":"Point","coordinates":[-79.1757,41.26595]}},{"properties":{"MUNICIPALI":"Cass Township","LONGITUDE":-76.28973,"ID":15.0,"LATITUDE":40.71087,"SITE_NUMBE":16.0,"SITE_NAME":"Valley Road","id":"a6ewb5nyyxx6"},"type":"Feature","geometry":{"type":"Point","coordinates":[-76.28973,40.71087]}},{"properties":{"MUNICIPALI":"Greene Township","LONGITUDE":-79.9873,"ID":15.0,"LATITUDE":39.80016,"SITE_NUMBE":37.0,"SITE_NAME":"Creek Road","id":"a6ewb5maz5lt"},"type":"Feature","geometry":{"type":"Point","coordinates":[-79.9873,39.80016]}},{"properties":{"MUNICIPALI":"Coal Township","LONGITUDE":-76.49049,"ID":15.0,"LATITUDE":40.77074,"SITE_NUMBE":38.0,"SITE_NAME":"Excelsior","id":"a6ewb5u5lhnb"},"type":"Feature","geometry":{"type":"Point","coordinates":[-76.49049,40.77074]}},{"properties":{"MUNICIPALI":"Buffalo Township","LONGITUDE":-79.73386,"ID":15.0,"LATITUDE":40.7011,"SITE_NUMBE":60.0,"SITE_NAME":"Cole Road","id":"a6ewb5m4dfcm"},"type":"Feature","geometry":{"type":"Point","coordinates":[-79.73386,40.7011]}},{"properties":{"MUNICIPALI":"Allegheny Township","LONGITUDE":-78.7611,"ID":15.0,"LATITUDE":39.944,"SITE_NUMBE":15.0,"SITE_NAME":"Glades Pike","id":"a6ewb5z9sebv"},"type":"Feature","geometry":{"type":"Point","coordinates":[-78.7611,39.944]}},{"properties":{"MUNICIPALI":"Highland Township","LONGITUDE":-78.84246,"ID":15.0,"LATITUDE":41.58924,"SITE_NUMBE":59.0,"SITE_NAME":"Tressel Road","id":"a6ewb5wddsg7"},"type":"Feature","geometry":{"type":"Point","coordinates":[-78.84246,41.58924]}},{"properties":{"MUNICIPALI":"Canal Township","LONGITUDE":-79.94918,"ID":15.0,"LATITUDE":41.48802,"SITE_NUMBE":17.0,"SITE_NAME":"Deckards Run Road Site 1","id":"a6ewb5mf8eoi"},"type":"Feature","geometry":{"type":"Point","coordinates":[-79.94918,41.48802]}},{"properties":{"MUNICIPALI":"Delaware","LONGITUDE":-80.32166,"ID":15.0,"LATITUDE":41.35128,"SITE_NUMBE":91.0,"SITE_NAME":"shearer","id":"a6ewb5lvp8yx"},"type":"Feature","geometry":{"type":"Point","coordinates":[-80.32166,41.35128]}},{"properties":{"MUNICIPALI":"Penn","LONGITUDE":-77.33181,"ID":15.0,"LATITUDE":40.11934,"SITE_NUMBE":37.0,"SITE_NAME":"Gettle Road","id":"a6ewb5vsyuut"},"type":"Feature","geometry":{"type":"Point","coordinates":[-77.33181,40.11934]}},{"properties":{"MUNICIPALI":"Dunbar","LONGITUDE":-79.59983,"ID":15.0,"LATITUDE":39.93671,"SITE_NUMBE":32.0,"SITE_NAME":"Gettamy Road","id":"a6ewb5xn6v4b"},"type":"Feature","geometry":{"type":"Point","coordinates":[-79.59983,39.93671]}},{"properties":{"MUNICIPALI":"Conneaut","LONGITUDE":-80.353,"ID":15.0,"LATITUDE":41.91377,"SITE_NUMBE":19.0,"SITE_NAME":"Ore Docks Road Site #2","id":"a6ewb5nxh8dj"},"type":"Feature","geometry":{"type":"Point","coordinates":[-80.353,41.91377]}},{"properties":{"MUNICIPALI":"Conyngham Township","LONGITUDE":-76.37192,"ID":15.0,"LATITUDE":40.78851,"SITE_NUMBE":4.0,"SITE_NAME":"Germantown Road Site 3","id":"a6ewb5x68wso"},"type":"Feature","geometry":{"type":"Point","coordinates":[-76.37192,40.78851]}},{"properties":{"MUNICIPALI":"Crescent","LONGITUDE":-80.22907,"ID":15.0,"LATITUDE":40.56187,"SITE_NUMBE":8.0,"SITE_NAME":"Intersection of Backtown Rd/Rarin","id":"a6ewb5kva9wc"},"type":"Feature","geometry":{"type":"Point","coordinates":[-80.22907,40.56187]}},{"properties":{"MUNICIPALI":"Bear Creek Township","LONGITUDE":-75.698,"ID":15.0,"LATITUDE":41.245,"SITE_NUMBE":13.0,"SITE_NAME":"Bald Mt. Road Site 5","id":"a6ewb5sik43h"},"type":"Feature","geometry":{"type":"Point","coordinates":[-75.698,41.245]}},{"properties":{"MUNICIPALI":"Cambridge Township","LONGITUDE":-80.07922,"ID":15.0,"LATITUDE":41.84128,"SITE_NUMBE":15.0,"SITE_NAME":"Jericho/Mt Pleasant Road","id":"a6ewb5k6tt91"},"type":"Feature","geometry":{"type":"Point","coordinates":[-80.07922,41.84128]}},{"properties":{"MUNICIPALI":"Ceres Township","LONGITUDE":-78.32586,"ID":15.0,"LATITUDE":41.94552,"SITE_NUMBE":15.0,"SITE_NAME":"Whitetail Road","id":"a6ewb5wngzdp"},"type":"Feature","geometry":{"type":"Point","coordinates":[-78.32586,41.94552]}},{"properties":{"MUNICIPALI":"Banks Township","LONGITUDE":-78.82722,"ID":15.0,"LATITUDE":40.83083,"SITE_NUMBE":8.0,"SITE_NAME":"Lockvale Road","id":"a6ewb5u0y3rv"},"type":"Feature","geometry":{"type":"Point","coordinates":[-78.82722,40.83083]}},{"properties":{"MUNICIPALI":"Caernarvon Township","LONGITUDE":-75.87525,"ID":15.0,"LATITUDE":40.16398,"SITE_NUMBE":15.0,"SITE_NAME":"Morgan Way","id":"a6ewb5x677og"},"type":"Feature","geometry":{"type":"Point","coordinates":[-75.87525,40.16398]}},{"properties":{"MUNICIPALI":"Coal Township","LONGITUDE":-76.49759,"ID":16.0,"LATITUDE":40.76239,"SITE_NUMBE":39.0,"SITE_NAME":"Excelsior Two","id":"a6ewb5nljywq"},"type":"Feature","geometry":{"type":"Point","coordinates":[-76.49759,40.76239]}},{"properties":{"MUNICIPALI":"Bear Creek Township","LONGITUDE":-75.688,"ID":16.0,"LATITUDE":41.221,"SITE_NUMBE":15.0,"SITE_NAME":"Suscon Road Site 2","id":"a6ewb5qrr16c"},"type":"Feature","geometry":{"type":"Point","coordinates":[-75.688,41.221]}},{"properties":{"MUNICIPALI":"Crescent","LONGITUDE":-80.22493,"ID":16.0,"LATITUDE":40.55955,"SITE_NUMBE":9.0,"SITE_NAME":"Intersection of Crescent Blvd / P","id":"a6ewb5xtv066"},"type":"Feature","geometry":{"type":"Point","coordinates":[-80.22493,40.55955]}},{"properties":{"MUNICIPALI":"Cecil Twp.","LONGITUDE":-80.19882,"ID":16.0,"LATITUDE":40.30739,"SITE_NUMBE":122.0,"SITE_NAME":"Burnside Road","id":"a6ewb5rzxab1"},"type":"Feature","geometry":{"type":"Point","coordinates":[-80.19882,40.30739]}},{"properties":{"MUNICIPALI":"Wells Township","LONGITUDE":-78.09999,"ID":16.0,"LATITUDE":40.14513,"SITE_NUMBE":15.0,"SITE_NAME":"New Grenada Hwy","id":"a6ewb5rcjtsi"},"type":"Feature","geometry":{"type":"Point","coordinates":[-78.09999,40.14513]}},{"properties":{"MUNICIPALI":"Pulaski Township","LONGITUDE":-80.49136,"ID":16.0,"LATITUDE":41.07583,"SITE_NUMBE":13.0,"SITE_NAME":"Skyhill Road","id":"a6ewb5r2hv7k"},"type":"Feature","geometry":{"type":"Point","coordinates":[-80.49136,41.07583]}},{"properties":{"MUNICIPALI":"Cass Township","LONGITUDE":-76.3131,"ID":16.0,"LATITUDE":40.68448,"SITE_NUMBE":17.0,"SITE_NAME":"Forest Lane","id":"a6ewb5o85ihq"},"type":"Feature","geometry":{"type":"Point","coordinates":[-76.3131,40.68448]}},{"properties":{"MUNICIPALI":"Buffalo Township","LONGITUDE":-79.73215,"ID":16.0,"LATITUDE":40.71083,"SITE_NUMBE":61.0,"SITE_NAME":"Younkins Drive","id":"a6ewb5xfanxg"},"type":"Feature","geometry":{"type":"Point","coordinates":[-79.73215,40.71083]}},{"properties":{"MUNICIPALI":"Gaskill Township","LONGITUDE":-78.87567,"ID":16.0,"LATITUDE":40.96357,"SITE_NUMBE":31.0,"SITE_NAME":"Hartzfeld Road","id":"a6ewb5rfohnx"},"type":"Feature","geometry":{"type":"Point","coordinates":[-78.87567,40.96357]}},{"properties":{"MUNICIPALI":"Centre Township","LONGITUDE":-76.02607,"ID":16.0,"LATITUDE":40.49017,"SITE_NUMBE":16.0,"SITE_NAME":"Drake Road","id":"a6ewb5rkbsuq"},"type":"Feature","geometry":{"type":"Point","coordinates":[-76.02607,40.49017]}},{"properties":{"MUNICIPALI":"Highland Township","LONGITUDE":-78.86348,"ID":16.0,"LATITUDE":41.55295,"SITE_NUMBE":60.0,"SITE_NAME":"Sackett Road","id":"a6ewb5uxvyof"},"type":"Feature","geometry":{"type":"Point","coordinates":[-78.86348,41.55295]}},{"properties":{"MUNICIPALI":"Canal Township","LONGITUDE":-79.93203,"ID":16.0,"LATITUDE":41.46698,"SITE_NUMBE":18.0,"SITE_NAME":"US Route 322","id":"a6ewb5rlilm0"},"type":"Feature","geometry":{"type":"Point","coordinates":[-79.93203,41.46698]}},{"properties":{"MUNICIPALI":"Delaware","LONGITUDE":-80.3105,"ID":16.0,"LATITUDE":41.29525,"SITE_NUMBE":92.0,"SITE_NAME":"Line Road","id":"a6ewb5rtinlh"},"type":"Feature","geometry":{"type":"Point","coordinates":[-80.3105,41.29525]}},{"properties":{"MUNICIPALI":"Greene Township","LONGITUDE":-79.99051,"ID":16.0,"LATITUDE":39.84884,"SITE_NUMBE":38.0,"SITE_NAME":"Brand Road","id":"a6ewb5qxplew"},"type":"Feature","geometry":{"type":"Point","coordinates":[-79.99051,39.84884]}},{"properties":{"MUNICIPALI":"Dunbar","LONGITUDE":-79.53275,"ID":16.0,"LATITUDE":39.92112,"SITE_NUMBE":33.0,"SITE_NAME":"Green Briar Road","id":"a6ewb5ujn6js"},"type":"Feature","geometry":{"type":"Point","coordinates":[-79.53275,39.92112]}},{"properties":{"MUNICIPALI":"Silver Spring","LONGITUDE":-77.02135,"ID":16.0,"LATITUDE":40.26854,"SITE_NUMBE":22.0,"SITE_NAME":"Bali Hai Road","id":"a6ewb5uvkszq"},"type":"Feature","geometry":{"type":"Point","coordinates":[-77.02135,40.26854]}},{"properties":{"MUNICIPALI":"Elk Creek","LONGITUDE":-80.32718,"ID":16.0,"LATITUDE":41.86067,"SITE_NUMBE":2.0,"SITE_NAME":"Whittaker Road","id":"a6ewb5q524r9"},"type":"Feature","geometry":{"type":"Point","coordinates":[-80.32718,41.86067]}},{"properties":{"MUNICIPALI":"Conyngham Township","LONGITUDE":-76.37286,"ID":16.0,"LATITUDE":40.78927,"SITE_NUMBE":5.0,"SITE_NAME":"Germantown Road Site 4","id":"a6ewb5yk34z9"},"type":"Feature","geometry":{"type":"Point","coordinates":[-76.37286,40.78927]}},{"properties":{"MUNICIPALI":"Cambridge Township","LONGITUDE":-80.0787,"ID":16.0,"LATITUDE":41.83456,"SITE_NUMBE":16.0,"SITE_NAME":"Mt. Pleasant Road","id":"a6ewb5p4p040"},"type":"Feature","geometry":{"type":"Point","coordinates":[-80.0787,41.83456]}},{"properties":{"MUNICIPALI":"Allegheny Township","LONGITUDE":-78.82677,"ID":16.0,"LATITUDE":39.98452,"SITE_NUMBE":16.0,"SITE_NAME":"Imgrund Mountain Road Site 1","id":"a6ewb5vmomc7"},"type":"Feature","geometry":{"type":"Point","coordinates":[-78.82677,39.98452]}},{"properties":{"MUNICIPALI":"Blacklick Township","LONGITUDE":-79.28595,"ID":16.0,"LATITUDE":40.5229,"SITE_NUMBE":99.0,"SITE_NAME":"Aultman Run Road - Site 5","id":"a6ewb5kg92f6"},"type":"Feature","geometry":{"type":"Point","coordinates":[-79.28595,40.5229]}},{"properties":{"MUNICIPALI":"Ceres Township","LONGITUDE":-78.32102,"ID":16.0,"LATITUDE":41.96246,"SITE_NUMBE":16.0,"SITE_NAME":"Hanson Hollow","id":"a6ewb5klo71a"},"type":"Feature","geometry":{"type":"Point","coordinates":[-78.32102,41.96246]}},{"properties":{"MUNICIPALI":"Broad Top Township","LONGITUDE":-78.31036,"ID":16.0,"LATITUDE":40.05371,"SITE_NUMBE":17.0,"SITE_NAME":"Bowser Farm Road Site 3","id":"a6ewb5k9ftlp"},"type":"Feature","geometry":{"type":"Point","coordinates":[-78.31036,40.05371]}},{"properties":{"MUNICIPALI":"Ceres Township","LONGITUDE":-78.2185,"ID":17.0,"LATITUDE":41.97112,"SITE_NUMBE":17.0,"SITE_NAME":"State Route 44","id":"a6ewb5re2ukc"},"type":"Feature","geometry":{"type":"Point","coordinates":[-78.2185,41.97112]}},{"properties":{"MUNICIPALI":"Scott Township","LONGITUDE":-80.24396,"ID":17.0,"LATITUDE":41.00261,"SITE_NUMBE":21.0,"SITE_NAME":"Houk Road","id":"a6ewb5y08a79"},"type":"Feature","geometry":{"type":"Point","coordinates":[-80.24396,41.00261]}},{"properties":{"MUNICIPALI":"East Brunswick Township","LONGITUDE":-76.00963,"ID":17.0,"LATITUDE":40.69473,"SITE_NUMBE":18.0,"SITE_NAME":"East Schmaltzdahl Road","id":"a6ewb5u62qsn"},"type":"Feature","geometry":{"type":"Point","coordinates":[-76.00963,40.69473]}},{"properties":{"MUNICIPALI":"Buffalo Township","LONGITUDE":-79.75785,"ID":17.0,"LATITUDE":40.72453,"SITE_NUMBE":62.0,"SITE_NAME":"Coal Hollow Road Site 1","id":"a6ewb5k254c0"},"type":"Feature","geometry":{"type":"Point","coordinates":[-79.75785,40.72453]}},{"properties":{"MUNICIPALI":"Conneaut Township","LONGITUDE":-80.3894,"ID":17.0,"LATITUDE":41.7565,"SITE_NUMBE":17.0,"SITE_NAME":"Vendal Road","id":"a6ewb5rn9lqf"},"type":"Feature","geometry":{"type":"Point","coordinates":[-80.3894,41.7565]}},{"properties":{"MUNICIPALI":"Elk Creek","LONGITUDE":-80.29025,"ID":17.0,"LATITUDE":41.86073,"SITE_NUMBE":6.0,"SITE_NAME":"Artello Road","id":"a6ewb5obco5v"},"type":"Feature","geometry":{"type":"Point","coordinates":[-80.29025,41.86073]}},{"properties":{"MUNICIPALI":"Horton Township","LONGITUDE":-78.68581,"ID":17.0,"LATITUDE":41.34422,"SITE_NUMBE":82.0,"SITE_NAME":"California Road","id":"a6ewb5mph4u3"},"type":"Feature","geometry":{"type":"Point","coordinates":[-78.68581,41.34422]}},{"properties":{"MUNICIPALI":"Broad Top Township","LONGITUDE":-78.31136,"ID":17.0,"LATITUDE":40.0511,"SITE_NUMBE":18.0,"SITE_NAME":"Bowser Farm Road Site 4","id":"a6ewb5s3jmz9"},"type":"Feature","geometry":{"type":"Point","coordinates":[-78.31136,40.0511]}},{"properties":{"MUNICIPALI":"Crescent","LONGITUDE":-80.23116,"ID":17.0,"LATITUDE":40.5522,"SITE_NUMBE":10.0,"SITE_NAME":"Spring Run Road","id":"a6ewb5ndos5k"},"type":"Feature","geometry":{"type":"Point","coordinates":[-80.23116,40.5522]}},{"properties":{"MUNICIPALI":"Dunbar","LONGITUDE":-79.53758,"ID":17.0,"LATITUDE":39.93139,"SITE_NUMBE":34.0,"SITE_NAME":"Kingan Hill Road","id":"a6ewb5ll2a7c"},"type":"Feature","geometry":{"type":"Point","coordinates":[-79.53758,39.93139]}},{"properties":{"MUNICIPALI":"Gaskill Township","LONGITUDE":-78.86047,"ID":17.0,"LATITUDE":40.95004,"SITE_NUMBE":32.0,"SITE_NAME":"Bowers","id":"a6ewb5pfqq63"},"type":"Feature","geometry":{"type":"Point","coordinates":[-78.86047,40.95004]}},{"properties":{"MUNICIPALI":"Wells Township","LONGITUDE":-78.17519,"ID":17.0,"LATITUDE":40.03826,"SITE_NUMBE":16.0,"SITE_NAME":"Oregon Trail","id":"a6ewb5txgylx"},"type":"Feature","geometry":{"type":"Point","coordinates":[-78.17519,40.03826]}},{"properties":{"MUNICIPALI":"South Middleton","LONGITUDE":-77.13306,"ID":17.0,"LATITUDE":40.10863,"SITE_NUMBE":11.0,"SITE_NAME":"Whiskey Spring Road","id":"a6ewb5xjlucp"},"type":"Feature","geometry":{"type":"Point","coordinates":[-77.13306,40.10863]}},{"properties":{"MUNICIPALI":"Coal Township","LONGITUDE":-76.43904,"ID":17.0,"LATITUDE":40.76867,"SITE_NUMBE":40.0,"SITE_NAME":"Excilsior Three","id":"a6ewb5ma4tlv"},"type":"Feature","geometry":{"type":"Point","coordinates":[-76.43904,40.76867]}},{"properties":{"MUNICIPALI":"Allegheny Township","LONGITUDE":-78.82222,"ID":17.0,"LATITUDE":39.9868,"SITE_NUMBE":17.0,"SITE_NAME":"Imgrund Mountain Road Site 2","id":"a6ewb5xevy4l"},"type":"Feature","geometry":{"type":"Point","coordinates":[-78.82222,39.9868]}},{"properties":{"MUNICIPALI":"Conyngham Township","LONGITUDE":-76.38071,"ID":17.0,"LATITUDE":40.79197,"SITE_NUMBE":6.0,"SITE_NAME":"Germantown Road Site 5","id":"a6ewb5o21na6"},"type":"Feature","geometry":{"type":"Point","coordinates":[-76.38071,40.79197]}},{"properties":{"MUNICIPALI":"Centre Township","LONGITUDE":-76.02595,"ID":17.0,"LATITUDE":40.44678,"SITE_NUMBE":17.0,"SITE_NAME":"Quarrey Road","id":"a6ewb5t3v09p"},"type":"Feature","geometry":{"type":"Point","coordinates":[-76.02595,40.44678]}},{"properties":{"MUNICIPALI":"Centerville","LONGITUDE":-79.93742,"ID":17.0,"LATITUDE":40.01786,"SITE_NUMBE":30.0,"SITE_NAME":"SR 2089 - Site 2","id":"a6ewb5xilo87"},"type":"Feature","geometry":{"type":"Point","coordinates":[-79.93742,40.01786]}},{"properties":{"MUNICIPALI":"Blacklick Township","LONGITUDE":-79.22361,"ID":17.0,"LATITUDE":40.47056,"SITE_NUMBE":63.0,"SITE_NAME":"Campbells Mills Road","id":"a6ewb5ts926d"},"type":"Feature","geometry":{"type":"Point","coordinates":[-79.22361,40.47056]}},{"properties":{"MUNICIPALI":"Canal Township","LONGITUDE":-79.99318,"ID":17.0,"LATITUDE":41.48557,"SITE_NUMBE":19.0,"SITE_NAME":"Fish Road 308","id":"a6ewb5lnnjft"},"type":"Feature","geometry":{"type":"Point","coordinates":[-79.99318,41.48557]}},{"properties":{"MUNICIPALI":"Delaware","LONGITUDE":-80.3406,"ID":17.0,"LATITUDE":41.31916,"SITE_NUMBE":93.0,"SITE_NAME":"Creek Road","id":"a6ewb5wnvunn"},"type":"Feature","geometry":{"type":"Point","coordinates":[-80.3406,41.31916]}},{"properties":{"MUNICIPALI":"Bear Creek Township","LONGITUDE":-75.689,"ID":17.0,"LATITUDE":41.231,"SITE_NUMBE":16.0,"SITE_NAME":"Suscon Road Site 1","id":"a6ewb5mo75bd"},"type":"Feature","geometry":{"type":"Point","coordinates":[-75.689,41.231]}},{"properties":{"MUNICIPALI":"Greene Township","LONGITUDE":-79.98979,"ID":17.0,"LATITUDE":39.81275,"SITE_NUMBE":41.0,"SITE_NAME":"Turkey Knob Road","id":"a6ewb5st76ni"},"type":"Feature","geometry":{"type":"Point","coordinates":[-79.98979,39.81275]}},{"properties":{"MUNICIPALI":"Bear Creek Township","LONGITUDE":-75.698,"ID":18.0,"LATITUDE":41.205,"SITE_NUMBE":17.0,"SITE_NAME":"Meadows Run Road","id":"a6ewb5ti3rsg"},"type":"Feature","geometry":{"type":"Point","coordinates":[-75.698,41.205]}},{"properties":{"MUNICIPALI":"Canal Township","LONGITUDE":-79.94865,"ID":18.0,"LATITUDE":41.47885,"SITE_NUMBE":20.0,"SITE_NAME":"Deckards Run Road Site 2","id":"a6ewb5ks7tod"},"type":"Feature","geometry":{"type":"Point","coordinates":[-79.94865,41.47885]}},{"properties":{"MUNICIPALI":"Delaware","LONGITUDE":-80.32781,"ID":18.0,"LATITUDE":41.34603,"SITE_NUMBE":95.0,"SITE_NAME":"Quarry Road","id":"a6ewb5l02jb5"},"type":"Feature","geometry":{"type":"Point","coordinates":[-80.32781,41.34603]}},{"properties":{"MUNICIPALI":"Allegheny Township","LONGITUDE":-78.82068,"ID":18.0,"LATITUDE":39.98754,"SITE_NUMBE":18.0,"SITE_NAME":"Imgrund Mountain Road Site 3","id":"a6ewb5oefpxh"},"type":"Feature","geometry":{"type":"Point","coordinates":[-78.82068,39.98754]}},{"properties":{"MUNICIPALI":"Jefferson Township","LONGITUDE":-80.02004,"ID":18.0,"LATITUDE":39.97082,"SITE_NUMBE":40.0,"SITE_NAME":"Hill Top Road","id":"a6ewb5shjwua"},"type":"Feature","geometry":{"type":"Point","coordinates":[-80.02004,39.97082]}},{"properties":{"MUNICIPALI":"Centerville","LONGITUDE":-79.92521,"ID":18.0,"LATITUDE":40.01875,"SITE_NUMBE":31.0,"SITE_NAME":"SR 2089 - Site 1","id":"a6ewb5ybtqke"},"type":"Feature","geometry":{"type":"Point","coordinates":[-79.92521,40.01875]}},{"properties":{"MUNICIPALI":"Dunbar","LONGITUDE":-79.58576,"ID":18.0,"LATITUDE":39.96402,"SITE_NUMBE":35.0,"SITE_NAME":"Dunbar/Ohiopyle Road","id":"a6ewb5o6ynss"},"type":"Feature","geometry":{"type":"Point","coordinates":[-79.58576,39.96402]}},