{"type":"FeatureCollection","data_type":"Dataset","url_type":null,"permissions":[{"permissions":{"download":true,"view":true},"group_id":"everyone"}],"classification":null,"title":"Redlight Cams in Sacramento, CA","count":37,"stream_id":14747,"contributor":{"url":"http://geocommons.com/users/6849","name":"kunal"},"data_attributes":null,"calculation_params":null,"icon_link":null,"link":"http://geocommons.com/overlays/14747.json","extent":[-121.532,38.4217,-121.247,38.8047],"geometry_types":["point"],"unique_name":null,"name":"Redlight Cams in Sacramento, CA","feature_count":37,"description":"The locations of over 30 redlight cameras in Sacramento, CA","next_feature":null,"is_raster":false,"short_classification":"Y","stats":{},"features":[{"properties":{"name":"15th St &amp; W St, Sacramento, CA 95818","id":"a66v58646dpw"},"type":"Feature","geometry":{"type":"Point","coordinates":[-121.49274,38.56417]}},{"properties":{"name":"16th St &amp; W St, Sacramento, CA 95818","id":"a66v57wwg1xw"},"type":"Feature","geometry":{"type":"Point","coordinates":[-121.49142,38.56379]}},{"properties":{"name":"30th St &amp; Capitol Ave, Sacramento, CA 95816","id":"a66v57wph99o"},"type":"Feature","geometry":{"type":"Point","coordinates":[-121.46802,38.56981]}},{"properties":{"name":"47th Ave &amp; Martin Luther King Jr Blvd, Sacramento, CA 95824","id":"a66v580hw5ff"},"type":"Feature","geometry":{"type":"Point","coordinates":[-121.46458,38.51038]}},{"properties":{"name":"Arden Way &amp; Ethan Way, Sacramento, CA 95815","id":"a66v57xtx3nw"},"type":"Feature","geometry":{"type":"Point","coordinates":[-121.42036,38.596]}},{"properties":{"name":"Arden Way &amp; Howe Ave, Sacramento, CA 95825","id":"a66v586390mx"},"type":"Feature","geometry":{"type":"Point","coordinates":[-121.41535,38.59615]}},{"properties":{"name":"Broadway &amp; 21st St, Sacramento, CA 95818","id":"a66v5877i3re"},"type":"Feature","geometry":{"type":"Point","coordinates":[-121.4857,38.55984]}},{"properties":{"name":"Broadway &amp; 65th St, Sacramento, CA 95817","id":"a66v5845pe0v"},"type":"Feature","geometry":{"type":"Point","coordinates":[-121.42782,38.54686]}},{"properties":{"name":"California Ave &amp; Fair Oaks Boulevard (SB)","id":"a66v588r2kdz"},"type":"Feature","geometry":{"type":"Point","coordinates":[-121.32103,38.63678]}},{"properties":{"name":"Cirby Way &amp; Riverside Ave, Roseville, CA 95678","id":"a66v5895c571"},"type":"Feature","geometry":{"type":"Point","coordinates":[-121.29047,38.72935]}},{"properties":{"name":"Cirby Way &amp; Sunrise Ave, Roseville, CA 95661","id":"a66v57vhykff"},"type":"Feature","geometry":{"type":"Point","coordinates":[-121.27208,38.7295]}},{"properties":{"name":"Douglas Blvd &amp; Eureka Rd, Roseville, CA 95661","id":"a66v587yr25p"},"type":"Feature","geometry":{"type":"Point","coordinates":[-121.247,38.74427]}},{"properties":{"name":"Eastern Ave &amp; Whitney Ave, Sacramento, CA 95821","id":"a66v57vqzs1l"},"type":"Feature","geometry":{"type":"Point","coordinates":[-121.36447,38.62846]}},{"properties":{"name":"El Camino Ave &amp; Evergreen St, Sacramento, CA 95815","id":"a66v57xfbq5v"},"type":"Feature","geometry":{"type":"Point","coordinates":[-121.44387,38.61114]}},{"properties":{"name":"Florin Rd &amp; East Pkwy, Sacramento, CA 95823","id":"a66v57yb7rtg"},"type":"Feature","geometry":{"type":"Point","coordinates":[-121.45128,38.49609]}},{"properties":{"name":"Folsom Blvd &amp; Power Inn Rd, Sacramento, CA 95826","id":"a66v586b2a92"},"type":"Feature","geometry":{"type":"Point","coordinates":[-121.40914,38.54945]}},{"properties":{"name":"Franklin Blvd &amp; Florin Rd, Sacramento, CA 95823","id":"a66v57uuqeei"},"type":"Feature","geometry":{"type":"Point","coordinates":[-121.45932,38.49607]}},{"properties":{"name":"Fruitridge Rd &amp; Seamas Ave, Sacramento","id":"a66v5811p2gu"},"type":"Feature","geometry":{"type":"Point","coordinates":[-121.51111,38.52448]}},{"properties":{"name":"Greenback Ln &amp; Fountain Square Dr, Citrus Heights, CA 95621","id":"a66v582q146p"},"type":"Feature","geometry":{"type":"Point","coordinates":[-121.29835,38.67824]}},{"properties":{"name":"Greenback Ln &amp; Mariposa Ave, Citrus Heights, CA 95610","id":"a66v57y7jwzy"},"type":"Feature","geometry":{"type":"Point","coordinates":[-121.28475,38.67826]}},{"properties":{"name":"Greenback Ln &amp; San Juan Ave, Citrus Heights, CA 95621","id":"a66v58339377"},"type":"Feature","geometry":{"type":"Point","coordinates":[-121.29245,38.6783]}},{"properties":{"name":"Howe Ave &amp; Alta Arden Expy, Sacramento, CA 95825","id":"a66v588ma4fb"},"type":"Feature","geometry":{"type":"Point","coordinates":[-121.41535,38.59831]}},{"properties":{"name":"Howe Ave &amp; College Town Dr, Sacramento, CA 95826","id":"a66v57yht6v8"},"type":"Feature","geometry":{"type":"Point","coordinates":[-121.40934,38.55545]}},{"properties":{"name":"Howe Ave &amp; Hurley Way, Sacramento, CA 95825","id":"a66v57z42ewq"},"type":"Feature","geometry":{"type":"Point","coordinates":[-121.41536,38.58894]}},{"properties":{"name":"Howe Avenue &amp; Fair Oaks Boulevard Sacramento, CA","id":"a66v583ciipc"},"type":"Feature","geometry":{"type":"Point","coordinates":[-121.41533,38.57413]}},{"properties":{"name":"J St &amp; Alhambra Blvd, Sacramento, CA 95816","id":"a66v57uzpese"},"type":"Feature","geometry":{"type":"Point","coordinates":[-121.46521,38.57277]}},{"properties":{"name":"Laguna Blvd &amp; Big Horn Blvd, Elk Grove, CA 95758","id":"a66v57tytyzy"},"type":"Feature","geometry":{"type":"Point","coordinates":[-121.40638,38.42175]}},{"properties":{"name":"Laguna Blvd &amp; Bruceville Rd, Elk Grove, CA 95758","id":"a66v584j7j2k"},"type":"Feature","geometry":{"type":"Point","coordinates":[-121.41796,38.42345]}},{"properties":{"name":"Mack Rd &amp; Center Pkwy, Sacramento, CA 95823","id":"a66v5828kzw9"},"type":"Feature","geometry":{"type":"Point","coordinates":[-121.43687,38.47425]}},{"properties":{"name":"Mack Rd &amp; La Mancha Way, Sacramento, CA 95823","id":"a66v588wmctb"},"type":"Feature","geometry":{"type":"Point","coordinates":[-121.42716,38.47422]}},{"properties":{"name":"Madison Ave &amp; Date Ave, Sacramento, CA 95841","id":"a66v583dh2jn"},"type":"Feature","geometry":{"type":"Point","coordinates":[-121.35517,38.66096]}},{"properties":{"name":"Pocket Rd &amp; W Shore Dr, Sacramento, CA 95831","id":"a66v57wt4lqd"},"type":"Feature","geometry":{"type":"Point","coordinates":[-121.53214,38.47676]}},{"properties":{"name":"Roseville Pkwy &amp; Galleria Blvd, Roseville, CA 95678","id":"a66v57ukst8s"},"type":"Feature","geometry":{"type":"Point","coordinates":[-121.26576,38.76873]}},{"properties":{"name":"Sunrise Blvd &amp; Madison Ave, Citrus Heights, CA 95610","id":"a66v57w8lljk"},"type":"Feature","geometry":{"type":"Point","coordinates":[-121.27209,38.66394]}},{"properties":{"name":"Sunset Blvd &amp; Park Dr, Rocklin, CA 95765","id":"a66v58281ow0"},"type":"Feature","geometry":{"type":"Point","coordinates":[-121.27283,38.80472]}},{"properties":{"name":"Watt Ave &amp; Arden Way, Sacramento, CA 95825","id":"a66v57u68eu6"},"type":"Feature","geometry":{"type":"Point","coordinates":[-121.38301,38.5958]}},{"properties":{"name":"Watt Ave &amp; Fair Oaks Blvd, Sacramento, CA 95864","id":"a66v5811erz3"},"type":"Feature","geometry":{"type":"Point","coordinates":[-121.38302,38.57407]}}],"is_temporal":false,"author":{"url":"http://poifriend.com/poigroup.php?poigroup_id=28511","metadata":"","contact_name":"","contact_address":"","source":"POIfriend.com","contact_phone":""},"source":"http://poifriend.com/poigroup.php?poigroup_id=28511","pagination":{"sort":null,"start":0,"total":37,"limit":1000000},"state":"complete","tags":"california,cams,police,redlight,sacramento,traffic,transportation","published":"2009-07-10T12:00:00Z","id":14747}