{"type":"FeatureCollection","data_type":"Dataset","url_type":null,"permissions":[{"permissions":{"download":true,"view":true},"group_id":"everyone"}],"classification":null,"title":"Hubs","count":20,"stream_id":14823,"contributor":{"url":"http://geocommons.com/users/7732","name":"fchemillier"},"data_attributes":null,"calculation_params":null,"icon_link":null,"link":"http://geocommons.com/overlays/14823.json","extent":[129.52,-23.9427,136.892,-11.7583],"geometry_types":["point"],"unique_name":null,"name":"Hubs","feature_count":20,"description":"","next_feature":null,"is_raster":false,"short_classification":"Y","stats":{"latitude":{"max":-11.758306,"mean":-15.7178958,"variance":16.6847709483415,"stdev":4.08469961543582,"min":-23.9427,"median":-14.2404},"longitude":{"max":136.8916806,"mean":133.74356573,"variance":5.00745618840893,"stdev":2.2377346108082,"min":129.5205,"median":134.40694},"comm numbe":{"max":633.0,"mean":384.9,"variance":42671.0421052632,"stdev":206.569702776722,"min":-99.0,"median":451.0}},"features":[{"properties":{"name":"Ali Curung","latitude":-21.003334,"type":"HUB","longitude":134.40694,"id":"a6ml8putxebl","comm numbe":202.0,"alt names":"\"Ale-Kerange\",\"Alekarenge\",\"Warrabri\",\"Warribri\""},"type":"Feature","geometry":{"type":"Point","coordinates":[134.40694,-21.003334]}},{"properties":{"name":"Angurugu/Umbakumba","latitude":-13.98223611,"type":"HUB","longitude":136.642456,"id":"a6ml8pu2ve26","comm numbe":451.0,"alt names":""},"type":"Feature","geometry":{"type":"Point","coordinates":[136.642456,-13.98223611]}},{"properties":{"name":"Borroloola","latitude":-16.064537,"type":"HUB","longitude":136.306686,"id":"a6ml8poivpy1","comm numbe":-99.0,"alt names":""},"type":"Feature","geometry":{"type":"Point","coordinates":[136.306686,-16.064537]}},{"properties":{"name":"Daguragu/Kalkarindji","latitude":-17.423373,"type":"HUB","longitude":130.822449,"id":"a6ml8pucxrs9","comm numbe":591.0,"alt names":"\"Dagaragu\",\"Wattie Creek\""},"type":"Feature","geometry":{"type":"Point","coordinates":[130.822449,-17.423373]}},{"properties":{"name":"Elliot","latitude":-17.5537,"type":"HUB","longitude":133.544998,"id":"a6ml8pwatp05","comm numbe":224.0,"alt names":"\"South Camp\",\"Wilyugh\",\"Wilyugoo\",\"Wilyugu\""},"type":"Feature","geometry":{"type":"Point","coordinates":[133.544998,-17.5537]}},{"properties":{"name":"Galiwinku","latitude":-12.0235,"type":"HUB","longitude":135.5664,"id":"a6ml8po2efm9","comm numbe":492.0,"alt names":"\"Elcho Island\",\"Galiwin'ku\""},"type":"Feature","geometry":{"type":"Point","coordinates":[135.5664,-12.0235]}},{"properties":{"name":"Gapuwiyak","latitude":-12.50322,"type":"HUB","longitude":135.80587,"id":"a6ml8po96cjg","comm numbe":500.0,"alt names":"\"Lake Evella\""},"type":"Feature","geometry":{"type":"Point","coordinates":[135.80587,-12.50322]}},{"properties":{"name":"Gunbalanya","latitude":-12.324,"type":"HUB","longitude":133.056,"id":"a6ml8pu85rls","comm numbe":329.0,"alt names":"\"Kunbarllanjnja\",\"Oenpelli\""},"type":"Feature","geometry":{"type":"Point","coordinates":[133.056,-12.324]}},{"properties":{"name":"Hermannsburg","latitude":-23.9427,"type":"HUB","longitude":132.7787,"id":"a6ml8psh2j6z","comm numbe":43.0,"alt names":"\"Ntaria\""},"type":"Feature","geometry":{"type":"Point","coordinates":[132.7787,-23.9427]}},{"properties":{"name":"Lajamanu","latitude":-18.335835,"type":"HUB","longitude":130.63834,"id":"a6ml8ptzr40t","comm numbe":609.0,"alt names":"\"Hooker Creek\""},"type":"Feature","geometry":{"type":"Point","coordinates":[130.63834,-18.335835]}},{"properties":{"name":"Maningrida","latitude":-12.05084722,"type":"HUB","longitude":134.223625,"id":"a6ml8po8jd4i","comm numbe":362.0,"alt names":""},"type":"Feature","geometry":{"type":"Point","coordinates":[134.223625,-12.05084722]}},{"properties":{"name":"Milingimbi","latitude":-12.1036,"type":"HUB","longitude":134.9201,"id":"a6ml8prq8oz4","comm numbe":531.0,"alt names":""},"type":"Feature","geometry":{"type":"Point","coordinates":[134.9201,-12.1036]}},{"properties":{"name":"Nguiu","latitude":-11.758306,"type":"HUB","longitude":130.63747,"id":"a6ml8psxke7c","comm numbe":400.0,"alt names":"\"ARSY\",\"Bathurst Island\""},"type":"Feature","geometry":{"type":"Point","coordinates":[130.63747,-11.758306]}},{"properties":{"name":"Ngukurr","latitude":-14.7317,"type":"HUB","longitude":134.7321,"id":"a6ml8poa85ym","comm numbe":633.0,"alt names":"\"Roper River\""},"type":"Feature","geometry":{"type":"Point","coordinates":[134.7321,-14.7317]}},{"properties":{"name":"Numbulwar","latitude":-14.2791,"type":"HUB","longitude":135.7406,"id":"a6ml8pzm30b3","comm numbe":549.0,"alt names":"\"Rose River\""},"type":"Feature","geometry":{"type":"Point","coordinates":[135.7406,-14.2791]}},{"properties":{"name":"Papunya","latitude":-23.203056,"type":"HUB","longitude":131.9111,"id":"a6ml8pm3jty6","comm numbe":131.0,"alt names":""},"type":"Feature","geometry":{"type":"Point","coordinates":[131.9111,-23.203056]}},{"properties":{"name":"Ramingining","latitude":-12.32779,"type":"HUB","longitude":134.93001,"id":"a6ml8prjxwyf","comm numbe":550.0,"alt names":""},"type":"Feature","geometry":{"type":"Point","coordinates":[134.93001,-12.32779]}},{"properties":{"name":"Wadeye","latitude":-14.2404,"type":"HUB","longitude":129.5205,"id":"a6ml8px9emtv","comm numbe":426.0,"alt names":"\"Port Keats\""},"type":"Feature","geometry":{"type":"Point","coordinates":[129.5205,-14.2404]}},{"properties":{"name":"Yirrkala","latitude":-12.25279167,"type":"HUB","longitude":136.8916806,"id":"a6ml8ppma0hm","comm numbe":576.0,"alt names":""},"type":"Feature","geometry":{"type":"Point","coordinates":[136.8916806,-12.25279167]}},{"properties":{"name":"Yuendumu","latitude":-22.25389,"type":"HUB","longitude":131.79529,"id":"a6ml8ptb3w24","comm numbe":198.0,"alt names":""},"type":"Feature","geometry":{"type":"Point","coordinates":[131.79529,-22.25389]}}],"is_temporal":false,"author":{"url":"","metadata":"","contact_name":"","contact_address":"","source":"","contact_phone":""},"source":"","pagination":{"sort":null,"start":0,"total":20,"limit":1000000},"state":"complete","tags":"","published":"2014-08-10T19:31:41-04:00","id":14823}