{"type":"FeatureCollection","data_type":"Dataset","url_type":null,"permissions":[{"permissions":{"download":true,"view":true},"group_id":"everyone"}],"classification":null,"title":"Copy of DRTV 10232011 (2) (4)","count":963,"stream_id":169217,"contributor":{"url":"http://geocommons.com/users/34860","name":"jtuska@r2cgroup.com"},"data_attributes":null,"calculation_params":null,"icon_link":null,"link":"http://geocommons.com/overlays/169217.json","extent":[-166.846,30.5994,-75.1617,65.2622],"geometry_types":["point"],"unique_name":null,"name":"Copy of DRTV 10232011 (2) (4)","feature_count":963,"description":"","next_feature":null,"is_raster":false,"short_classification":"Y","stats":{"app refno":{"max":275572657,"mean":274716814.50675,"variance":682241762430.137,"stdev":825979.274818768,"min":273511311,"median":275246724}},"features":[{"properties":{"city":"ANTIOCH","toll free number":"800-335-4319","report category":"DECLINE","app refno":273511311,"geo_score":1.0,"zip code":"94531","isci":"ZWOG2529H/:60","received date":"7/18/2011","decision date":"7/18/2011","source code":"VAA3GV","id":"a66heap55brv","geo_precision":"zip","station":"Comcast Cable","state":"CA"},"type":"Feature","geometry":{"type":"Point","coordinates":[-121.723919,37.920852]}},{"properties":{"city":"HAYWARD","toll free number":"800-338-9171","report category":"APPROVED","app refno":273511575,"geo_score":0.875,"zip code":"94542","isci":"ZWOG2530H/:120","received date":"7/18/2011","decision date":"7/18/2011","source code":"VAA3GW","id":"a66heb3kpj3h","geo_precision":"zip","station":"KGO","state":"CA"},"type":"Feature","geometry":{"type":"Point","coordinates":[-122.045795,37.678542]}},{"properties":{"city":"SAN JOSE","toll free number":"800-338-9171","report category":"APPROVED","app refno":273511579,"geo_score":1.0,"zip code":"95135","isci":"ZWOG2530H/:120","received date":"7/18/2011","decision date":"7/18/2011","source code":"VAA3GW","id":"a66heavf3bz5","geo_precision":"zip","station":"KGO","state":"CA"},"type":"Feature","geometry":{"type":"Point","coordinates":[-121.723862,37.272289]}},{"properties":{"city":"RICHMOND","toll free number":"877-754-6706","report category":"APPROVED","app refno":273511599,"geo_score":1.0,"zip code":"94805","isci":"ZWOG2526H/:60","received date":"7/18/2011","decision date":"7/18/2011","source code":"VAA3GS","id":"a66heaqwuje4","geo_precision":"zip","station":"KPIX","state":"CA"},"type":"Feature","geometry":{"type":"Point","coordinates":[-122.30093,37.929123]}},{"properties":{"city":"SAN FRANCISCO","toll free number":"800-338-9171","report category":"APPROVED","app refno":273511649,"geo_score":1.0,"zip code":"94116","isci":"ZWOG2530H/:120","received date":"7/18/2011","decision date":"7/18/2011","source code":"VAA3GW","id":"a66heb1vomeb","geo_precision":"zip","station":"KGO","state":"CA"},"type":"Feature","geometry":{"type":"Point","coordinates":[-122.483232,37.743857]}},{"properties":{"city":"OAKLAND","toll free number":"800-338-9171","report category":"APPROVED","app refno":273511653,"geo_score":1.0,"zip code":"94619","isci":"ZWOG2530H/:120","received date":"7/18/2011","decision date":"7/19/2011","source code":"VAA3GW","id":"a66heb1umydc","geo_precision":"zip","station":"KGO","state":"CA"},"type":"Feature","geometry":{"type":"Point","coordinates":[-122.167126,37.783877]}},{"properties":{"city":"OAKLAND","toll free number":"800-338-9171","report category":"DECLINE","app refno":273512324,"geo_score":1.0,"zip code":"94619","isci":"ZWOG2530H/:120","received date":"7/18/2011","decision date":"7/18/2011","source code":"VAA3GW","id":"a66heazhzrke","geo_precision":"zip","station":"KGO","state":"CA"},"type":"Feature","geometry":{"type":"Point","coordinates":[-122.167126,37.783877]}},{"properties":{"city":"WOODSIDE","toll free number":"800-338-9171","report category":"DECLINE","app refno":273512331,"geo_score":0.875,"zip code":"94062","isci":"ZWOG2530H/:120","received date":"7/18/2011","decision date":"7/18/2011","source code":"VAA3GW","id":"a66heau3jfn6","geo_precision":"zip","station":"KGO","state":"CA"},"type":"Feature","geometry":{"type":"Point","coordinates":[-122.262745,37.383551]}},{"properties":{"city":"SAN FRANCISCO","toll free number":"800-338-9171","report category":"DECLINE","app refno":273512341,"geo_score":1.0,"zip code":"94117","isci":"ZWOG2530H/:120","received date":"7/18/2011","decision date":"7/18/2011","source code":"VAA3GW","id":"a66heav3637n","geo_precision":"zip","station":"KGO","state":"CA"},"type":"Feature","geometry":{"type":"Point","coordinates":[-122.443882,37.769079]}},{"properties":{"city":"HOPLAND","toll free number":"800-338-9171","report category":"APPROVED","app refno":273512375,"geo_score":0.957,"zip code":"95449","isci":"ZWOG2530H/:120","received date":"7/18/2011","decision date":"7/19/2011","source code":"VAA3GW","id":"a66heaoex0qr","geo_precision":"zip","station":"KGO","state":"CA"},"type":"Feature","geometry":{"type":"Point","coordinates":[-123.10028,38.975732]}},{"properties":{"city":"OAKLAND","toll free number":"800-338-9171","report category":"DECLINE","app refno":273512427,"geo_score":0.857,"zip code":"94608","isci":"ZWOG2530H/:120","received date":"7/18/2011","decision date":"7/18/2011","source code":"VAA3GW","id":"a66heaoqefj3","geo_precision":"zip","station":"KGO","state":"CA"},"type":"Feature","geometry":{"type":"Point","coordinates":[-122.29548,37.833876]}},{"properties":{"city":"BELMONT","toll free number":"800-338-9171","report category":"APPROVED","app refno":273512436,"geo_score":1.0,"zip code":"94002","isci":"ZWOG2530H/:120","received date":"7/18/2011","decision date":"7/18/2011","source code":"VAA3GW","id":"a66heayfcfl7","geo_precision":"zip","station":"KGO","state":"CA"},"type":"Feature","geometry":{"type":"Point","coordinates":[-122.29339,37.516644]}},{"properties":{"city":"RICHMOND","toll free number":"800-211-3740","report category":"DECLINE","app refno":273512485,"geo_score":1.0,"zip code":"94804","isci":"ZWOG2528H/:60","received date":"7/18/2011","decision date":"7/18/2011","source code":"VAA3GU","id":"a66heap7w9e6","geo_precision":"zip","station":"KTVU","state":"CA"},"type":"Feature","geometry":{"type":"Point","coordinates":[-122.344381,37.925174]}},{"properties":{"city":"VALLEJO","toll free number":"800-211-3740","report category":"DECLINE","app refno":273512489,"geo_score":1.0,"zip code":"94591","isci":"ZWOG2528H/:60","received date":"7/18/2011","decision date":"7/18/2011","source code":"VAA3GU","id":"a66heazdsald","geo_precision":"zip","station":"KTVU","state":"CA"},"type":"Feature","geometry":{"type":"Point","coordinates":[-122.206292,38.114249]}},{"properties":{"city":"FREMONT","toll free number":"800-211-3740","report category":"DECLINE","app refno":273512492,"geo_score":1.0,"zip code":"94555","isci":"ZWOG2528H/:60","received date":"7/18/2011","decision date":"7/18/2011","source code":"VAA3GU","id":"a66heav3kvnu","geo_precision":"zip","station":"KTVU","state":"CA"},"type":"Feature","geometry":{"type":"Point","coordinates":[-122.063323,37.570681]}},{"properties":{"city":"RICHMOND","toll free number":"800-211-3740","report category":"DECLINE","app refno":273512517,"geo_score":0.945,"zip code":"94801","isci":"ZWOG2528H/:60","received date":"7/18/2011","decision date":"7/18/2011","source code":"VAA3GU","id":"a66heatw426k","geo_precision":"zip","station":"KTVU","state":"CA"},"type":"Feature","geometry":{"type":"Point","coordinates":[-122.367471,37.958813]}},{"properties":{"city":"EL SOBRANTE","toll free number":"800-211-3740","report category":"DECLINE","app refno":273512589,"geo_score":1.0,"zip code":"94803","isci":"ZWOG2528H/:60","received date":"7/18/2011","decision date":"7/18/2011","source code":"VAA3GU","id":"a66heaokvvnl","geo_precision":"zip","station":"KTVU","state":"CA"},"type":"Feature","geometry":{"type":"Point","coordinates":[-122.206177,37.966422]}},{"properties":{"city":"PLEASANTON","toll free number":"800-338-9171","report category":"APPROVED","app refno":273512611,"geo_score":1.0,"zip code":"94566","isci":"ZWOG2530H/:120","received date":"7/18/2011","decision date":"7/18/2011","source code":"VAA3GW","id":"a66heb3pqq1r","geo_precision":"zip","station":"KGO","state":"CA"},"type":"Feature","geometry":{"type":"Point","coordinates":[-121.862128,37.646081]}},{"properties":{"city":"SAN JOSE","toll free number":"800-211-3740","report category":"APPROVED","app refno":273512639,"geo_score":0.881,"zip code":"95118","isci":"ZWOG2528H/:60","received date":"7/18/2011","decision date":"7/20/2011","source code":"VAA3GU","id":"a66heb2wj1my","geo_precision":"zip","station":"KTVU","state":"CA"},"type":"Feature","geometry":{"type":"Point","coordinates":[-121.876343,37.263277]}},{"properties":{"city":"UNION CITY","toll free number":"877-226-8944","report category":"DECLINE","app refno":273513347,"geo_score":0.873,"zip code":"94587","isci":"ZWOG2525H/:60","received date":"7/18/2011","decision date":"7/18/2011","source code":"VAA3GR","id":"a66heav1v28z","geo_precision":"zip","station":"KOFY","state":"CA"},"type":"Feature","geometry":{"type":"Point","coordinates":[-122.00635,37.582713]}},{"properties":{"city":"OAKLEY","toll free number":"800-338-9171","report category":"DECLINE","app refno":273513653,"geo_score":1.0,"zip code":"94561","isci":"ZWOG2530H/:120","received date":"7/18/2011","decision date":"7/18/2011","source code":"VAA3GW","id":"a66heb0ga77y","geo_precision":"zip","station":"KGO","state":"CA"},"type":"Feature","geometry":{"type":"Point","coordinates":[-121.68972,37.996516]}},{"properties":{"city":"VALLEJO","toll free number":"877-226-8944","report category":"DECLINE","app refno":273514028,"geo_score":0.881,"zip code":"94590","isci":"ZWOG2525H/:60","received date":"7/18/2011","decision date":"7/18/2011","source code":"VAA3GR","id":"a66heasmoutw","geo_precision":"zip","station":"KOFY","state":"CA"},"type":"Feature","geometry":{"type":"Point","coordinates":[-122.250804,38.187418]}},{"properties":{"city":"ALAMEDA","toll free number":"800-211-3740","report category":"DECLINE","app refno":273514182,"geo_score":1.0,"zip code":"94501","isci":"ZWOG2528H/:60","received date":"7/18/2011","decision date":"7/18/2011","source code":"VAA3GU","id":"a66heavka04g","geo_precision":"zip","station":"KTVU","state":"CA"},"type":"Feature","geometry":{"type":"Point","coordinates":[-122.264779,37.770563]}},{"properties":{"city":"SANTA ROSA","toll free number":"800-211-3740","report category":"APPROVED","app refno":273514185,"geo_score":1.0,"zip code":"95409","isci":"ZWOG2528H/:60","received date":"7/18/2011","decision date":"7/19/2011","source code":"VAA3GU","id":"a66heaxdh7tb","geo_precision":"zip","station":"KTVU","state":"CA"},"type":"Feature","geometry":{"type":"Point","coordinates":[-122.626545,38.462575]}},{"properties":{"city":"SAN FRANCISCO","toll free number":"800-211-3740","report category":"DECLINE","app refno":273514191,"geo_score":1.0,"zip code":"94124","isci":"ZWOG2528H/:60","received date":"7/18/2011","decision date":"7/18/2011","source code":"VAA3GU","id":"a66heaqleaiv","geo_precision":"zip","station":"KTVU","state":"CA"},"type":"Feature","geometry":{"type":"Point","coordinates":[-122.382857,37.73123]}},{"properties":{"city":"SAN MATEO","toll free number":"800-211-3740","report category":"APPROVED","app refno":273514768,"geo_score":1.0,"zip code":"94401","isci":"ZWOG2528H/:60","received date":"7/18/2011","decision date":"7/22/2011","source code":"VAA3GU","id":"a66hear5sdzk","geo_precision":"zip","station":"KTVU","state":"CA"},"type":"Feature","geometry":{"type":"Point","coordinates":[-122.32253,37.573485]}},{"properties":{"city":"FREMONT","toll free number":"800-338-9171","report category":"DECLINE","app refno":273515802,"geo_score":1.0,"zip code":"94538","isci":"ZWOG2530H/:120","received date":"7/19/2011","decision date":"7/19/2011","source code":"VAA3GW","id":"a66heaykuc6x","geo_precision":"zip","station":"KGO","state":"CA"},"type":"Feature","geometry":{"type":"Point","coordinates":[-121.95832,37.509453]}},{"properties":{"city":"CLAYTON","toll free number":"800-338-9171","report category":"DECLINE","app refno":273516219,"geo_score":1.0,"zip code":"94517","isci":"ZWOG2530H/:120","received date":"7/19/2011","decision date":"7/19/2011","source code":"VAA3GW","id":"a66heap460ym","geo_precision":"zip","station":"KGO","state":"CA"},"type":"Feature","geometry":{"type":"Point","coordinates":[-121.784818,37.897832]}},{"properties":{"city":"VALLEJO","toll free number":"800-201-6874","report category":"DECLINE","app refno":273516661,"geo_score":0.881,"zip code":"94590","isci":"ZWOG2527H/:60","received date":"7/19/2011","decision date":"7/19/2011","source code":"VAA3GT","id":"a66heawog5jo","geo_precision":"zip","station":"KRON","state":"CA"},"type":"Feature","geometry":{"type":"Point","coordinates":[-122.250804,38.187418]}},{"properties":{"city":"SAN FRANCISCO","toll free number":"877-226-8944","report category":"DECLINE","app refno":273517202,"geo_score":1.0,"zip code":"94109","isci":"ZWOG2525H/:60","received date":"7/19/2011","decision date":"7/19/2011","source code":"VAA3GR","id":"a66heawsekz4","geo_precision":"zip","station":"KOFY","state":"CA"},"type":"Feature","geometry":{"type":"Point","coordinates":[-122.420782,37.795219]}},{"properties":{"city":"SAN FRANCISCO","toll free number":"800-876-7359","report category":"APPROVED","app refno":273517229,"geo_score":1.0,"zip code":"94114","isci":"ZWOG2524H/:60","received date":"7/19/2011","decision date":"7/19/2011","source code":"VAA3GQ","id":"a66heaq82dz5","geo_precision":"zip","station":"KNTV","state":"CA"},"type":"Feature","geometry":{"type":"Point","coordinates":[-122.439332,37.758279]}},{"properties":{"city":"SAN FRANCISCO","toll free number":"877-226-8944","report category":"DECLINE","app refno":273517283,"geo_score":0.893,"zip code":"94133","isci":"ZWOG2525H/:60","received date":"7/19/2011","decision date":"7/19/2011","source code":"VAA3GR","id":"a66heap62y1q","geo_precision":"zip","station":"KOFY","state":"CA"},"type":"Feature","geometry":{"type":"Point","coordinates":[-122.412193,37.805762]}},{"properties":{"city":"SAN FRANCISCO","toll free number":"800-876-7359","report category":"DECLINE","app refno":273517595,"geo_score":1.0,"zip code":"94159","isci":"ZWOG2524H/:60","received date":"7/19/2011","decision date":"7/19/2011","source code":"VAA3GQ","id":"a66heatkadxy","geo_precision":"zip","station":"KNTV","state":"CA"},"type":"Feature","geometry":{"type":"Point","coordinates":[-122.727802,37.784827]}},{"properties":{"city":"OAKLAND","toll free number":"877-226-8944","report category":"DECLINE","app refno":273518046,"geo_score":1.0,"zip code":"94621","isci":"ZWOG2525H/:60","received date":"7/19/2011","decision date":"7/19/2011","source code":"VAA3GR","id":"a66heargg6p0","geo_precision":"zip","station":"KOFY","state":"CA"},"type":"Feature","geometry":{"type":"Point","coordinates":[-122.196689,37.742529]}},{"properties":{"city":"SOUTH SAN FRANCISCO","toll free number":"800-338-9171","report category":"DECLINE","app refno":273518154,"geo_score":0.908,"zip code":"94080","isci":"ZWOG2530H/:120","received date":"7/19/2011","decision date":"7/19/2011","source code":"VAA3GW","id":"a66heaz9h2co","geo_precision":"zip","station":"KGO","state":"CA"},"type":"Feature","geometry":{"type":"Point","coordinates":[-122.411361,37.638546]}},{"properties":{"city":"SALINAS","toll free number":"800-338-9171","report category":"DECLINE","app refno":273518171,"geo_score":1.0,"zip code":"93906","isci":"ZWOG2530H/:120","received date":"7/19/2011","decision date":"7/19/2011","source code":"VAA3GW","id":"a66heaqp6jgp","geo_precision":"zip","station":"KGO","state":"CA"},"type":"Feature","geometry":{"type":"Point","coordinates":[-121.487916,36.620989]}},{"properties":{"city":"OAKLAND","toll free number":"800-338-9171","report category":"DECLINE","app refno":273518172,"geo_score":1.0,"zip code":"94621","isci":"ZWOG2530H/:120","received date":"7/19/2011","decision date":"7/19/2011","source code":"VAA3GW","id":"a66heb1wv9om","geo_precision":"zip","station":"KGO","state":"CA"},"type":"Feature","geometry":{"type":"Point","coordinates":[-122.196689,37.742529]}},{"properties":{"city":"BAY POINT","toll free number":"800-716-6383","report category":"DECLINE","app refno":273518503,"geo_score":0.879,"zip code":"94565","isci":"ZWOG2534H/:120","received date":"7/19/2011","decision date":"7/19/2011","source code":"VAA3GM","id":"a66heaobt07f","geo_precision":"zip","station":"KRON","state":"CA"},"type":"Feature","geometry":{"type":"Point","coordinates":[-121.937182,38.026865]}},{"properties":{"city":"VALLEJO","toll free number":"800-335-4319","report category":"DECLINE","app refno":273518878,"geo_score":0.881,"zip code":"94590","isci":"ZWOG2529H/:60","received date":"7/19/2011","decision date":"7/19/2011","source code":"VAA3GV","id":"a66heb2mltkc","geo_precision":"zip","station":"Comcast Cable","state":"CA"},"type":"Feature","geometry":{"type":"Point","coordinates":[-122.250804,38.187418]}},{"properties":{"city":"SUNNYVALE","toll free number":"800-876-7359","report category":"APPROVED","app refno":273518882,"geo_score":1.0,"zip code":"94086","isci":"ZWOG2524H/:60","received date":"7/19/2011","decision date":"7/20/2011","source code":"VAA3GQ","id":"a66heaudav2g","geo_precision":"zip","station":"KNTV","state":"CA"},"type":"Feature","geometry":{"type":"Point","coordinates":[-121.705327,37.189396]}},{"properties":{"city":"SAN MATEO","toll free number":"877-754-6706","report category":"APPROVED","app refno":273519050,"geo_score":1.0,"zip code":"94403","isci":"ZWOG2526H/:60","received date":"7/19/2011","decision date":"7/20/2011","source code":"VAA3GS","id":"a66heay6i3fs","geo_precision":"zip","station":"KPIX","state":"CA"},"type":"Feature","geometry":{"type":"Point","coordinates":[-122.304079,37.541486]}},{"properties":{"city":"REDWOOD CITY","toll free number":"800-201-6874","report category":"DECLINE","app refno":273519386,"geo_score":1.0,"zip code":"94061","isci":"ZWOG2527H/:60","received date":"7/19/2011","decision date":"7/19/2011","source code":"VAA3GT","id":"a66heap50zav","geo_precision":"zip","station":"KRON","state":"CA"},"type":"Feature","geometry":{"type":"Point","coordinates":[-122.235639,37.462158]}},{"properties":{"city":"BAY POINT","toll free number":"800-201-6874","report category":"DECLINE","app refno":273519390,"geo_score":0.879,"zip code":"94565","isci":"ZWOG2527H/:60","received date":"7/19/2011","decision date":"7/19/2011","source code":"VAA3GT","id":"a66heari99ki","geo_precision":"zip","station":"KRON","state":"CA"},"type":"Feature","geometry":{"type":"Point","coordinates":[-121.937182,38.026865]}},{"properties":{"city":"SAN BRUNO","toll free number":"800-775-8735","report category":"DECLINE","app refno":273519397,"geo_score":0.857,"zip code":"94066","isci":"ZWOG2523H/:60","received date":"7/19/2011","decision date":"7/28/2011","source code":"VAA3GJ","id":"a66heayou31i","geo_precision":"zip","station":"KGO","state":"CA"},"type":"Feature","geometry":{"type":"Point","coordinates":[-122.404417,37.616602]}},{"properties":{"city":"ANTIOCH","toll free number":"800-201-6874","report category":"APPROVED","app refno":273519424,"geo_score":1.0,"zip code":"94531","isci":"ZWOG2527H/:60","received date":"7/19/2011","decision date":"7/20/2011","source code":"VAA3GT","id":"a66heawt8kh3","geo_precision":"zip","station":"KRON","state":"CA"},"type":"Feature","geometry":{"type":"Point","coordinates":[-121.723919,37.920852]}},{"properties":{"city":"CAMPBELL","toll free number":"800-775-8735","report category":"APPROVED","app refno":273519425,"geo_score":1.0,"zip code":"95008","isci":"ZWOG2523H/:60","received date":"7/19/2011","decision date":"7/20/2011","source code":"VAA3GJ","id":"a66heb18gu0w","geo_precision":"zip","station":"KGO","state":"CA"},"type":"Feature","geometry":{"type":"Point","coordinates":[-121.705327,37.189396]}},{"properties":{"city":"DALY CITY","toll free number":"800-201-6874","report category":"DECLINE","app refno":273519698,"geo_score":0.875,"zip code":"94014","isci":"ZWOG2527H/:60","received date":"7/19/2011","decision date":"7/19/2011","source code":"VAA3GT","id":"a66heb1bdcp0","geo_precision":"zip","station":"KRON","state":"CA"},"type":"Feature","geometry":{"type":"Point","coordinates":[-122.459695,37.676878]}},{"properties":{"city":"WALNUT CREEK","toll free number":"800-338-9171","report category":"APPROVED","app refno":273520784,"geo_score":1.0,"zip code":"94597","isci":"ZWOG2530H/:120","received date":"7/20/2011","decision date":"7/20/2011","source code":"VAA3GW","id":"a66heax2n11i","geo_precision":"zip","station":"KGO","state":"CA"},"type":"Feature","geometry":{"type":"Point","coordinates":[-121.955399,37.777208]}},{"properties":{"city":"BURBANK","toll free number":"800-338-9171","report category":"APPROVED","app refno":273520785,"geo_score":1.0,"zip code":"91506","isci":"ZWOG2530H/:120","received date":"7/20/2011","decision date":"7/20/2011","source code":"VAA3GW","id":"a66heaorywe3","geo_precision":"zip","station":"KGO","state":"CA"},"type":"Feature","geometry":{"type":"Point","coordinates":[-118.298662,33.786594]}},{"properties":{"city":"BRENTWOOD","toll free number":"800-338-9171","report category":"APPROVED","app refno":273520795,"geo_score":1.0,"zip code":"94513","isci":"ZWOG2530H/:120","received date":"7/20/2011","decision date":"7/20/2011","source code":"VAA3GW","id":"a66heassoe3q","geo_precision":"zip","station":"KGO","state":"CA"},"type":"Feature","geometry":{"type":"Point","coordinates":[-121.843071,37.912274]}},{"properties":{"city":"HAYWARD","toll free number":"800-201-6874","report category":"DECLINE","app refno":273520980,"geo_score":0.914,"zip code":"94541","isci":"ZWOG2527H/:60","received date":"7/20/2011","decision date":"7/20/2011","source code":"VAA3GT","id":"a66heap8gljb","geo_precision":"zip","station":"KRON","state":"CA"},"type":"Feature","geometry":{"type":"Point","coordinates":[-122.103297,37.679376]}},{"properties":{"city":"SAN JOSE","toll free number":"800-335-4319","report category":"DECLINE","app refno":273521545,"geo_score":0.896,"zip code":"95132","isci":"ZWOG2529H/:60","received date":"7/20/2011","decision date":"7/20/2011","source code":"VAA3GV","id":"a66heaxjw4j7","geo_precision":"zip","station":"Comcast Cable","state":"CA"},"type":"Feature","geometry":{"type":"Point","coordinates":[-121.721615,37.198833]}},{"properties":{"city":"SAN FRANCISCO","toll free number":"877-754-6706","report category":"APPROVED","app refno":273521688,"geo_score":1.0,"zip code":"94127","isci":"ZWOG2526H/:60","received date":"7/20/2011","decision date":"7/20/2011","source code":"VAA3GS","id":"a66heatwuhlb","geo_precision":"zip","station":"KPIX","state":"CA"},"type":"Feature","geometry":{"type":"Point","coordinates":[-122.458632,37.73403]}},{"properties":{"city":"VALLEJO","toll free number":"877-754-6706","report category":"DECLINE","app refno":273521689,"geo_score":1.0,"zip code":"94591","isci":"ZWOG2526H/:60","received date":"7/20/2011","decision date":"7/20/2011","source code":"VAA3GS","id":"a66heaqwqp7p","geo_precision":"zip","station":"KPIX","state":"CA"},"type":"Feature","geometry":{"type":"Point","coordinates":[-122.206292,38.114249]}},{"properties":{"city":"OAKLAND","toll free number":"800-201-6874","report category":"DECLINE","app refno":273521770,"geo_score":1.0,"zip code":"94603","isci":"ZWOG2527H/:60","received date":"7/20/2011","decision date":"7/20/2011","source code":"VAA3GT","id":"a66heapd1i8z","geo_precision":"zip","station":"KRON","state":"CA"},"type":"Feature","geometry":{"type":"Point","coordinates":[-122.198428,37.761778]}},{"properties":{"city":"NAPA","toll free number":"800-478-6179","report category":"DECLINE","app refno":273522748,"geo_score":0.883,"zip code":"94558","isci":"ZWOG2531H/:120","received date":"7/20/2011","decision date":"7/20/2011","source code":"VAA3GX","id":"a66heavv94g5","geo_precision":"zip","station":"KNTV","state":"CA"},"type":"Feature","geometry":{"type":"Point","coordinates":[-122.224975,38.535185]}},{"properties":{"city":"CORTE MADERA","toll free number":"800-478-6179","report category":"DECLINE","app refno":273522759,"geo_score":0.87,"zip code":"94925","isci":"ZWOG2531H/:120","received date":"7/20/2011","decision date":"7/20/2011","source code":"VAA3GX","id":"a66heaqdaguo","geo_precision":"zip","station":"KNTV","state":"CA"},"type":"Feature","geometry":{"type":"Point","coordinates":[-122.509419,37.922981]}},{"properties":{"city":"SOUTH SAN FRANCISCO","toll free number":"800-478-6179","report category":"DECLINE","app refno":273522911,"geo_score":0.908,"zip code":"94080","isci":"ZWOG2531H/:120","received date":"7/20/2011","decision date":"7/20/2011","source code":"VAA3GX","id":"a66heb0vw38d","geo_precision":"zip","station":"KNTV","state":"CA"},"type":"Feature","geometry":{"type":"Point","coordinates":[-122.411361,37.638546]}},{"properties":{"city":"RICHMOND","toll free number":"800-338-9171","report category":"DECLINE","app refno":273523138,"geo_score":1.0,"zip code":"94804","isci":"ZWOG2530H/:120","received date":"7/20/2011","decision date":"7/20/2011","source code":"VAA3GW","id":"a66heb44bj8y","geo_precision":"zip","station":"KGO","state":"CA"},"type":"Feature","geometry":{"type":"Point","coordinates":[-122.344381,37.925174]}},{"properties":{"city":"SAN JOSE","toll free number":"800-876-7359","report category":"APPROVED","app refno":273523331,"geo_score":1.0,"zip code":"95129","isci":"ZWOG2524H/:60","received date":"7/20/2011","decision date":"7/20/2011","source code":"VAA3GQ","id":"a66heb3hc9ri","geo_precision":"zip","station":"KNTV","state":"CA"},"type":"Feature","geometry":{"type":"Point","coordinates":[-121.705327,37.189396]}},{"properties":{"city":"SAN JOSE","toll free number":"877-754-6706","report category":"APPROVED","app refno":273523390,"geo_score":0.881,"zip code":"95124","isci":"ZWOG2526H/:60","received date":"7/20/2011","decision date":"7/20/2011","source code":"VAA3GS","id":"a66heayc7c1v","geo_precision":"zip","station":"KPIX","state":"CA"},"type":"Feature","geometry":{"type":"Point","coordinates":[-121.930789,37.256888]}},{"properties":{"city":"SAN FRANCISCO","toll free number":"800-775-8735","report category":"DECLINE","app refno":273523997,"geo_score":1.0,"zip code":"94114","isci":"ZWOG2523H/:60","received date":"7/20/2011","decision date":"7/20/2011","source code":"VAA3GJ","id":"a66heaxve1fn","geo_precision":"zip","station":"KGO","state":"CA"},"type":"Feature","geometry":{"type":"Point","coordinates":[-122.439332,37.758279]}},{"properties":{"city":"CONCORD","toll free number":"800-775-8735","report category":"DECLINE","app refno":273524086,"geo_score":1.0,"zip code":"94521","isci":"ZWOG2523H/:60","received date":"7/20/2011","decision date":"7/20/2011","source code":"VAA3GJ","id":"a66heaxhscyr","geo_precision":"zip","station":"KGO","state":"CA"},"type":"Feature","geometry":{"type":"Point","coordinates":[-121.960045,37.951661]}},{"properties":{"city":"SAN JOSE","toll free number":"800-335-4319","report category":"APPROVED","app refno":273524093,"geo_score":1.0,"zip code":"95125","isci":"ZWOG2529H/:60","received date":"7/20/2011","decision date":"7/21/2011","source code":"VAA3GV","id":"a66heawnfp0u","geo_precision":"zip","station":"Comcast Cable","state":"CA"},"type":"Feature","geometry":{"type":"Point","coordinates":[-121.705327,37.189396]}},{"properties":{"city":"OAKLAND","toll free number":"800-201-6874","report category":"DECLINE","app refno":273524193,"geo_score":1.0,"zip code":"94606","isci":"ZWOG2527H/:60","received date":"7/20/2011","decision date":"7/20/2011","source code":"VAA3GT","id":"a66heaucczif","geo_precision":"zip","station":"KRON","state":"CA"},"type":"Feature","geometry":{"type":"Point","coordinates":[-122.243979,37.789927]}},{"properties":{"city":"SAN MATEO","toll free number":"800-201-6874","report category":"APPROVED","app refno":273524425,"geo_score":1.0,"zip code":"94402","isci":"ZWOG2527H/:60","received date":"7/20/2011","decision date":"8/2/2011","source code":"VAA3GT","id":"a66hear6rn0l","geo_precision":"zip","station":"KRON","state":"CA"},"type":"Feature","geometry":{"type":"Point","coordinates":[-122.33063,37.541886]}},{"properties":{"city":"CASTRO VALLEY","toll free number":"800-201-6874","report category":"APPROVED","app refno":273524588,"geo_score":1.0,"zip code":"94546","isci":"ZWOG2527H/:60","received date":"7/20/2011","decision date":"7/21/2011","source code":"VAA3GT","id":"a66heb2i3czq","geo_precision":"zip","station":"KRON","state":"CA"},"type":"Feature","geometry":{"type":"Point","coordinates":[-122.066373,37.731229]}},{"properties":{"city":"SANTA ROSA","toll free number":"800-201-6874","report category":"DECLINE","app refno":273524589,"geo_score":1.0,"zip code":"95405","isci":"ZWOG2527H/:60","received date":"7/20/2011","decision date":"7/20/2011","source code":"VAA3GT","id":"a66heaucyxmo","geo_precision":"zip","station":"KRON","state":"CA"},"type":"Feature","geometry":{"type":"Point","coordinates":[-122.786392,38.444714]}},{"properties":{"city":"FREMONT","toll free number":"800-201-6874","report category":"APPROVED","app refno":273525752,"geo_score":1.0,"zip code":"94536","isci":"ZWOG2527H/:60","received date":"7/21/2011","decision date":"8/1/2011","source code":"VAA3GT","id":"a66heb33e59q","geo_precision":"zip","station":"KRON","state":"CA"},"type":"Feature","geometry":{"type":"Point","coordinates":[-121.982721,37.565285]}},{"properties":{"city":"OAKLAND","toll free number":"800-876-7359","report category":"APPROVED","app refno":273526953,"geo_score":1.0,"zip code":"94601","isci":"ZWOG2524H/:60","received date":"7/21/2011","decision date":"7/21/2011","source code":"VAA3GQ","id":"a66heaz14lp9","geo_precision":"zip","station":"KNTV","state":"CA"},"type":"Feature","geometry":{"type":"Point","coordinates":[-122.223779,37.786027]}},{"properties":{"city":"GUERNEVILLE","toll free number":"800-876-7359","report category":"DECLINE","app refno":273527081,"geo_score":0.87,"zip code":"95446","isci":"ZWOG2524H/:60","received date":"7/21/2011","decision date":"7/21/2011","source code":"VAA3GQ","id":"a66heb23pfny","geo_precision":"zip","station":"KNTV","state":"CA"},"type":"Feature","geometry":{"type":"Point","coordinates":[-123.017222,38.487136]}},{"properties":{"city":"SEBASTOPOL","toll free number":"800-338-9171","report category":"DECLINE","app refno":273527212,"geo_score":0.857,"zip code":"95472","isci":"ZWOG2530H/:120","received date":"7/21/2011","decision date":"7/21/2011","source code":"VAA3GW","id":"a66heb1d819k","geo_precision":"zip","station":"KGO","state":"CA"},"type":"Feature","geometry":{"type":"Point","coordinates":[-122.777768,38.362414]}},{"properties":{"city":"SAN FRANCISCO","toll free number":"800-338-9171","report category":"DECLINE","app refno":273527218,"geo_score":1.0,"zip code":"94131","isci":"ZWOG2530H/:120","received date":"7/21/2011","decision date":"7/21/2011","source code":"VAA3GW","id":"a66heaqetva6","geo_precision":"zip","station":"KGO","state":"CA"},"type":"Feature","geometry":{"type":"Point","coordinates":[-122.443182,37.74363]}},{"properties":{"city":"SAN JOSE","toll free number":"800-338-9171","report category":"DECLINE","app refno":273527222,"geo_score":1.0,"zip code":"95113","isci":"ZWOG2530H/:120","received date":"7/21/2011","decision date":"7/21/2011","source code":"VAA3GW","id":"a66heasvz6me","geo_precision":"zip","station":"KGO","state":"CA"},"type":"Feature","geometry":{"type":"Point","coordinates":[-121.705327,37.189396]}},{"properties":{"city":"PALO ALTO","toll free number":"800-338-9171","report category":"APPROVED","app refno":273527254,"geo_score":1.0,"zip code":"94306","isci":"ZWOG2530H/:120","received date":"7/21/2011","decision date":"7/22/2011","source code":"VAA3GW","id":"a66heauus6ev","geo_precision":"zip","station":"KGO","state":"CA"},"type":"Feature","geometry":{"type":"Point","coordinates":[-121.705327,37.189396]}},{"properties":{"city":"SEBASTOPOL","toll free number":"800-335-4319","report category":"APPROVED","app refno":273527337,"geo_score":0.857,"zip code":"95472","isci":"ZWOG2529H/:60","received date":"7/21/2011","decision date":"7/21/2011","source code":"VAA3GV","id":"a66heb43ke11","geo_precision":"zip","station":"Comcast Cable","state":"CA"},"type":"Feature","geometry":{"type":"Point","coordinates":[-122.777768,38.362414]}},{"properties":{"city":"MOUNTAIN VIEW","toll free number":"800-478-6179","report category":"APPROVED","app refno":273527609,"geo_score":1.0,"zip code":"94042","isci":"ZWOG2531H/:120","received date":"7/21/2011","decision date":"7/21/2011","source code":"VAA3GX","id":"a66heayb8f8y","geo_precision":"zip","station":"KNTV","state":"CA"},"type":"Feature","geometry":{"type":"Point","coordinates":[-121.705327,37.189396]}},{"properties":{"city":"VALLEJO","toll free number":"800-716-6383","report category":"DECLINE","app refno":273528311,"geo_score":1.0,"zip code":"94591","isci":"ZWOG2534H/:120","received date":"7/21/2011","decision date":"7/21/2011","source code":"VAA3GM","id":"a66heazq0a27","geo_precision":"zip","station":"KRON","state":"CA"},"type":"Feature","geometry":{"type":"Point","coordinates":[-122.206292,38.114249]}},{"properties":{"city":"SUISUN CITY","toll free number":"800-716-6383","report category":"DECLINE","app refno":273528313,"geo_score":0.857,"zip code":"94585","isci":"ZWOG2534H/:120","received date":"7/21/2011","decision date":"7/21/2011","source code":"VAA3GM","id":"a66heavr2f1x","geo_precision":"zip","station":"KRON","state":"CA"},"type":"Feature","geometry":{"type":"Point","coordinates":[-122.122191,38.244082]}},{"properties":{"city":"YORKVILLE","toll free number":"800-716-6383","report category":"APPROVED","app refno":273528324,"geo_score":1.0,"zip code":"95494","isci":"ZWOG2534H/:120","received date":"7/21/2011","decision date":"7/22/2011","source code":"VAA3GM","id":"a66hearm0dtj","geo_precision":"zip","station":"KRON","state":"CA"},"type":"Feature","geometry":{"type":"Point","coordinates":[-123.268378,38.934552]}},{"properties":{"city":"SOUTH SAN FRANCISCO","toll free number":"800-716-6383","report category":"APPROVED","app refno":273528385,"geo_score":0.908,"zip code":"94080","isci":"ZWOG2534H/:120","received date":"7/21/2011","decision date":"7/21/2011","source code":"VAA3GM","id":"a66heaplyc8m","geo_precision":"zip","station":"KRON","state":"CA"},"type":"Feature","geometry":{"type":"Point","coordinates":[-122.411361,37.638546]}},{"properties":{"city":"BENICIA","toll free number":"800-876-7359","report category":"APPROVED","app refno":273528448,"geo_score":1.0,"zip code":"945102571","isci":"ZWOG2524H/:60","received date":"7/21/2011","decision date":"7/22/2011","source code":"VAA3GQ","id":"a66heb49ltnc","geo_precision":"zip","station":"KNTV","state":"CA"},"type":"Feature","geometry":{"type":"Point","coordinates":[-122.032061,38.1012]}},{"properties":{"city":"SAN RAMON","toll free number":"877-754-6706","report category":"DECLINE","app refno":273528526,"geo_score":0.786,"zip code":"94582","isci":"ZWOG2526H/:60","received date":"7/21/2011","decision date":"7/21/2011","source code":"VAA3GS","id":"a66heb2753l9","geo_precision":"city","station":"KPIX","state":"CA"},"type":"Feature","geometry":{"type":"Point","coordinates":[-116.976549,33.031572]}},{"properties":{"city":"OAKLAND","toll free number":"877-226-8944","report category":"DECLINE","app refno":273528605,"geo_score":1.0,"zip code":"94621","isci":"ZWOG2525H/:60","received date":"7/21/2011","decision date":"7/21/2011","source code":"VAA3GR","id":"a66heb3pzkm5","geo_precision":"zip","station":"KOFY","state":"CA"},"type":"Feature","geometry":{"type":"Point","coordinates":[-122.196689,37.742529]}},{"properties":{"city":"SAN LEANDRO","toll free number":"800-335-4319","report category":"DECLINE","app refno":273528735,"geo_score":1.0,"zip code":"94578","isci":"ZWOG2529H/:60","received date":"7/21/2011","decision date":"7/21/2011","source code":"VAA3GV","id":"a66heaymnkkt","geo_precision":"zip","station":"Comcast Cable","state":"CA"},"type":"Feature","geometry":{"type":"Point","coordinates":[-122.124225,37.704429]}},{"properties":{"city":"GILROY","toll free number":"800-876-7359","report category":"APPROVED","app refno":273528761,"geo_score":0.857,"zip code":"95020","isci":"ZWOG2524H/:60","received date":"7/21/2011","decision date":"7/22/2011","source code":"VAA3GQ","id":"a66heapeaqau","geo_precision":"zip","station":"KNTV","state":"CA"},"type":"Feature","geometry":{"type":"Point","coordinates":[-121.592165,37.054114]}},{"properties":{"city":"BLACKHAWK","toll free number":"800-335-4319","report category":"DECLINE","app refno":273528777,"geo_score":1.0,"zip code":"94506","isci":"ZWOG2529H/:60","received date":"7/21/2011","decision date":"7/21/2011","source code":"VAA3GV","id":"a66heapk9d5p","geo_precision":"zip","station":"Comcast Cable","state":"CA"},"type":"Feature","geometry":{"type":"Point","coordinates":[-121.907736,37.82076]}},{"properties":{"city":"BERKELEY","toll free number":"877-754-6706","report category":"APPROVED","app refno":273528848,"geo_score":1.0,"zip code":"94705","isci":"ZWOG2526H/:60","received date":"7/21/2011","decision date":"7/22/2011","source code":"VAA3GS","id":"a66heb1tnzad","geo_precision":"zip","station":"KPIX","state":"CA"},"type":"Feature","geometry":{"type":"Point","coordinates":[-122.242029,37.85983]}},{"properties":{"city":"SAN JOSE","toll free number":"800-201-6874","report category":"APPROVED","app refno":273528862,"geo_score":1.0,"zip code":"95116","isci":"ZWOG2527H/:60","received date":"7/21/2011","decision date":"7/27/2011","source code":"VAA3GT","id":"a66heayr84jy","geo_precision":"zip","station":"KRON","state":"CA"},"type":"Feature","geometry":{"type":"Point","coordinates":[-121.835344,37.35504]}},{"properties":{"city":"MOORESBORO","toll free number":"800-201-6874","report category":"DECLINE","app refno":273529075,"geo_score":0.752,"zip code":"28114","isci":"ZWOG2527H/:60","received date":"7/21/2011","decision date":"7/21/2011","source code":"VAA3GT","id":"a66heb2zqiic","geo_precision":"zip","station":"KRON","state":"NC"},"type":"Feature","geometry":{"type":"Point","coordinates":[-79.868125,33.955994]}},{"properties":{"city":"OAKLAND","toll free number":"800-201-6874","report category":"DECLINE","app refno":273529078,"geo_score":1.0,"zip code":"94602","isci":"ZWOG2527H/:60","received date":"7/21/2011","decision date":"7/21/2011","source code":"VAA3GT","id":"a66heaxa1v4t","geo_precision":"zip","station":"KRON","state":"CA"},"type":"Feature","geometry":{"type":"Point","coordinates":[-122.204578,37.802777]}},{"properties":{"city":"OAKLAND","toll free number":"877-226-8944","report category":"DECLINE","app refno":273529115,"geo_score":1.0,"zip code":"94607","isci":"ZWOG2525H/:60","received date":"7/21/2011","decision date":"7/27/2011","source code":"VAA3GR","id":"a66heay1xc84","geo_precision":"zip","station":"KOFY","state":"CA"},"type":"Feature","geometry":{"type":"Point","coordinates":[-122.29878,37.807967]}},{"properties":{"city":"SUNNYVALE","toll free number":"877-754-6706","report category":"APPROVED","app refno":273529118,"geo_score":1.0,"zip code":"94087","isci":"ZWOG2526H/:60","received date":"7/21/2011","decision date":"7/22/2011","source code":"VAA3GS","id":"a66heb0c092b","geo_precision":"zip","station":"KPIX","state":"CA"},"type":"Feature","geometry":{"type":"Point","coordinates":[-121.705327,37.189396]}},{"properties":{"city":"FREMONT","toll free number":"800-335-4319","report category":"DECLINE","app refno":273529225,"geo_score":1.0,"zip code":"94538","isci":"ZWOG2529H/:60","received date":"7/21/2011","decision date":"7/21/2011","source code":"VAA3GV","id":"a66heb36wwhl","geo_precision":"zip","station":"Comcast Cable","state":"CA"},"type":"Feature","geometry":{"type":"Point","coordinates":[-121.95832,37.509453]}},{"properties":{"city":"CLEARLAKE OAKS","toll free number":"800-335-4319","report category":"DECLINE","app refno":273530418,"geo_score":1.0,"zip code":"95423","isci":"ZWOG2529H/:60","received date":"7/22/2011","decision date":"7/22/2011","source code":"VAA3GV","id":"a66heasabldr","geo_precision":"zip","station":"Comcast Cable","state":"CA"},"type":"Feature","geometry":{"type":"Point","coordinates":[-122.620832,38.953387]}},{"properties":{"city":"SANTA ROSA","toll free number":"877-754-6706","report category":"APPROVED","app refno":273530602,"geo_score":0.873,"zip code":"95403","isci":"ZWOG2526H/:60","received date":"7/22/2011","decision date":"7/22/2011","source code":"VAA3GS","id":"a66heauhdmiq","geo_precision":"zip","station":"KPIX","state":"CA"},"type":"Feature","geometry":{"type":"Point","coordinates":[-122.749005,38.498114]}},{"properties":{"city":"SAN RAFAEL","toll free number":"800-201-6874","report category":"APPROVED","app refno":273531056,"geo_score":0.886,"zip code":"94903","isci":"ZWOG2527H/:60","received date":"7/22/2011","decision date":"7/22/2011","source code":"VAA3GT","id":"a66heasp4152","geo_precision":"zip","station":"KRON","state":"CA"},"type":"Feature","geometry":{"type":"Point","coordinates":[-122.5497,38.004089]}},{"properties":{"city":"NAPA","toll free number":"800-201-6874","report category":"APPROVED","app refno":273531646,"geo_score":0.883,"zip code":"94558","isci":"ZWOG2527H/:60","received date":"7/22/2011","decision date":"7/22/2011","source code":"VAA3GT","id":"a66heau7a6eb","geo_precision":"zip","station":"KRON","state":"CA"},"type":"Feature","geometry":{"type":"Point","coordinates":[-122.224975,38.535185]}},{"properties":{"city":"MOUNTAIN VIEW","toll free number":"800-478-6179","report category":"APPROVED","app refno":273531650,"geo_score":1.0,"zip code":"94040","isci":"ZWOG2531H/:120","received date":"7/22/2011","decision date":"7/22/2011","source code":"VAA3GX","id":"a66heb3as5ky","geo_precision":"zip","station":"KNTV","state":"CA"},"type":"Feature","geometry":{"type":"Point","coordinates":[-121.705327,37.189396]}},{"properties":{"city":"ANTIOCH","toll free number":"877-754-6706","report category":"DECLINE","app refno":273531981,"geo_score":1.0,"zip code":"94531","isci":"ZWOG2526H/:60","received date":"7/22/2011","decision date":"7/22/2011","source code":"VAA3GS","id":"a66heb2k3jo0","geo_precision":"zip","station":"KPIX","state":"CA"},"type":"Feature","geometry":{"type":"Point","coordinates":[-121.723919,37.920852]}},{"properties":{"city":"SUNNYVALE","toll free number":"800-211-3740","report category":"DECLINE","app refno":273532341,"geo_score":1.0,"zip code":"94089","isci":"ZWOG2528H/:60","received date":"7/22/2011","decision date":"7/22/2011","source code":"VAA3GU","id":"a66heayrp65k","geo_precision":"zip","station":"KTVU","state":"CA"},"type":"Feature","geometry":{"type":"Point","coordinates":[-121.705327,37.189396]}},{"properties":{"city":"SAN JOSE","toll free number":"800-211-3740","report category":"DECLINE","app refno":273532345,"geo_score":1.0,"zip code":"95111","isci":"ZWOG2528H/:60","received date":"7/28/2011","decision date":"7/28/2011","source code":"VAA3GU","id":"a66heb4c8x4p","geo_precision":"zip","station":"KTVU","state":"CA"},"type":"Feature","geometry":{"type":"Point","coordinates":[-121.800001,37.267947]}},{"properties":{"city":"ANTIOCH","toll free number":"800-211-3740","report category":"DECLINE","app refno":273532349,"geo_score":1.0,"zip code":"94531","isci":"ZWOG2528H/:60","received date":"7/22/2011","decision date":"7/22/2011","source code":"VAA3GU","id":"a66heaplu08a","geo_precision":"zip","station":"KTVU","state":"CA"},"type":"Feature","geometry":{"type":"Point","coordinates":[-121.723919,37.920852]}},{"properties":{"city":"DALY CITY","toll free number":"877-754-6706","report category":"DECLINE","app refno":273532499,"geo_score":0.875,"zip code":"94014","isci":"ZWOG2526H/:60","received date":"7/22/2011","decision date":"7/22/2011","source code":"VAA3GS","id":"a66heb18q4cr","geo_precision":"zip","station":"KPIX","state":"CA"},"type":"Feature","geometry":{"type":"Point","coordinates":[-122.459695,37.676878]}},{"properties":{"city":"CONCORD","toll free number":"800-716-6383","report category":"DECLINE","app refno":273532529,"geo_score":0.898,"zip code":"94520","isci":"ZWOG2534H/:120","received date":"7/22/2011","decision date":"7/22/2011","source code":"VAA3GM","id":"a66heaqsn0ra","geo_precision":"zip","station":"KRON","state":"CA"},"type":"Feature","geometry":{"type":"Point","coordinates":[-121.989405,37.952701]}},{"properties":{"city":"SUNNYVALE","toll free number":"800-211-3740","report category":"APPROVED","app refno":273532665,"geo_score":1.0,"zip code":"94088","isci":"ZWOG2528H/:60","received date":"7/22/2011","decision date":"7/25/2011","source code":"VAA3GU","id":"a66heazhwom4","geo_precision":"zip","station":"KTVU","state":"CA"},"type":"Feature","geometry":{"type":"Point","coordinates":[-121.705327,37.189396]}},{"properties":{"city":"LIVERMORE","toll free number":"800-338-9171","report category":"DECLINE","app refno":273532808,"geo_score":1.0,"zip code":"94551","isci":"ZWOG2530H/:120","received date":"7/22/2011","decision date":"7/22/2011","source code":"VAA3GW","id":"a66heare9564","geo_precision":"zip","station":"KGO","state":"CA"},"type":"Feature","geometry":{"type":"Point","coordinates":[-121.921498,37.680181]}},{"properties":{"city":"MILTON","toll free number":"800-211-3740","report category":"DECLINE","app refno":273532924,"geo_score":0.857,"zip code":"32571","isci":"ZWOG2528H/:60","received date":"7/22/2011","decision date":"7/22/2011","source code":"VAA3GU","id":"a66heapnjbrr","geo_precision":"zip","station":"KTVU","state":"FL"},"type":"Feature","geometry":{"type":"Point","coordinates":[-87.161081,30.59936]}},{"properties":{"city":"EL SOBRANTE","toll free number":"877-754-6706","report category":"DECLINE","app refno":273532932,"geo_score":1.0,"zip code":"94803","isci":"ZWOG2526H/:60","received date":"7/22/2011","decision date":"7/22/2011","source code":"VAA3GS","id":"a66heaw8ml8j","geo_precision":"zip","station":"KPIX","state":"CA"},"type":"Feature","geometry":{"type":"Point","coordinates":[-122.206177,37.966422]}},{"properties":{"city":"PLEASANT HILL","toll free number":"800-876-7359","report category":"APPROVED","app refno":273533232,"geo_score":0.881,"zip code":"94523","isci":"ZWOG2524H/:60","received date":"7/22/2011","decision date":"7/23/2011","source code":"VAA3GQ","id":"a66heb08guyf","geo_precision":"zip","station":"KNTV","state":"CA"},"type":"Feature","geometry":{"type":"Point","coordinates":[-122.052741,37.941312]}},{"properties":{"city":"NEWARK","toll free number":"800-201-6874","report category":"DECLINE","app refno":273533385,"geo_score":1.0,"zip code":"94560","isci":"ZWOG2527H/:60","received date":"7/22/2011","decision date":"7/22/2011","source code":"VAA3GT","id":"a66heb3ne8nu","geo_precision":"zip","station":"KRON","state":"CA"},"type":"Feature","geometry":{"type":"Point","coordinates":[-122.025352,37.534102]}},{"properties":{"city":"LOS ALTOS","toll free number":"800-201-6874","report category":"APPROVED","app refno":273533386,"geo_score":1.0,"zip code":"94024","isci":"ZWOG2527H/:60","received date":"7/22/2011","decision date":"7/28/2011","source code":"VAA3GT","id":"a66heavt96kj","geo_precision":"zip","station":"KRON","state":"CA"},"type":"Feature","geometry":{"type":"Point","coordinates":[-121.705327,37.189396]}},{"properties":{"city":"OAKLAND","toll free number":"800-201-6874","report category":"DECLINE","app refno":273533471,"geo_score":1.0,"zip code":"94610","isci":"ZWOG2527H/:60","received date":"7/22/2011","decision date":"7/22/2011","source code":"VAA3GT","id":"a66hearg2w07","geo_precision":"zip","station":"KRON","state":"CA"},"type":"Feature","geometry":{"type":"Point","coordinates":[-122.238779,37.811277]}},{"properties":{"city":"OAKLAND","toll free number":"877-226-8944","report category":"DECLINE","app refno":273533524,"geo_score":1.0,"zip code":"94621","isci":"ZWOG2525H/:60","received date":"7/22/2011","decision date":"7/22/2011","source code":"VAA3GR","id":"a66hearvxm5h","geo_precision":"zip","station":"KOFY","state":"CA"},"type":"Feature","geometry":{"type":"Point","coordinates":[-122.196689,37.742529]}},{"properties":{"city":"ALAMEDA","toll free number":"800-201-6874","report category":"DECLINE","app refno":273533705,"geo_score":1.0,"zip code":"94501","isci":"ZWOG2527H/:60","received date":"7/22/2011","decision date":"7/28/2011","source code":"VAA3GT","id":"a66heatb5yh5","geo_precision":"zip","station":"KRON","state":"CA"},"type":"Feature","geometry":{"type":"Point","coordinates":[-122.264779,37.770563]}},{"properties":{"city":"SAN FRANCISCO","toll free number":"800-876-7359","report category":"DECLINE","app refno":273535729,"geo_score":1.0,"zip code":"94121","isci":"ZWOG2524H/:60","received date":"7/23/2011","decision date":"7/23/2011","source code":"VAA3GQ","id":"a66heaoywgkv","geo_precision":"zip","station":"KNTV","state":"CA"},"type":"Feature","geometry":{"type":"Point","coordinates":[-122.491682,37.777129]}},{"properties":{"city":"SAN BRUNO","toll free number":"800-876-7359","report category":"DECLINE","app refno":273535736,"geo_score":0.857,"zip code":"94066","isci":"ZWOG2524H/:60","received date":"7/23/2011","decision date":"7/23/2011","source code":"VAA3GQ","id":"a66heas1qnz8","geo_precision":"zip","station":"KNTV","state":"CA"},"type":"Feature","geometry":{"type":"Point","coordinates":[-122.404417,37.616602]}},{"properties":{"city":"LOS GATOS","toll free number":"800-335-4319","report category":"APPROVED","app refno":273535825,"geo_score":1.0,"zip code":"95033","isci":"ZWOG2529H/:60","received date":"7/23/2011","decision date":"7/23/2011","source code":"VAA3GV","id":"a66heay1q7as","geo_precision":"zip","station":"Comcast Cable","state":"CA"},"type":"Feature","geometry":{"type":"Point","coordinates":[-121.705327,37.189396]}},{"properties":{"city":"SAN PABLO","toll free number":"800-335-4319","report category":"APPROVED","app refno":273536019,"geo_score":0.889,"zip code":"94806","isci":"ZWOG2529H/:60","received date":"7/23/2011","decision date":"8/2/2011","source code":"VAA3GV","id":"a66hear3zvbl","geo_precision":"zip","station":"Comcast Cable","state":"CA"},"type":"Feature","geometry":{"type":"Point","coordinates":[-122.316359,37.993534]}},{"properties":{"city":"BURLINGAME","toll free number":"800-335-4319","report category":"APPROVED","app refno":273536033,"geo_score":0.869,"zip code":"94010","isci":"ZWOG2529H/:60","received date":"7/23/2011","decision date":"7/28/2011","source code":"VAA3GV","id":"a66heapxefik","geo_precision":"zip","station":"Comcast Cable","state":"CA"},"type":"Feature","geometry":{"type":"Point","coordinates":[-122.379416,37.574103]}},{"properties":{"city":"SAN RAMON","toll free number":"800-338-9171","report category":"APPROVED","app refno":273536261,"geo_score":1.0,"zip code":"94583","isci":"ZWOG2530H/:120","received date":"7/23/2011","decision date":"7/23/2011","source code":"VAA3GW","id":"a66heb0dkp8s","geo_precision":"zip","station":"KGO","state":"CA"},"type":"Feature","geometry":{"type":"Point","coordinates":[-121.975531,37.768556]}},{"properties":{"city":"WALNUT CREEK","toll free number":"877-226-8944","report category":"DECLINE","app refno":273536402,"geo_score":1.0,"zip code":"94598","isci":"ZWOG2525H/:60","received date":"7/23/2011","decision date":"7/23/2011","source code":"VAA3GR","id":"a66heaxuq641","geo_precision":"zip","station":"KOFY","state":"CA"},"type":"Feature","geometry":{"type":"Point","coordinates":[-122.037045,37.906873]}},{"properties":{"city":"SAN FRANCISCO","toll free number":"800-775-8735","report category":"DECLINE","app refno":273536552,"geo_score":1.0,"zip code":"94124","isci":"ZWOG2523H/:60","received date":"7/23/2011","decision date":"7/23/2011","source code":"VAA3GJ","id":"a66heat380bj","geo_precision":"zip","station":"KGO","state":"CA"},"type":"Feature","geometry":{"type":"Point","coordinates":[-122.382857,37.73123]}},{"properties":{"city":"SAN JOSE","toll free number":"800-775-8735","report category":"DECLINE","app refno":273538072,"geo_score":1.0,"zip code":"95112","isci":"ZWOG2523H/:60","received date":"7/24/2011","decision date":"7/24/2011","source code":"VAA3GJ","id":"a66heazv8cqt","geo_precision":"zip","station":"KGO","state":"CA"},"type":"Feature","geometry":{"type":"Point","coordinates":[-121.892093,37.37004]}},{"properties":{"city":"SAN LEANDRO","toll free number":"800-579-4293","report category":"APPROVED","app refno":273538796,"geo_score":1.0,"zip code":"94577","isci":"ZWOG2533H/:120","received date":"7/24/2011","decision date":"7/25/2011","source code":"VAA3GL","id":"a66heb1n6ves","geo_precision":"zip","station":"KPIX","state":"CA"},"type":"Feature","geometry":{"type":"Point","coordinates":[-122.158621,37.715629]}},{"properties":{"city":"UKIAH","toll free number":"800-211-3740","report category":"DECLINE","app refno":273541028,"geo_score":0.869,"zip code":"95482","isci":"ZWOG2528H/:60","received date":"7/25/2011","decision date":"7/25/2011","source code":"VAA3GU","id":"a66heaqv4pct","geo_precision":"zip","station":"KTVU","state":"CA"},"type":"Feature","geometry":{"type":"Point","coordinates":[-123.158059,39.166837]}},{"properties":{"city":"SAN FRANCISCO","toll free number":"800-338-9171","report category":"APPROVED","app refno":273541392,"geo_score":1.0,"zip code":"94102","isci":"ZWOG2530H/:120","received date":"7/25/2011","decision date":"7/25/2011","source code":"VAA3GW","id":"a66heat6zw84","geo_precision":"zip","station":"KGO","state":"CA"},"type":"Feature","geometry":{"type":"Point","coordinates":[-122.416582,37.779278]}},{"properties":{"city":"ALAMO","toll free number":"800-338-9171","report category":"APPROVED","app refno":273541460,"geo_score":1.0,"zip code":"94507","isci":"ZWOG2530H/:120","received date":"7/25/2011","decision date":"7/25/2011","source code":"VAA3GW","id":"a66heb3jmk5p","geo_precision":"zip","station":"KGO","state":"CA"},"type":"Feature","geometry":{"type":"Point","coordinates":[-122.067431,37.936723]}},{"properties":{"city":"REDWOOD CITY","toll free number":"800-338-9171","report category":"DECLINE","app refno":273541472,"geo_score":1.0,"zip code":"94061","isci":"ZWOG2530H/:120","received date":"7/25/2011","decision date":"7/25/2011","source code":"VAA3GW","id":"a66heas4wi60","geo_precision":"zip","station":"KGO","state":"CA"},"type":"Feature","geometry":{"type":"Point","coordinates":[-122.235639,37.462158]}},{"properties":{"city":"SUNNYVALE","toll free number":"800-211-3740","report category":"APPROVED","app refno":273541515,"geo_score":1.0,"zip code":"94089","isci":"ZWOG2528H/:60","received date":"7/25/2011","decision date":"7/25/2011","source code":"VAA3GU","id":"a66heau4cb56","geo_precision":"zip","station":"KTVU","state":"CA"},"type":"Feature","geometry":{"type":"Point","coordinates":[-121.705327,37.189396]}},{"properties":{"city":"OAKLAND","toll free number":"800-211-3740","report category":"DECLINE","app refno":273541524,"geo_score":1.0,"zip code":"94609","isci":"ZWOG2528H/:60","received date":"7/25/2011","decision date":"7/25/2011","source code":"VAA3GU","id":"a66heb3x2rgi","geo_precision":"zip","station":"KTVU","state":"CA"},"type":"Feature","geometry":{"type":"Point","coordinates":[-122.26328,37.834776]}},{"properties":{"city":"WALNUT CREEK","toll free number":"800-775-8735","report category":"DECLINE","app refno":273541619,"geo_score":1.0,"zip code":"94597","isci":"ZWOG2523H/:60","received date":"7/25/2011","decision date":"7/25/2011","source code":"VAA3GJ","id":"a66heaqhf8aa","geo_precision":"zip","station":"KGO","state":"CA"},"type":"Feature","geometry":{"type":"Point","coordinates":[-121.955399,37.777208]}},{"properties":{"city":"SAN FRANCISCO","toll free number":"800-579-4293","report category":"DECLINE","app refno":273541666,"geo_score":1.0,"zip code":"94115","isci":"ZWOG2533H/:120","received date":"7/25/2011","decision date":"7/25/2011","source code":"VAA3GL","id":"a66heaz26nks","geo_precision":"zip","station":"KPIX","state":"CA"},"type":"Feature","geometry":{"type":"Point","coordinates":[-122.437032,37.786028]}},{"properties":{"city":"SAN MATEO","toll free number":"800-338-9171","report category":"APPROVED","app refno":273541713,"geo_score":1.0,"zip code":"94401","isci":"ZWOG2530H/:120","received date":"7/25/2011","decision date":"7/25/2011","source code":"VAA3GW","id":"a66heb1s1gg9","geo_precision":"zip","station":"KGO","state":"CA"},"type":"Feature","geometry":{"type":"Point","coordinates":[-122.32253,37.573485]}},{"properties":{"city":"SAN FRANCISCO","toll free number":"800-338-9171","report category":"APPROVED","app refno":273541719,"geo_score":1.0,"zip code":"94109","isci":"ZWOG2530H/:120","received date":"7/25/2011","decision date":"7/27/2011","source code":"VAA3GW","id":"a66heb2ig0s1","geo_precision":"zip","station":"KGO","state":"CA"},"type":"Feature","geometry":{"type":"Point","coordinates":[-122.420782,37.795219]}},{"properties":{"city":"SAN LORENZO","toll free number":"800-338-9171","report category":"DECLINE","app refno":273541843,"geo_score":1.0,"zip code":"94580","isci":"ZWOG2530H/:120","received date":"7/25/2011","decision date":"7/25/2011","source code":"VAA3GW","id":"a66heasyal44","geo_precision":"zip","station":"KGO","state":"CA"},"type":"Feature","geometry":{"type":"Point","coordinates":[-122.133825,37.68123]}},{"properties":{"city":"SAN JOSE","toll free number":"800-716-6383","report category":"DECLINE","app refno":273541864,"geo_score":1.0,"zip code":"95111","isci":"ZWOG2534H/:120","received date":"7/25/2011","decision date":"7/25/2011","source code":"VAA3GM","id":"a66heazfepqb","geo_precision":"zip","station":"KRON","state":"CA"},"type":"Feature","geometry":{"type":"Point","coordinates":[-121.800001,37.267947]}},{"properties":{"city":"REDWOOD VALLEY","toll free number":"800-876-7359","report category":"DECLINE","app refno":273542173,"geo_score":1.0,"zip code":"95470","isci":"ZWOG2524H/:60","received date":"7/25/2011","decision date":"7/25/2011","source code":"VAA3GQ","id":"a66heb1oyeed","geo_precision":"zip","station":"KNTV","state":"CA"},"type":"Feature","geometry":{"type":"Point","coordinates":[-123.462532,39.302446]}},{"properties":{"city":"POTTER VALLEY","toll free number":"800-338-9171","report category":"APPROVED","app refno":273542187,"geo_score":1.0,"zip code":"95469","isci":"ZWOG2530H/:120","received date":"7/25/2011","decision date":"7/25/2011","source code":"VAA3GW","id":"a66heatwcqvo","geo_precision":"zip","station":"KGO","state":"CA"},"type":"Feature","geometry":{"type":"Point","coordinates":[-123.106751,39.360935]}},{"properties":{"city":"VALLEJO","toll free number":"800-338-9171","report category":"APPROVED","app refno":273542256,"geo_score":1.0,"zip code":"94591","isci":"ZWOG2530H/:120","received date":"7/25/2011","decision date":"7/25/2011","source code":"VAA3GW","id":"a66heawq14ur","geo_precision":"zip","station":"KGO","state":"CA"},"type":"Feature","geometry":{"type":"Point","coordinates":[-122.206292,38.114249]}},{"properties":{"city":"DALY CITY","toll free number":"800-876-7359","report category":"APPROVED","app refno":273542265,"geo_score":0.857,"zip code":"94015","isci":"ZWOG2524H/:60","received date":"7/25/2011","decision date":"7/25/2011","source code":"VAA3GQ","id":"a66heb3d9axu","geo_precision":"zip","station":"KNTV","state":"CA"},"type":"Feature","geometry":{"type":"Point","coordinates":[-122.482751,37.6866]}},{"properties":{"city":"PACIFICA","toll free number":"800-338-9171","report category":"APPROVED","app refno":273542363,"geo_score":0.875,"zip code":"94044","isci":"ZWOG2530H/:120","received date":"7/25/2011","decision date":"7/25/2011","source code":"VAA3GW","id":"a66heapb4exp","geo_precision":"zip","station":"KGO","state":"CA"},"type":"Feature","geometry":{"type":"Point","coordinates":[-122.480808,37.613547]}},{"properties":{"city":"SAN JOSE","toll free number":"800-338-9171","report category":"DECLINE","app refno":273542444,"geo_score":0.893,"zip code":"95128","isci":"ZWOG2530H/:120","received date":"7/25/2011","decision date":"7/25/2011","source code":"VAA3GW","id":"a66heaseqs6t","geo_precision":"zip","station":"KGO","state":"CA"},"type":"Feature","geometry":{"type":"Point","coordinates":[-121.93079,37.321053]}},{"properties":{"city":"GILROY","toll free number":"800-335-4319","report category":"DECLINE","app refno":273542479,"geo_score":0.857,"zip code":"95020","isci":"ZWOG2529H/:60","received date":"7/25/2011","decision date":"7/25/2011","source code":"VAA3GV","id":"a66heavz815y","geo_precision":"zip","station":"Comcast Cable","state":"CA"},"type":"Feature","geometry":{"type":"Point","coordinates":[-121.592165,37.054114]}},{"properties":{"city":"SAN RAFAEL","toll free number":"800-335-4319","report category":"APPROVED","app refno":273542534,"geo_score":1.0,"zip code":"94901","isci":"ZWOG2529H/:60","received date":"7/25/2011","decision date":"8/1/2011","source code":"VAA3GV","id":"a66heb2uquds","geo_precision":"zip","station":"Comcast Cable","state":"CA"},"type":"Feature","geometry":{"type":"Point","coordinates":[-122.504286,37.970948]}},{"properties":{"city":"SAN RAFAEL","toll free number":"800-335-4319","report category":"APPROVED","app refno":273542752,"geo_score":1.0,"zip code":"94901","isci":"ZWOG2529H/:60","received date":"7/25/2011","decision date":"7/25/2011","source code":"VAA3GV","id":"a66heasofra0","geo_precision":"zip","station":"Comcast Cable","state":"CA"},"type":"Feature","geometry":{"type":"Point","coordinates":[-122.504286,37.970948]}},{"properties":{"city":"NORTH RICHMOND","toll free number":"877-226-8944","report category":"DECLINE","app refno":273542781,"geo_score":1.0,"zip code":"94801","isci":"ZWOG2525H/:60","received date":"7/25/2011","decision date":"7/25/2011","source code":"VAA3GR","id":"a66heb466a3f","geo_precision":"zip","station":"KOFY","state":"CA"},"type":"Feature","geometry":{"type":"Point","coordinates":[-122.367471,37.958813]}},{"properties":{"city":"RICHMOND","toll free number":"800-211-3740","report category":"DECLINE","app refno":273543070,"geo_score":0.945,"zip code":"94801","isci":"ZWOG2528H/:60","received date":"7/25/2011","decision date":"7/25/2011","source code":"VAA3GU","id":"a66heaxghzp2","geo_precision":"zip","station":"KTVU","state":"CA"},"type":"Feature","geometry":{"type":"Point","coordinates":[-122.367471,37.958813]}},{"properties":{"city":"ALAMEDA","toll free number":"800-211-3740","report category":"DECLINE","app refno":273543078,"geo_score":1.0,"zip code":"94501","isci":"ZWOG2528H/:60","received date":"7/25/2011","decision date":"7/25/2011","source code":"VAA3GU","id":"a66heau7jf63","geo_precision":"zip","station":"KTVU","state":"CA"},"type":"Feature","geometry":{"type":"Point","coordinates":[-122.264779,37.770563]}},{"properties":{"city":"ROHNERT PARK","toll free number":"877-226-8944","report category":"DECLINE","app refno":273543084,"geo_score":1.0,"zip code":"94928","isci":"ZWOG2525H/:60","received date":"7/25/2011","decision date":"7/25/2011","source code":"VAA3GR","id":"a66heavoby59","geo_precision":"zip","station":"KOFY","state":"CA"},"type":"Feature","geometry":{"type":"Point","coordinates":[-122.698398,38.345663]}},{"properties":{"city":"ROHNERT PARK","toll free number":"800-211-3740","report category":"DECLINE","app refno":273543090,"geo_score":1.0,"zip code":"94928","isci":"ZWOG2528H/:60","received date":"7/25/2011","decision date":"7/25/2011","source code":"VAA3GU","id":"a66heaqfpo8r","geo_precision":"zip","station":"KTVU","state":"CA"},"type":"Feature","geometry":{"type":"Point","coordinates":[-122.698398,38.345663]}},{"properties":{"city":"WINDSOR","toll free number":"800-338-9171","report category":"APPROVED","app refno":273543269,"geo_score":1.0,"zip code":"95492","isci":"ZWOG2530H/:120","received date":"7/25/2011","decision date":"7/25/2011","source code":"VAA3GW","id":"a66heaxgpukl","geo_precision":"zip","station":"KGO","state":"CA"},"type":"Feature","geometry":{"type":"Point","coordinates":[-122.8041,38.532827]}},{"properties":{"city":"OAKLAND","toll free number":"800-335-4319","report category":"DECLINE","app refno":273543397,"geo_score":1.0,"zip code":"94602","isci":"ZWOG2529H/:60","received date":"7/25/2011","decision date":"7/25/2011","source code":"VAA3GV","id":"a66hearyck1i","geo_precision":"zip","station":"Comcast Cable","state":"CA"},"type":"Feature","geometry":{"type":"Point","coordinates":[-122.204578,37.802777]}},{"properties":{"city":"OAKLAND","toll free number":"800-338-9171","report category":"DECLINE","app refno":273543450,"geo_score":1.0,"zip code":"94602","isci":"ZWOG2530H/:120","received date":"7/25/2011","decision date":"7/25/2011","source code":"VAA3GW","id":"a66heb3m43bh","geo_precision":"zip","station":"KGO","state":"CA"},"type":"Feature","geometry":{"type":"Point","coordinates":[-122.204578,37.802777]}},{"properties":{"city":"DALY CITY","toll free number":"800-211-3740","report category":"DECLINE","app refno":273543537,"geo_score":0.857,"zip code":"94015","isci":"ZWOG2528H/:60","received date":"7/25/2011","decision date":"7/25/2011","source code":"VAA3GU","id":"a66heaymqdxx","geo_precision":"zip","station":"KTVU","state":"CA"},"type":"Feature","geometry":{"type":"Point","coordinates":[-122.482751,37.6866]}},{"properties":{"city":"OAKLAND","toll free number":"800-211-3740","report category":"DECLINE","app refno":273543785,"geo_score":1.0,"zip code":"94609","isci":"ZWOG2528H/:60","received date":"7/25/2011","decision date":"7/25/2011","source code":"VAA3GU","id":"a66heawn436l","geo_precision":"zip","station":"KTVU","state":"CA"},"type":"Feature","geometry":{"type":"Point","coordinates":[-122.26328,37.834776]}},{"properties":{"city":"OAKLAND","toll free number":"800-211-3740","report category":"DECLINE","app refno":273543841,"geo_score":1.0,"zip code":"94605","isci":"ZWOG2528H/:60","received date":"7/25/2011","decision date":"7/25/2011","source code":"VAA3GU","id":"a66heaq0lxe5","geo_precision":"zip","station":"KTVU","state":"CA"},"type":"Feature","geometry":{"type":"Point","coordinates":[-122.156626,37.759322]}},{"properties":{"city":"BERKELEY","toll free number":"877-754-6706","report category":"DECLINE","app refno":273543845,"geo_score":1.0,"zip code":"94702","isci":"ZWOG2526H/:60","received date":"7/25/2011","decision date":"7/25/2011","source code":"VAA3GS","id":"a66heaunta3g","geo_precision":"zip","station":"KPIX","state":"CA"},"type":"Feature","geometry":{"type":"Point","coordinates":[-122.28713,37.864425]}},{"properties":{"city":"SAN JOSE","toll free number":"877-754-6706","report category":"DECLINE","app refno":273543849,"geo_score":0.879,"zip code":"95127","isci":"ZWOG2526H/:60","received date":"7/25/2011","decision date":"7/25/2011","source code":"VAA3GS","id":"a66heaxq3cq0","geo_precision":"zip","station":"KPIX","state":"CA"},"type":"Feature","geometry":{"type":"Point","coordinates":[-121.817453,37.381051]}},{"properties":{"city":"CONCORD","toll free number":"800-211-3740","report category":"DECLINE","app refno":273543857,"geo_score":0.898,"zip code":"94520","isci":"ZWOG2528H/:60","received date":"7/25/2011","decision date":"7/25/2011","source code":"VAA3GU","id":"a66heb0o2l11","geo_precision":"zip","station":"KTVU","state":"CA"},"type":"Feature","geometry":{"type":"Point","coordinates":[-121.989405,37.952701]}},{"properties":{"city":"OAKLEY","toll free number":"800-775-8735","report category":"APPROVED","app refno":273543949,"geo_score":1.0,"zip code":"94561","isci":"ZWOG2523H/:60","received date":"7/25/2011","decision date":"7/26/2011","source code":"VAA3GJ","id":"a66heata61li","geo_precision":"zip","station":"KGO","state":"CA"},"type":"Feature","geometry":{"type":"Point","coordinates":[-121.68972,37.996516]}},{"properties":{"city":"SAN JOSE","toll free number":"800-338-9171","report category":"APPROVED","app refno":273543995,"geo_score":0.879,"zip code":"95127","isci":"ZWOG2530H/:120","received date":"7/25/2011","decision date":"7/25/2011","source code":"VAA3GW","id":"a66heayqvk54","geo_precision":"zip","station":"KGO","state":"CA"},"type":"Feature","geometry":{"type":"Point","coordinates":[-121.817453,37.381051]}},{"properties":{"city":"WALNUT CREEK","toll free number":"800-211-3740","report category":"APPROVED","app refno":273544240,"geo_score":1.0,"zip code":"94598","isci":"ZWOG2528H/:60","received date":"7/25/2011","decision date":"8/2/2011","source code":"VAA3GU","id":"a66heatndbfn","geo_precision":"zip","station":"KTVU","state":"CA"},"type":"Feature","geometry":{"type":"Point","coordinates":[-122.037045,37.906873]}},{"properties":{"city":"SAN JOSE","toll free number":"800-211-3740","report category":"DECLINE","app refno":273544241,"geo_score":0.879,"zip code":"95127","isci":"ZWOG2528H/:60","received date":"7/25/2011","decision date":"7/25/2011","source code":"VAA3GU","id":"a66heb327d14","geo_precision":"zip","station":"KTVU","state":"CA"},"type":"Feature","geometry":{"type":"Point","coordinates":[-121.817453,37.381051]}},{"properties":{"city":"HAYWARD","toll free number":"800-201-6874","report category":"APPROVED","app refno":273544342,"geo_score":0.914,"zip code":"94541","isci":"ZWOG2527H/:60","received date":"7/25/2011","decision date":"7/26/2011","source code":"VAA3GT","id":"a66heaptopr6","geo_precision":"zip","station":"KRON","state":"CA"},"type":"Feature","geometry":{"type":"Point","coordinates":[-122.103297,37.679376]}},{"properties":{"city":"HARBOR","toll free number":"800-201-6874","report category":"DECLINE","app refno":273544635,"geo_score":0.888,"zip code":"97415","isci":"ZWOG2527H/:60","received date":"7/25/2011","decision date":"7/25/2011","source code":"VAA3GT","id":"a66heawo7xcc","geo_precision":"zip","station":"KRON","state":"OR"},"type":"Feature","geometry":{"type":"Point","coordinates":[-124.339546,42.220111]}},{"properties":{"city":"ALAMEDA","toll free number":"800-211-3740","report category":"DECLINE","app refno":273546031,"geo_score":1.0,"zip code":"94501","isci":"ZWOG2528H/:60","received date":"7/26/2011","decision date":"7/26/2011","source code":"VAA3GU","id":"a66heap3ksr2","geo_precision":"zip","station":"KTVU","state":"CA"},"type":"Feature","geometry":{"type":"Point","coordinates":[-122.264779,37.770563]}},{"properties":{"city":"OAKLAND","toll free number":"800-211-3740","report category":"DECLINE","app refno":273546034,"geo_score":1.0,"zip code":"94601","isci":"ZWOG2528H/:60","received date":"7/26/2011","decision date":"7/26/2011","source code":"VAA3GU","id":"a66hearthkwi","geo_precision":"zip","station":"KTVU","state":"CA"},"type":"Feature","geometry":{"type":"Point","coordinates":[-122.223779,37.786027]}},{"properties":{"city":"CONCORD","toll free number":"800-579-4293","report category":"APPROVED","app refno":273546227,"geo_score":0.898,"zip code":"94520","isci":"ZWOG2533H/:120","received date":"7/26/2011","decision date":"7/28/2011","source code":"VAA3GL","id":"a66heb1pr3r0","geo_precision":"zip","station":"KPIX","state":"CA"},"type":"Feature","geometry":{"type":"Point","coordinates":[-121.989405,37.952701]}},{"properties":{"city":"GREENBRAE","toll free number":"800-211-3740","report category":"DECLINE","app refno":273546326,"geo_score":0.873,"zip code":"94904","isci":"ZWOG2528H/:60","received date":"7/26/2011","decision date":"7/26/2011","source code":"VAA3GU","id":"a66heau6lwl3","geo_precision":"zip","station":"KTVU","state":"CA"},"type":"Feature","geometry":{"type":"Point","coordinates":[-122.5572,37.952147]}},{"properties":{"city":"LOS GATOS","toll free number":"800-211-3740","report category":"APPROVED","app refno":273546330,"geo_score":0.875,"zip code":"95030","isci":"ZWOG2528H/:60","received date":"7/26/2011","decision date":"7/26/2011","source code":"VAA3GU","id":"a66heaq26jzx","geo_precision":"zip","station":"KTVU","state":"CA"},"type":"Feature","geometry":{"type":"Point","coordinates":[-121.966348,37.116614]}},{"properties":{"city":"SAN FRANCISCO","toll free number":"800-211-3740","report category":"DECLINE","app refno":273546340,"geo_score":1.0,"zip code":"94109","isci":"ZWOG2528H/:60","received date":"7/26/2011","decision date":"7/26/2011","source code":"VAA3GU","id":"a66heb1tdkuf","geo_precision":"zip","station":"KTVU","state":"CA"},"type":"Feature","geometry":{"type":"Point","coordinates":[-122.420782,37.795219]}},{"properties":{"city":"BAY POINT","toll free number":"800-211-3740","report category":"DECLINE","app refno":273546373,"geo_score":0.879,"zip code":"94565","isci":"ZWOG2528H/:60","received date":"7/26/2011","decision date":"7/26/2011","source code":"VAA3GU","id":"a66heb1jm2mw","geo_precision":"zip","station":"KTVU","state":"CA"},"type":"Feature","geometry":{"type":"Point","coordinates":[-121.937182,38.026865]}},{"properties":{"city":"NOVATO","toll free number":"877-754-6706","report category":"APPROVED","app refno":273546414,"geo_score":0.871,"zip code":"94945","isci":"ZWOG2526H/:60","received date":"7/26/2011","decision date":"7/28/2011","source code":"VAA3GS","id":"a66heapqlfxz","geo_precision":"zip","station":"KPIX","state":"CA"},"type":"Feature","geometry":{"type":"Point","coordinates":[-122.505534,38.110197]}},{"properties":{"city":"FREMONT","toll free number":"877-226-8944","report category":"DECLINE","app refno":273546416,"geo_score":1.0,"zip code":"94538","isci":"ZWOG2525H/:60","received date":"7/26/2011","decision date":"7/26/2011","source code":"VAA3GR","id":"a66heaqa2npc","geo_precision":"zip","station":"KOFY","state":"CA"},"type":"Feature","geometry":{"type":"Point","coordinates":[-121.95832,37.509453]}},{"properties":{"city":"HERCULES","toll free number":"877-754-6706","report category":"APPROVED","app refno":273546426,"geo_score":1.0,"zip code":"94547","isci":"ZWOG2526H/:60","received date":"7/26/2011","decision date":"7/26/2011","source code":"VAA3GS","id":"a66heaqp117h","geo_precision":"zip","station":"KPIX","state":"CA"},"type":"Feature","geometry":{"type":"Point","coordinates":[-122.262101,38.008343]}},{"properties":{"city":"SAN MATEO","toll free number":"800-201-6874","report category":"DECLINE","app refno":273546466,"geo_score":1.0,"zip code":"94402","isci":"ZWOG2527H/:60","received date":"7/26/2011","decision date":"7/26/2011","source code":"VAA3GT","id":"a66heb2y8eb8","geo_precision":"zip","station":"KRON","state":"CA"},"type":"Feature","geometry":{"type":"Point","coordinates":[-122.33063,37.541886]}},{"properties":{"city":"PITTSBURG","toll free number":"800-201-6874","report category":"DECLINE","app refno":273546482,"geo_score":0.956,"zip code":"94565","isci":"ZWOG2527H/:60","received date":"7/26/2011","decision date":"7/26/2011","source code":"VAA3GT","id":"a66heaoyr6fc","geo_precision":"zip","station":"KRON","state":"CA"},"type":"Feature","geometry":{"type":"Point","coordinates":[-121.937182,38.026865]}},{"properties":{"city":"SAN LORENZO","toll free number":"800-201-6874","report category":"DECLINE","app refno":273546488,"geo_score":1.0,"zip code":"94580","isci":"ZWOG2527H/:60","received date":"7/26/2011","decision date":"7/26/2011","source code":"VAA3GT","id":"a66heb32lwue","geo_precision":"zip","station":"KRON","state":"CA"},"type":"Feature","geometry":{"type":"Point","coordinates":[-122.133825,37.68123]}},{"properties":{"city":"SAN JOSE","toll free number":"800-338-9171","report category":"APPROVED","app refno":273546495,"geo_score":0.893,"zip code":"95128","isci":"ZWOG2530H/:120","received date":"7/26/2011","decision date":"7/26/2011","source code":"VAA3GW","id":"a66heau0sji3","geo_precision":"zip","station":"KGO","state":"CA"},"type":"Feature","geometry":{"type":"Point","coordinates":[-121.93079,37.321053]}},{"properties":{"city":"SAN JOSE","toll free number":"800-201-6874","report category":"DECLINE","app refno":273546543,"geo_score":1.0,"zip code":"95125","isci":"ZWOG2527H/:60","received date":"7/26/2011","decision date":"7/26/2011","source code":"VAA3GT","id":"a66heash9u0x","geo_precision":"zip","station":"KRON","state":"CA"},"type":"Feature","geometry":{"type":"Point","coordinates":[-121.705327,37.189396]}},{"properties":{"city":"OAKLEY","toll free number":"800-335-4319","report category":"DECLINE","app refno":273546554,"geo_score":1.0,"zip code":"94561","isci":"ZWOG2529H/:60","received date":"7/26/2011","decision date":"7/26/2011","source code":"VAA3GV","id":"a66heatp5rch","geo_precision":"zip","station":"Comcast Cable","state":"CA"},"type":"Feature","geometry":{"type":"Point","coordinates":[-121.68972,37.996516]}},{"properties":{"city":"SAN RAFAEL","toll free number":"800-211-3740","report category":"APPROVED","app refno":273546585,"geo_score":1.0,"zip code":"94901","isci":"ZWOG2528H/:60","received date":"7/26/2011","decision date":"7/26/2011","source code":"VAA3GU","id":"a66heay1ysjq","geo_precision":"zip","station":"KTVU","state":"CA"},"type":"Feature","geometry":{"type":"Point","coordinates":[-122.504286,37.970948]}},{"properties":{"city":"SUNNYVALE","toll free number":"877-754-6706","report category":"APPROVED","app refno":273546841,"geo_score":1.0,"zip code":"94085","isci":"ZWOG2526H/:60","received date":"7/26/2011","decision date":"7/26/2011","source code":"VAA3GS","id":"a66heapds447","geo_precision":"zip","station":"KPIX","state":"CA"},"type":"Feature","geometry":{"type":"Point","coordinates":[-122.026548,37.385697]}},{"properties":{"city":"SAN JOSE","toll free number":"800-338-9171","report category":"DECLINE","app refno":273546984,"geo_score":1.0,"zip code":"951294812","isci":"ZWOG2530H/:120","received date":"7/26/2011","decision date":"7/26/2011","source code":"VAA3GW","id":"a66heaxx9lig","geo_precision":"zip","station":"KGO","state":"CA"},"type":"Feature","geometry":{"type":"Point","coordinates":[-121.705327,37.189396]}},{"properties":{"city":"SAN MATEO","toll free number":"800-211-3740","report category":"DECLINE","app refno":273547015,"geo_score":1.0,"zip code":"94403","isci":"ZWOG2528H/:60","received date":"7/26/2011","decision date":"7/26/2011","source code":"VAA3GU","id":"a66heaoq7rdd","geo_precision":"zip","station":"KTVU","state":"CA"},"type":"Feature","geometry":{"type":"Point","coordinates":[-122.304079,37.541486]}},{"properties":{"city":"SAN LEANDRO","toll free number":"800-211-3740","report category":"DECLINE","app refno":273547179,"geo_score":1.0,"zip code":"94578","isci":"ZWOG2528H/:60","received date":"7/26/2011","decision date":"7/26/2011","source code":"VAA3GU","id":"a66hearaih7i","geo_precision":"zip","station":"KTVU","state":"CA"},"type":"Feature","geometry":{"type":"Point","coordinates":[-122.124225,37.704429]}},{"properties":{"city":"ANTIOCH","toll free number":"800-201-6874","report category":"DECLINE","app refno":273547203,"geo_score":1.0,"zip code":"94531","isci":"ZWOG2527H/:60","received date":"7/26/2011","decision date":"7/26/2011","source code":"VAA3GT","id":"a66heavgquvx","geo_precision":"zip","station":"KRON","state":"CA"},"type":"Feature","geometry":{"type":"Point","coordinates":[-121.723919,37.920852]}},{"properties":{"city":"OAKLAND","toll free number":"800-338-9171","report category":"DECLINE","app refno":273547241,"geo_score":1.0,"zip code":"94610","isci":"ZWOG2530H/:120","received date":"7/26/2011","decision date":"7/26/2011","source code":"VAA3GW","id":"a66heb2vexbr","geo_precision":"zip","station":"KGO","state":"CA"},"type":"Feature","geometry":{"type":"Point","coordinates":[-122.238779,37.811277]}},{"properties":{"city":"MORGAN HILL","toll free number":"800-338-9171","report category":"DECLINE","app refno":273547257,"geo_score":0.871,"zip code":"95037","isci":"ZWOG2530H/:120","received date":"7/26/2011","decision date":"7/26/2011","source code":"VAA3GW","id":"a66heb2cr01o","geo_precision":"zip","station":"KGO","state":"CA"},"type":"Feature","geometry":{"type":"Point","coordinates":[-121.706337,37.183556]}},{"properties":{"city":"SAN RAFAEL","toll free number":"800-201-6874","report category":"DECLINE","app refno":273547266,"geo_score":1.0,"zip code":"94901","isci":"ZWOG2527H/:60","received date":"7/26/2011","decision date":"7/26/2011","source code":"VAA3GT","id":"a66heb006u48","geo_precision":"zip","station":"KRON","state":"CA"},"type":"Feature","geometry":{"type":"Point","coordinates":[-122.504286,37.970948]}},{"properties":{"city":"CASTRO VALLEY","toll free number":"800-338-9171","report category":"APPROVED","app refno":273547294,"geo_score":1.0,"zip code":"94546","isci":"ZWOG2530H/:120","received date":"7/26/2011","decision date":"7/27/2011","source code":"VAA3GW","id":"a66heb0ya5cr","geo_precision":"zip","station":"KGO","state":"CA"},"type":"Feature","geometry":{"type":"Point","coordinates":[-122.066373,37.731229]}},{"properties":{"city":"SOUTH SAN FRANCISCO","toll free number":"800-211-3740","report category":"APPROVED","app refno":273547534,"geo_score":0.908,"zip code":"94080","isci":"ZWOG2528H/:60","received date":"7/26/2011","decision date":"8/5/2011","source code":"VAA3GU","id":"a66heapmm5gd","geo_precision":"zip","station":"KTVU","state":"CA"},"type":"Feature","geometry":{"type":"Point","coordinates":[-122.411361,37.638546]}},{"properties":{"city":"HERCULES","toll free number":"877-754-6706","report category":"DECLINE","app refno":273547746,"geo_score":1.0,"zip code":"94547","isci":"ZWOG2526H/:60","received date":"7/26/2011","decision date":"7/26/2011","source code":"VAA3GS","id":"a66heapr840k","geo_precision":"zip","station":"KPIX","state":"CA"},"type":"Feature","geometry":{"type":"Point","coordinates":[-122.262101,38.008343]}},{"properties":{"city":"ROHNERT PARK","toll free number":"800-211-3740","report category":"APPROVED","app refno":273547947,"geo_score":1.0,"zip code":"94928","isci":"ZWOG2528H/:60","received date":"7/26/2011","decision date":"7/26/2011","source code":"VAA3GU","id":"a66heb3ozx95","geo_precision":"zip","station":"KTVU","state":"CA"},"type":"Feature","geometry":{"type":"Point","coordinates":[-122.698398,38.345663]}},{"properties":{"city":"PLEASANTON","toll free number":"800-338-9171","report category":"APPROVED","app refno":273547956,"geo_score":1.0,"zip code":"94566","isci":"ZWOG2530H/:120","received date":"7/26/2011","decision date":"7/26/2011","source code":"VAA3GW","id":"a66heaufdh7a","geo_precision":"zip","station":"KGO","state":"CA"},"type":"Feature","geometry":{"type":"Point","coordinates":[-121.862128,37.646081]}},{"properties":{"city":"SAN FRANCISCO","toll free number":"800-338-9171","report category":"DECLINE","app refno":273547997,"geo_score":1.0,"zip code":"94132","isci":"ZWOG2530H/:120","received date":"7/26/2011","decision date":"7/26/2011","source code":"VAA3GW","id":"a66heb24sshr","geo_precision":"zip","station":"KGO","state":"CA"},"type":"Feature","geometry":{"type":"Point","coordinates":[-122.482483,37.722631]}},{"properties":{"city":"SAN JOSE","toll free number":"800-211-3740","report category":"DECLINE","app refno":273548000,"geo_score":1.0,"zip code":"95125","isci":"ZWOG2528H/:60","received date":"7/26/2011","decision date":"7/26/2011","source code":"VAA3GU","id":"a66hear9435d","geo_precision":"zip","station":"KTVU","state":"CA"},"type":"Feature","geometry":{"type":"Point","coordinates":[-121.705327,37.189396]}},{"properties":{"city":"SANTA ROSA","toll free number":"800-338-9171","report category":"DECLINE","app refno":273548037,"geo_score":0.889,"zip code":"95401","isci":"ZWOG2530H/:120","received date":"7/26/2011","decision date":"7/26/2011","source code":"VAA3GW","id":"a66heb4kshth","geo_precision":"zip","station":"KGO","state":"CA"},"type":"Feature","geometry":{"type":"Point","coordinates":[-122.851937,38.48519]}},{"properties":{"city":"OAKLAND","toll free number":"800-211-3740","report category":"APPROVED","app refno":273548073,"geo_score":1.0,"zip code":"94605","isci":"ZWOG2528H/:60","received date":"7/26/2011","decision date":"7/26/2011","source code":"VAA3GU","id":"a66heazvs9fx","geo_precision":"zip","station":"KTVU","state":"CA"},"type":"Feature","geometry":{"type":"Point","coordinates":[-122.156626,37.759322]}},{"properties":{"city":"WINDSOR","toll free number":"800-338-9171","report category":"APPROVED","app refno":273548081,"geo_score":1.0,"zip code":"95492","isci":"ZWOG2530H/:120","received date":"7/26/2011","decision date":"7/26/2011","source code":"VAA3GW","id":"a66heb2569tk","geo_precision":"zip","station":"KGO","state":"CA"},"type":"Feature","geometry":{"type":"Point","coordinates":[-122.8041,38.532827]}},{"properties":{"city":"COLUMBUS","toll free number":"800-338-9171","report category":"DECLINE","app refno":273548286,"geo_score":1.0,"zip code":"43219","isci":"ZWOG2530H/:120","received date":"7/26/2011","decision date":"7/26/2011","source code":"VAA3GW","id":"a66heaskloe0","geo_precision":"zip","station":"KGO","state":"OH"},"type":"Feature","geometry":{"type":"Point","coordinates":[-82.910251,40.032615]}},{"properties":{"city":"FAIRFIELD","toll free number":"800-201-6874","report category":"APPROVED","app refno":273548415,"geo_score":0.889,"zip code":"94534","isci":"ZWOG2527H/:60","received date":"7/26/2011","decision date":"7/27/2011","source code":"VAA3GT","id":"a66hear8aa5p","geo_precision":"zip","station":"KRON","state":"CA"},"type":"Feature","geometry":{"type":"Point","coordinates":[-122.264316,38.107945]}},{"properties":{"city":"HILLSBOROUGH","toll free number":"800-483-4499","report category":"APPROVED","app refno":273548460,"geo_score":1.0,"zip code":"94010","isci":"ZWOG2532H/:120","received date":"7/26/2011","decision date":"8/18/2011","source code":"VAA3GK","id":"a66heb1qzsbt","geo_precision":"zip","station":"KNTV2","state":"CA"},"type":"Feature","geometry":{"type":"Point","coordinates":[-122.379416,37.574103]}},{"properties":{"city":"SAN FRANCISCO","toll free number":"800-478-6179","report category":"DECLINE","app refno":273548481,"geo_score":1.0,"zip code":"94102","isci":"ZWOG2531H/:120","received date":"7/26/2011","decision date":"7/26/2011","source code":"VAA3GX","id":"a66heazrtixt","geo_precision":"zip","station":"KNTV","state":"CA"},"type":"Feature","geometry":{"type":"Point","coordinates":[-122.416582,37.779278]}},{"properties":{"city":"OAKLAND","toll free number":"800-335-4319","report category":"DECLINE","app refno":273548702,"geo_score":1.0,"zip code":"94612","isci":"ZWOG2529H/:60","received date":"7/26/2011","decision date":"7/26/2011","source code":"VAA3GV","id":"a66heaz94xwm","geo_precision":"zip","station":"Comcast Cable","state":"CA"},"type":"Feature","geometry":{"type":"Point","coordinates":[-122.27018,37.809435]}},{"properties":{"city":"CASTRO VALLEY","toll free number":"800-211-3740","report category":"DECLINE","app refno":273548717,"geo_score":1.0,"zip code":"94546","isci":"ZWOG2528H/:60","received date":"7/26/2011","decision date":"7/26/2011","source code":"VAA3GU","id":"a66heb2exymk","geo_precision":"zip","station":"KTVU","state":"CA"},"type":"Feature","geometry":{"type":"Point","coordinates":[-122.066373,37.731229]}},{"properties":{"city":"FORT BRAGG","toll free number":"800-211-3740","report category":"DECLINE","app refno":273548725,"geo_score":0.881,"zip code":"95437","isci":"ZWOG2528H/:60","received date":"7/26/2011","decision date":"7/26/2011","source code":"VAA3GU","id":"a66heaq97m8t","geo_precision":"zip","station":"KTVU","state":"CA"},"type":"Feature","geometry":{"type":"Point","coordinates":[-123.690569,39.441]}},{"properties":{"city":"UKIAH","toll free number":"800-211-3740","report category":"DECLINE","app refno":273548800,"geo_score":0.869,"zip code":"95482","isci":"ZWOG2528H/:60","received date":"7/26/2011","decision date":"7/26/2011","source code":"VAA3GU","id":"a66heb39k126","geo_precision":"zip","station":"KTVU","state":"CA"},"type":"Feature","geometry":{"type":"Point","coordinates":[-123.158059,39.166837]}},{"properties":{"city":"MARTINEZ","toll free number":"800-876-7359","report category":"DECLINE","app refno":273548946,"geo_score":0.857,"zip code":"94553","isci":"ZWOG2524H/:60","received date":"7/26/2011","decision date":"7/26/2011","source code":"VAA3GQ","id":"a66heb0ry6vc","geo_precision":"zip","station":"KNTV","state":"CA"},"type":"Feature","geometry":{"type":"Point","coordinates":[-122.096075,38.008533]}},{"properties":{"city":"SANTA ROSA","toll free number":"800-876-7359","report category":"DECLINE","app refno":273548948,"geo_score":1.0,"zip code":"95406","isci":"ZWOG2524H/:60","received date":"7/26/2011","decision date":"7/26/2011","source code":"VAA3GQ","id":"a66heb0jcf8w","geo_precision":"zip","station":"KNTV","state":"CA"},"type":"Feature","geometry":{"type":"Point","coordinates":[-122.715654,38.459575]}},{"properties":{"city":"SANTA ROSA","toll free number":"800-211-3740","report category":"DECLINE","app refno":273548960,"geo_score":0.873,"zip code":"95403","isci":"ZWOG2528H/:60","received date":"7/26/2011","decision date":"7/26/2011","source code":"VAA3GU","id":"a66heb4lrhzz","geo_precision":"zip","station":"KTVU","state":"CA"},"type":"Feature","geometry":{"type":"Point","coordinates":[-122.749005,38.498114]}},{"properties":{"city":"SAN JOSE","toll free number":"800-211-3740","report category":"APPROVED","app refno":273548963,"geo_score":1.0,"zip code":"95121","isci":"ZWOG2528H/:60","received date":"7/26/2011","decision date":"7/29/2011","source code":"VAA3GU","id":"a66heb0b0c84","geo_precision":"zip","station":"KTVU","state":"CA"},"type":"Feature","geometry":{"type":"Point","coordinates":[-121.797977,37.298592]}},{"properties":{"city":"PINOLE","toll free number":"800-211-3740","report category":"DECLINE","app refno":273548965,"geo_score":1.0,"zip code":"94564","isci":"ZWOG2528H/:60","received date":"7/26/2011","decision date":"7/26/2011","source code":"VAA3GU","id":"a66heaxklo85","geo_precision":"zip","station":"KTVU","state":"CA"},"type":"Feature","geometry":{"type":"Point","coordinates":[-122.243294,37.990772]}},{"properties":{"city":"LODI","toll free number":"800-211-3740","report category":"DECLINE","app refno":273548966,"geo_score":0.873,"zip code":"95240","isci":"ZWOG2528H/:60","received date":"7/26/2011","decision date":"7/26/2011","source code":"VAA3GU","id":"a66heaop8p5i","geo_precision":"zip","station":"KTVU","state":"CA"},"type":"Feature","geometry":{"type":"Point","coordinates":[-121.495508,38.113252]}},{"properties":{"city":"NAPA","toll free number":"800-211-3740","report category":"DECLINE","app refno":273548967,"geo_score":0.893,"zip code":"94559","isci":"ZWOG2528H/:60","received date":"7/26/2011","decision date":"7/26/2011","source code":"VAA3GU","id":"a66heb1bveeu","geo_precision":"zip","station":"KTVU","state":"CA"},"type":"Feature","geometry":{"type":"Point","coordinates":[-122.320809,38.340747]}},{"properties":{"city":"SAN FRANCISCO","toll free number":"800-775-8735","report category":"DECLINE","app refno":273548973,"geo_score":1.0,"zip code":"94115","isci":"ZWOG2523H/:60","received date":"7/26/2011","decision date":"7/28/2011","source code":"VAA3GJ","id":"a66heb0ll4t3","geo_precision":"zip","station":"KGO","state":"CA"},"type":"Feature","geometry":{"type":"Point","coordinates":[-122.437032,37.786028]}},{"properties":{"city":"OAKLAND","toll free number":"800-775-8735","report category":"DECLINE","app refno":273548974,"geo_score":1.0,"zip code":"94605","isci":"ZWOG2523H/:60","received date":"7/26/2011","decision date":"7/26/2011","source code":"VAA3GJ","id":"a66heaza9900","geo_precision":"zip","station":"KGO","state":"CA"},"type":"Feature","geometry":{"type":"Point","coordinates":[-122.156626,37.759322]}},{"properties":{"city":"NAPA","toll free number":"800-775-8735","report category":"DECLINE","app refno":273548984,"geo_score":0.883,"zip code":"94558","isci":"ZWOG2523H/:60","received date":"7/26/2011","decision date":"7/26/2011","source code":"VAA3GJ","id":"a66heb29w09z","geo_precision":"zip","station":"KGO","state":"CA"},"type":"Feature","geometry":{"type":"Point","coordinates":[-122.224975,38.535185]}},{"properties":{"city":"VALLEJO","toll free number":"800-211-3740","report category":"DECLINE","app refno":273548997,"geo_score":0.881,"zip code":"94590","isci":"ZWOG2528H/:60","received date":"7/26/2011","decision date":"7/26/2011","source code":"VAA3GU","id":"a66heasqemnt","geo_precision":"zip","station":"KTVU","state":"CA"},"type":"Feature","geometry":{"type":"Point","coordinates":[-122.250804,38.187418]}},{"properties":{"city":"OAKLAND","toll free number":"800-211-3740","report category":"DECLINE","app refno":273549012,"geo_score":1.0,"zip code":"94601","isci":"ZWOG2528H/:60","received date":"7/26/2011","decision date":"7/26/2011","source code":"VAA3GU","id":"a66heaxrq0s7","geo_precision":"zip","station":"KTVU","state":"CA"},"type":"Feature","geometry":{"type":"Point","coordinates":[-122.223779,37.786027]}},{"properties":{"city":"SAN JOSE","toll free number":"800-201-6874","report category":"DECLINE","app refno":273549079,"geo_score":1.0,"zip code":"95126","isci":"ZWOG2527H/:60","received date":"7/26/2011","decision date":"7/26/2011","source code":"VAA3GT","id":"a66heaspqzs6","geo_precision":"zip","station":"KRON","state":"CA"},"type":"Feature","geometry":{"type":"Point","coordinates":[-121.705327,37.189396]}},{"properties":{"city":"OAKLAND","toll free number":"800-201-6874","report category":"DECLINE","app refno":273549080,"geo_score":1.0,"zip code":"94605","isci":"ZWOG2527H/:60","received date":"7/26/2011","decision date":"7/26/2011","source code":"VAA3GT","id":"a66heaoowr9w","geo_precision":"zip","station":"KRON","state":"CA"},"type":"Feature","geometry":{"type":"Point","coordinates":[-122.156626,37.759322]}},{"properties":{"city":"DALY CITY","toll free number":"800-201-6874","report category":"DECLINE","app refno":273549285,"geo_score":0.875,"zip code":"94014","isci":"ZWOG2527H/:60","received date":"7/26/2011","decision date":"7/26/2011","source code":"VAA3GT","id":"a66heausm8vk","geo_precision":"zip","station":"KRON","state":"CA"},"type":"Feature","geometry":{"type":"Point","coordinates":[-122.459695,37.676878]}},{"properties":{"city":"FAIRFAX","toll free number":"800-201-6874","report category":"APPROVED","app refno":273549325,"geo_score":0.878,"zip code":"94930","isci":"ZWOG2527H/:60","received date":"7/26/2011","decision date":"7/28/2011","source code":"VAA3GT","id":"a66heb1jwf1y","geo_precision":"zip","station":"KRON","state":"CA"},"type":"Feature","geometry":{"type":"Point","coordinates":[-122.590813,37.990757]}},{"properties":{"city":"OAKLAND","toll free number":"877-226-8944","report category":"DECLINE","app refno":273549338,"geo_score":1.0,"zip code":"94605","isci":"ZWOG2525H/:60","received date":"7/26/2011","decision date":"7/26/2011","source code":"VAA3GR","id":"a66heaz8lnan","geo_precision":"zip","station":"KOFY","state":"CA"},"type":"Feature","geometry":{"type":"Point","coordinates":[-122.156626,37.759322]}},{"properties":{"city":"OAKLAND","toll free number":"800-211-3740","report category":"DECLINE","app refno":273549373,"geo_score":1.0,"zip code":"94621","isci":"ZWOG2528H/:60","received date":"7/26/2011","decision date":"7/29/2011","source code":"VAA3GU","id":"a66heazrsd9x","geo_precision":"zip","station":"KTVU","state":"CA"},"type":"Feature","geometry":{"type":"Point","coordinates":[-122.196689,37.742529]}},{"properties":{"city":"SUNNYVALE","toll free number":"800-201-6874","report category":"DECLINE","app refno":273549521,"geo_score":1.0,"zip code":"94087","isci":"ZWOG2527H/:60","received date":"7/26/2011","decision date":"7/29/2011","source code":"VAA3GT","id":"a66heau6diyu","geo_precision":"zip","station":"KRON","state":"CA"},"type":"Feature","geometry":{"type":"Point","coordinates":[-121.705327,37.189396]}},{"properties":{"city":"OAKLAND","toll free number":"800-211-3740","report category":"DECLINE","app refno":273550770,"geo_score":1.0,"zip code":"94602","isci":"ZWOG2528H/:60","received date":"7/27/2011","decision date":"7/27/2011","source code":"VAA3GU","id":"a66heay186xw","geo_precision":"zip","station":"KTVU","state":"CA"},"type":"Feature","geometry":{"type":"Point","coordinates":[-122.204578,37.802777]}},{"properties":{"city":"SAN RAFAEL","toll free number":"800-211-3740","report category":"DECLINE","app refno":273550772,"geo_score":1.0,"zip code":"94901","isci":"ZWOG2528H/:60","received date":"7/27/2011","decision date":"7/27/2011","source code":"VAA3GU","id":"a66heaz8hryw","geo_precision":"zip","station":"KTVU","state":"CA"},"type":"Feature","geometry":{"type":"Point","coordinates":[-122.504286,37.970948]}},{"properties":{"city":"SUNNYVALE","toll free number":"800-201-6874","report category":"APPROVED","app refno":273551089,"geo_score":1.0,"zip code":"94087","isci":"ZWOG2527H/:60","received date":"7/27/2011","decision date":"7/28/2011","source code":"VAA3GT","id":"a66heaze84pu","geo_precision":"zip","station":"KRON","state":"CA"},"type":"Feature","geometry":{"type":"Point","coordinates":[-121.705327,37.189396]}},{"properties":{"city":"SANTA ROSA","toll free number":"800-775-8735","report category":"APPROVED","app refno":273551389,"geo_score":1.0,"zip code":"95404","isci":"ZWOG2523H/:60","received date":"7/27/2011","decision date":"7/27/2011","source code":"VAA3GJ","id":"a66heazz8c7e","geo_precision":"zip","station":"KGO","state":"CA"},"type":"Feature","geometry":{"type":"Point","coordinates":[-122.656296,38.452642]}},{"properties":{"city":"OAKLAND","toll free number":"800-201-6874","report category":"DECLINE","app refno":273551403,"geo_score":1.0,"zip code":"94601","isci":"ZWOG2527H/:60","received date":"7/27/2011","decision date":"7/27/2011","source code":"VAA3GT","id":"a66heaqyp0ct","geo_precision":"zip","station":"KRON","state":"CA"},"type":"Feature","geometry":{"type":"Point","coordinates":[-122.223779,37.786027]}},{"properties":{"city":"SAN FRANCISCO","toll free number":"800-201-6874","report category":"DECLINE","app refno":273551405,"geo_score":1.0,"zip code":"94124","isci":"ZWOG2527H/:60","received date":"7/27/2011","decision date":"7/27/2011","source code":"VAA3GT","id":"a66heawrhvzj","geo_precision":"zip","station":"KRON","state":"CA"},"type":"Feature","geometry":{"type":"Point","coordinates":[-122.382857,37.73123]}},{"properties":{"city":"SEBASTOPOL","toll free number":"800-201-6874","report category":"DECLINE","app refno":273551413,"geo_score":0.857,"zip code":"95472","isci":"ZWOG2527H/:60","received date":"7/27/2011","decision date":"7/27/2011","source code":"VAA3GT","id":"a66heb0a58yy","geo_precision":"zip","station":"KRON","state":"CA"},"type":"Feature","geometry":{"type":"Point","coordinates":[-122.777768,38.362414]}},{"properties":{"city":"EMERYVILLE","toll free number":"800-201-6874","report category":"DECLINE","app refno":273551415,"geo_score":1.0,"zip code":"94608","isci":"ZWOG2527H/:60","received date":"7/27/2011","decision date":"7/27/2011","source code":"VAA3GT","id":"a66heapqzb37","geo_precision":"zip","station":"KRON","state":"CA"},"type":"Feature","geometry":{"type":"Point","coordinates":[-122.29548,37.833876]}},{"properties":{"city":"BRENTWOOD","toll free number":"800-201-6874","report category":"DECLINE","app refno":273551419,"geo_score":1.0,"zip code":"94513","isci":"ZWOG2527H/:60","received date":"7/27/2011","decision date":"7/27/2011","source code":"VAA3GT","id":"a66heashpox9","geo_precision":"zip","station":"KRON","state":"CA"},"type":"Feature","geometry":{"type":"Point","coordinates":[-121.843071,37.912274]}},{"properties":{"city":"SAN LEANDRO","toll free number":"800-211-3740","report category":"DECLINE","app refno":273551625,"geo_score":1.0,"zip code":"94578","isci":"ZWOG2528H/:60","received date":"7/27/2011","decision date":"7/27/2011","source code":"VAA3GU","id":"a66heb3nkkwg","geo_precision":"zip","station":"KTVU","state":"CA"},"type":"Feature","geometry":{"type":"Point","coordinates":[-122.124225,37.704429]}},{"properties":{"city":"RICHMOND","toll free number":"800-211-3740","report category":"DECLINE","app refno":273551658,"geo_score":1.0,"zip code":"94804","isci":"ZWOG2528H/:60","received date":"7/27/2011","decision date":"7/27/2011","source code":"VAA3GU","id":"a66heaosxuqh","geo_precision":"zip","station":"KTVU","state":"CA"},"type":"Feature","geometry":{"type":"Point","coordinates":[-122.344381,37.925174]}},{"properties":{"city":"BERKELEY","toll free number":"877-226-8944","report category":"DECLINE","app refno":273551870,"geo_score":1.0,"zip code":"94702","isci":"ZWOG2525H/:60","received date":"7/27/2011","decision date":"7/27/2011","source code":"VAA3GR","id":"a66heaohkvy1","geo_precision":"zip","station":"KOFY","state":"CA"},