{"type":"FeatureCollection","data_type":"Dataset","url_type":null,"permissions":[{"permissions":{"download":true,"view":true},"group_id":"everyone"}],"classification":null,"title":"Fastest growing cities in US, 2007-2008","count":25,"stream_id":17507,"contributor":{"url":"http://geocommons.com/users/7019","name":"cherylmorton"},"data_attributes":null,"calculation_params":null,"icon_link":null,"link":"http://geocommons.com/overlays/17507.json","extent":[-121.283,29.9741,-77.0485,39.8716],"geometry_types":["point"],"unique_name":null,"name":"Fastest growing cities in US, 2007-2008","feature_count":25,"description":"","next_feature":null,"is_raster":false,"short_classification":"Y","stats":{"number":{"max":24413.0,"mean":8933.48,"variance":40553497.4266667,"stdev":6368.16279837966,"min":3126.0,"median":6578.0},"geo_score":{"max":0.681,"mean":0.60116,"variance":0.00386164,"stdev":0.0621420952334245,"min":0.408,"median":0.615},"july 1, 2007":{"max":678660.0,"mean":244846.32,"variance":33041607068.9767,"stdev":181773.504859693,"min":96569.0,"median":199842.0},"july 1, 2008":{"max":703073.0,"mean":253779.8,"variance":35043068133.3333,"stdev":187197.938378961,"min":101624.0,"median":207500.0},"percent":{"max":8.2,"mean":3.888,"variance":2.5361,"stdev":1.59251373620449,"min":2.7,"median":3.4}},"features":[{"properties":{"place":"Alexandria city","number":4037.0,"geo_score":0.635,"july 1, 2007":139848.0,"july 1, 2008":143885.0,"id":"a6359efzez93","geo_precision":"street","percent":2.9,"state":"Virginia"},"type":"Feature","geometry":{"type":"Point","coordinates":[-77.048459,38.746761]}},{"properties":{"place":"Arlington CDP","number":6060.0,"geo_score":0.675,"july 1, 2007":203909.0,"july 1, 2008":209969.0,"id":"a6359ep8fe4p","geo_precision":"street","percent":3.0,"state":"Virginia"},"type":"Feature","geometry":{"type":"Point","coordinates":[-77.299131,37.289308]}},{"properties":{"place":"Atlanta city","number":17590.0,"geo_score":0.618,"july 1, 2007":520368.0,"july 1, 2008":537958.0,"id":"a6359egr8obv","geo_precision":"street","percent":3.4,"state":"Georgia"},"type":"Feature","geometry":{"type":"Point","coordinates":[-84.434525,33.68119]}},{"properties":{"place":"Aurora city","number":8606.0,"geo_score":0.639,"july 1, 2007":310451.0,"july 1, 2008":319057.0,"id":"a6359eg7e0mn","geo_precision":"street","percent":2.8,"state":"Colorado"},"type":"Feature","geometry":{"type":"Point","coordinates":[-104.72405,39.574252]}},{"properties":{"place":"Cary town","number":8389.0,"geo_score":0.621,"july 1, 2007":121156.0,"july 1, 2008":129545.0,"id":"a6359ejydum4","geo_precision":"street","percent":6.9,"state":"North Carolina"},"type":"Feature","geometry":{"type":"Point","coordinates":[-78.767365,35.775425]}},{"properties":{"place":"Charlotte city","number":18251.0,"geo_score":0.681,"july 1, 2007":669205.0,"july 1, 2008":687456.0,"id":"a6359erfjmk2","geo_precision":"street","percent":2.7,"state":"North Carolina"},"type":"Feature","geometry":{"type":"Point","coordinates":[-80.846007,35.201609]}},{"properties":{"place":"Denton city","number":3489.0,"geo_score":0.61,"july 1, 2007":115965.0,"july 1, 2008":119454.0,"id":"a6359eqsg0dh","geo_precision":"street","percent":3.0,"state":"Texas"},"type":"Feature","geometry":{"type":"Point","coordinates":[-97.13914,33.21633]}},{"properties":{"place":"Denver city","number":15847.0,"geo_score":0.5,"july 1, 2007":582860.0,"july 1, 2008":598707.0,"id":"a6359eg85g9j","geo_precision":"street","percent":2.7,"state":"Colorado"},"type":"Feature","geometry":{"type":"Point","coordinates":[-105.02291,39.770216]}},{"properties":{"place":"Durham city","number":6578.0,"geo_score":0.527,"july 1, 2007":216706.0,"july 1, 2008":223284.0,"id":"a6359epbn2ut","geo_precision":"street","percent":3.0,"state":"North Carolina"},"type":"Feature","geometry":{"type":"Point","coordinates":[-79.008703,35.944227]}},{"properties":{"place":"Fort Worth city","number":24413.0,"geo_score":0.598,"july 1, 2007":678660.0,"july 1, 2008":703073.0,"id":"a6359end8i6o","geo_precision":"street","percent":3.6,"state":"Texas"},"type":"Feature","geometry":{"type":"Point","coordinates":[-97.224582,32.730091]}},{"properties":{"place":"Gilbert town","number":10283.0,"geo_score":0.519,"july 1, 2007":206166.0,"july 1, 2008":216449.0,"id":"a6359edzcx7f","geo_precision":"street","percent":5.0,"state":"Arizona"},"type":"Feature","geometry":{"type":"Point","coordinates":[-111.789577,33.350617]}},{"properties":{"place":"Huntsville city","number":5365.0,"geo_score":0.592,"july 1, 2007":171280.0,"july 1, 2008":176645.0,"id":"a6359elnj8n8","geo_precision":"street","percent":3.1,"state":"Alabama"},"type":"Feature","geometry":{"type":"Point","coordinates":[-86.584627,34.756561]}},{"properties":{"place":"Irvine city","number":7658.0,"geo_score":0.571,"july 1, 2007":199842.0,"july 1, 2008":207500.0,"id":"a6359ek5nj2t","geo_precision":"street","percent":3.8,"state":"California"},"type":"Feature","geometry":{"type":"Point","coordinates":[-117.785458,33.729381]}},{"properties":{"place":"Killeen city","number":4232.0,"geo_score":0.597,"july 1, 2007":112702.0,"july 1, 2008":116934.0,"id":"a6359ejlwlv6","geo_precision":"street","percent":3.8,"state":"Texas"},"type":"Feature","geometry":{"type":"Point","coordinates":[-97.73674,31.117552]}},{"properties":{"place":"Lewisville city","number":3470.0,"geo_score":0.408,"july 1, 2007":98154.0,"july 1, 2008":101624.0,"id":"a6359ed9egry","geo_precision":"street","percent":3.5,"state":"Texas"},"type":"Feature","geometry":{"type":"Point","coordinates":[-96.66348,33.073391]}},{"properties":{"place":"McKinney city","number":5587.0,"geo_score":0.607,"july 1, 2007":115624.0,"july 1, 2008":121211.0,"id":"a6359ee31h4p","geo_precision":"street","percent":4.8,"state":"Texas"},"type":"Feature","geometry":{"type":"Point","coordinates":[-96.618907,33.195309]}},{"properties":{"place":"Murfreesboro city","number":3437.0,"geo_score":0.658,"july 1, 2007":98316.0,"july 1, 2008":101753.0,"id":"a6359eft249b","geo_precision":"street","percent":3.5,"state":"Tennessee"},"type":"Feature","geometry":{"type":"Point","coordinates":[-86.314752,35.833116]}},{"properties":{"place":"New Orleans city","number":23740.0,"geo_score":0.651,"july 1, 2007":288113.0,"july 1, 2008":311853.0,"id":"a6359eryvudn","geo_precision":"street","percent":8.2,"state":"Louisiana"},"type":"Feature","geometry":{"type":"Point","coordinates":[-90.065516,29.974123]}},{"properties":{"place":"North Las Vegas city","number":6144.0,"geo_score":0.651,"july 1, 2007":211109.0,"july 1, 2008":217253.0,"id":"a6359elleq9m","geo_precision":"street","percent":2.9,"state":"Nevada"},"type":"Feature","geometry":{"type":"Point","coordinates":[-115.029603,36.254986]}},{"properties":{"place":"Plano city","number":7101.0,"geo_score":0.543,"july 1, 2007":260379.0,"july 1, 2008":267480.0,"id":"a6359efe1w1m","geo_precision":"street","percent":2.7,"state":"Texas"},"type":"Feature","geometry":{"type":"Point","coordinates":[-96.711363,33.00911]}},{"properties":{"place":"Raleigh city","number":14368.0,"geo_score":0.649,"july 1, 2007":378184.0,"july 1, 2008":392552.0,"id":"a6359emptguz","geo_precision":"street","percent":3.8,"state":"North Carolina"},"type":"Feature","geometry":{"type":"Point","coordinates":[-78.613458,35.779993]}},{"properties":{"place":"Roseville city","number":4163.0,"geo_score":0.615,"july 1, 2007":108497.0,"july 1, 2008":112660.0,"id":"a6359epptngf","geo_precision":"street","percent":3.8,"state":"California"},"type":"Feature","geometry":{"type":"Point","coordinates":[-121.282586,38.752873]}},{"properties":{"place":"Round Rock city","number":7877.0,"geo_score":0.592,"july 1, 2007":96569.0,"july 1, 2008":104446.0,"id":"a6359esjh5l7","geo_precision":"street","percent":8.2,"state":"Texas"},"type":"Feature","geometry":{"type":"Point","coordinates":[-97.696497,30.503266]}},{"properties":{"place":"Thornton city","number":3126.0,"geo_score":0.643,"july 1, 2007":110303.0,"july 1, 2008":113429.0,"id":"a6359ei0516c","geo_precision":"street","percent":2.8,"state":"Colorado"},"type":"Feature","geometry":{"type":"Point","coordinates":[-104.972906,39.871565]}},{"properties":{"place":"Victorville city","number":3526.0,"geo_score":0.629,"july 1, 2007":106792.0,"july 1, 2008":110318.0,"id":"a6359elqtqsc","geo_precision":"street","percent":3.3,"state":"California"},"type":"Feature","geometry":{"type":"Point","coordinates":[-117.620398,34.353745]}}],"is_temporal":false,"author":{"url":"http://census.gov","metadata":"","contact_name":"","contact_address":"","source":"","contact_phone":""},"source":"http://census.gov","pagination":{"sort":null,"start":0,"total":25,"limit":1000000},"state":"complete","tags":"cities,growth,population,us","published":"2014-08-10T22:48:07-04:00","id":17507}