{"type":"FeatureCollection","data_type":"Dataset","url_type":null,"permissions":[{"permissions":{"download":true,"view":true},"group_id":"everyone"}],"classification":null,"title":"One Planet One Pass Ski Resorts ","count":26,"stream_id":179821,"contributor":{"url":"http://geocommons.com/users/7800","name":"chelm"},"data_attributes":null,"calculation_params":null,"icon_link":null,"link":"http://geocommons.com/overlays/179821.json","extent":[-119.158,33.3972,12.6,50.9981],"geometry_types":["point"],"unique_name":"","name":"One Planet One Pass Ski Resorts ","feature_count":26,"description":"","next_feature":null,"is_raster":false,"short_classification":"Y","stats":{"latitude":{"max":50.998056,"mean":40.7985236384615,"variance":24.9384877883579,"stdev":4.9938449904215,"min":33.397222,"median":39.399806},"longitude":{"max":12.6,"mean":-84.5292491576923,"variance":2340.48465292826,"stdev":48.3785557135417,"min":-119.1583,"median":-105.90421}},"features":[{"properties":{"name":"Alta","latitude":40.57967,"deals":"Half price all winter long","longitude":-111.63828,"id":"0"},"type":"Feature","geometry":{"type":"Point","coordinates":[-111.63828,40.57967]}},{"properties":{"name":"Angel Fire","latitude":36.38033,"deals":"3 free days","longitude":-105.23555,"id":"1"},"type":"Feature","geometry":{"type":"Point","coordinates":[-105.23555,36.38033]}},{"properties":{"name":"Arizona Snowbowl","latitude":35.32782,"deals":"Half price lift tickets","longitude":-111.69517,"id":"2"},"type":"Feature","geometry":{"type":"Point","coordinates":[-111.69517,35.32782]}},{"properties":{"name":"China Peak","latitude":37.2297,"deals":"3 free days","longitude":-119.1583,"id":"3"},"type":"Feature","geometry":{"type":"Point","coordinates":[-119.1583,37.2297]}},{"properties":{"name":"Durango","latitude":37.62445,"deals":"3 free days, no black outs","longitude":-107.82814,"id":"4"},"type":"Feature","geometry":{"type":"Point","coordinates":[-107.82814,37.62445]}},{"properties":{"name":"Grand Targhee","latitude":43.792778,"deals":"One ticket per pass holder per night of lodging booked. Black outs apply.","longitude":-110.959167,"id":"5"},"type":"Feature","geometry":{"type":"Point","coordinates":[-110.959167,43.792778]}},{"properties":{"name":"Indianhead","latitude":46.501,"deals":"3 free days","longitude":-89.967,"id":"6"},"type":"Feature","geometry":{"type":"Point","coordinates":[-89.967,46.501]}},{"properties":{"name":"Loveland","latitude":39.68,"deals":"3 free days, no black outs","longitude":-105.896944,"id":"7"},"type":"Feature","geometry":{"type":"Point","coordinates":[-105.896944,39.68]}},{"properties":{"name":"Pajarito","latitude":35.89033,"deals":"3 free days, no black outs","longitude":-106.3928,"id":"9"},"type":"Feature","geometry":{"type":"Point","coordinates":[-106.3928,35.89033]}},{"properties":{"name":"Powderhorn","latitude":39.06749,"deals":"3 free days, no black outs","longitude":-108.15899,"id":"10"},"type":"Feature","geometry":{"type":"Point","coordinates":[-108.15899,39.06749]}},{"properties":{"name":"Red River","latitude":36.70754,"deals":"3 free days","longitude":-105.41584,"id":"11"},"type":"Feature","geometry":{"type":"Point","coordinates":[-105.41584,36.70754]}},{"properties":{"name":"Revelstoke","latitude":50.998056,"deals":"3 free days in conjunction with half priced lodging.  Black outs apply.","longitude":-118.195556,"id":"12"},"type":"Feature","geometry":{"type":"Point","coordinates":[-118.195556,50.998056]}},{"properties":{"name":"Silverton","latitude":37.8125,"deals":"1 free day unguided season","longitude":-107.663056,"id":"13"},"type":"Feature","geometry":{"type":"Point","coordinates":[-107.663056,37.8125]}},{"properties":{"name":"Sipapu","latitude":36.15505,"deals":"3 free days, no black outs","longitude":-105.55195,"id":"14"},"type":"Feature","geometry":{"type":"Point","coordinates":[-105.55195,36.15505]}},{"properties":{"name":"Ski Apache","latitude":33.397222,"deals":"3 free days","longitude":-105.799167,"id":"15"},"type":"Feature","geometry":{"type":"Point","coordinates":[-105.799167,33.397222]}},{"properties":{"name":"Ski Cooper","latitude":39.36055,"deals":"3 free days","longitude":-106.30228,"id":"16"},"type":"Feature","geometry":{"type":"Point","coordinates":[-106.30228,39.36055]}},{"properties":{"name":"Snowy Range","latitude":41.341231,"deals":null,"longitude":-106.183441,"id":"17"},"type":"Feature","geometry":{"type":"Point","coordinates":[-106.183441,41.341231]}},{"properties":{"name":"Sol Vista","latitude":40.03999,"deals":"3 free days","longitude":-105.90421,"id":"18"},"type":"Feature","geometry":{"type":"Point","coordinates":[-105.90421,40.03999]}},{"properties":{"name":"Sunlight","latitude":39.399806,"deals":"3 free days, no black outs","longitude":-107.339278,"id":"19"},"type":"Feature","geometry":{"type":"Point","coordinates":[-107.339278,39.399806]}},{"properties":{"name":"Taos","latitude":36.597724,"deals":"5 half priced days","longitude":-105.445,"id":"20"},"type":"Feature","geometry":{"type":"Point","coordinates":[-105.445,36.597724]}},{"properties":{"name":"Telluride","latitude":37.92612,"deals":"Ski and Stay package with Telluride Resort Lodging","longitude":-107.84342,"id":"21"},"type":"Feature","geometry":{"type":"Point","coordinates":[-107.84342,37.92612]}},{"properties":{"name":"Oberaudorf","latitude":47.6475,"deals":"Unlimited!","longitude":12.171944,"id":"22"},"type":"Feature","geometry":{"type":"Point","coordinates":[12.171944,47.6475]}},{"properties":{"name":"Wendelstein","latitude":47.70278,"deals":"Unlimited!","longitude":12.01222,"id":"23"},"type":"Feature","geometry":{"type":"Point","coordinates":[12.01222,47.70278]}},{"properties":{"name":"Hochfelln","latitude":47.816667,"deals":"Unlimited!","longitude":12.6,"id":"24"},"type":"Feature","geometry":{"type":"Point","coordinates":[12.6,47.816667]}},{"properties":{"name":"Hochkossen","latitude":48.0186436,"deals":"Unlimited!","longitude":11.7122299,"id":"25"},"type":"Feature","geometry":{"type":"Point","coordinates":[11.7122299,48.0186436]}},{"properties":{"name":"Kampenwand","latitude":47.766667,"deals":"Unlimited!","longitude":12.316667,"id":"26"},"type":"Feature","geometry":{"type":"Point","coordinates":[12.316667,47.766667]}}],"is_temporal":false,"author":{"url":"","metadata":"","contact_name":"","contact_address":"","source":"","contact_phone":""},"source":"","pagination":{"sort":null,"start":0,"total":26,"limit":1000000},"state":"complete","tags":"colorado,resorts,ski,snow","published":"2014-08-13T12:13:20-04:00","id":179821}