{"type":"FeatureCollection","data_type":"Dataset","url_type":null,"permissions":[{"permissions":{"download":true,"view":true},"group_id":"everyone"}],"classification":null,"title":"Alabama Roster","count":106,"stream_id":18395,"contributor":{"url":"http://geocommons.com/users/9734","name":"SoccerNCW23"},"data_attributes":null,"calculation_params":null,"icon_link":null,"link":"http://geocommons.com/overlays/18395.json","extent":[-98.5375,25.4687,-78.6042,42.9659],"geometry_types":["point"],"unique_name":null,"name":"Alabama Roster","feature_count":106,"description":"","next_feature":null,"is_raster":false,"short_classification":"Y","stats":{"no":{"max":99.0,"mean":48.7358490566038,"variance":957.243845462714,"stdev":30.9393575476724,"min":1.0,"median":48.0},"geo_score":{"max":0.857,"mean":0.855622641509433,"variance":0.000145322911051213,"stdev":0.0120549952737947,"min":0.735,"median":0.857}},"features":[{"properties":{"city":"PRICHARD","name":"B.J. Scott","no":1.0,"class":"So.","geo_score":0.857,"id":"a64f8tk9rbva","geo_precision":"city","pos":"DB","state":"AL"},"type":"Feature","geometry":{"type":"Point","coordinates":[-88.078889,30.7388]}},{"properties":{"city":"MOBILE","name":"A.J. McCarron","no":10.0,"class":"Fr.","geo_score":0.857,"id":"a64f8tllvhjb","geo_precision":"city","pos":"QB","state":"AL"},"type":"Feature","geometry":{"type":"Point","coordinates":[-88.103184,30.701142]}},{"properties":{"city":"MOBILE","name":"Brandon Gibson","no":11.0,"class":"So.","geo_score":0.857,"id":"a64f8tk4h396","geo_precision":"city","pos":"WR","state":"AL"},"type":"Feature","geometry":{"type":"Point","coordinates":[-88.103184,30.701142]}},{"properties":{"city":"SOUTHLAKE","name":"Greg McElroy","no":12.0,"class":"Jr.","geo_score":0.857,"id":"a64f8tmy1nw0","geo_precision":"city","pos":"QB","state":"TX"},"type":"Feature","geometry":{"type":"Point","coordinates":[-97.152368,32.948474]}},{"properties":{"city":"HOOVER","name":"Cory Reamer","no":13.0,"class":"Sr.","geo_score":0.857,"id":"a64f8tkltfvn","geo_precision":"city","pos":"LB","state":"AL"},"type":"Feature","geometry":{"type":"Point","coordinates":[-86.811378,33.405387]}},{"properties":{"city":"ATHENS","name":"Rob Ezell","no":13.0,"class":"Jr.","geo_score":0.857,"id":"a64f8tdy9tv2","geo_precision":"city","pos":"WR","state":"AL"},"type":"Feature","geometry":{"type":"Point","coordinates":[-87.103488,34.764976]}},{"properties":{"city":"NORCROSS","name":"Darius Hanks","no":15.0,"class":"So.","geo_score":0.857,"id":"a64f8t7dhlom","geo_precision":"city","pos":"WR","state":"GA"},"type":"Feature","geometry":{"type":"Point","coordinates":[-84.037859,33.960353]}},{"properties":{"city":"NEWNAN","name":"Thomas Darrah","no":16.0,"class":"So.","geo_score":0.857,"id":"a64f8tj10gfr","geo_precision":"city","pos":"QB","state":"GA"},"type":"Feature","geometry":{"type":"Point","coordinates":[-84.819397,33.369595]}},{"properties":{"city":"TUSCALOOSA","name":"Brad Smelley","no":17.0,"class":"So.","geo_score":0.857,"id":"a64f8tbflir5","geo_precision":"city","pos":"TE","state":"AL"},"type":"Feature","geometry":{"type":"Point","coordinates":[-87.597599,33.241899]}},{"properties":{"city":"MOUNTAIN BROOK","name":"Morgan Ogilvie","no":18.0,"class":"So.","geo_score":0.857,"id":"a64f8thlh6gf","geo_precision":"city","pos":"QB","state":"AL"},"type":"Feature","geometry":{"type":"Point","coordinates":[-86.752211,33.500938]}},{"properties":{"city":"OLIVE BRANCH","name":"Rod Woodson","no":18.0,"class":"Fr.","geo_score":0.857,"id":"a64f8tbw23lk","geo_precision":"city","pos":"DB","state":"MS"},"type":"Feature","geometry":{"type":"Point","coordinates":[-89.869062,34.921172]}},{"properties":{"city":"BRIDGEPORT","name":"Tana Patrick","no":2.0,"class":"Fr.","geo_score":0.857,"id":"a64f8tgajhub","geo_precision":"city","pos":"LB","state":"AL"},"type":"Feature","geometry":{"type":"Point","coordinates":[-85.803464,34.799983]}},{"properties":{"city":"LAKE WORTH","name":"Star Jackson","no":2.0,"class":"Fr.","geo_score":0.857,"id":"a64f8tk8k280","geo_precision":"city","pos":"QB","state":"FL"},"type":"Feature","geometry":{"type":"Point","coordinates":[-80.430269,26.645895]}},{"properties":{"city":"BIRMINGHAM","name":"Tyrone King","no":20.0,"class":"Sr.","geo_score":0.857,"id":"a64f8t9cwruy","geo_precision":"city","pos":"DB","state":"AL"},"type":"Feature","geometry":{"type":"Point","coordinates":[-86.801904,33.456412]}},{"properties":{"city":"GADSDEN","name":"Dre Kirkpatrick","no":21.0,"class":"Fr.","geo_score":0.857,"id":"a64f8t7dq27p","geo_precision":"city","pos":"DB","state":"AL"},"type":"Feature","geometry":{"type":"Point","coordinates":[-86.074145,34.024285]}},{"properties":{"city":"FLINT","name":"Mark Ingram","no":22.0,"class":"So.","geo_score":0.857,"id":"a64f8tcuhkew","geo_precision":"city","pos":"RB","state":"MI"},"type":"Feature","geometry":{"type":"Point","coordinates":[-83.780835,42.965926]}},{"properties":{"city":"NEW ORLEANS","name":"Robby Green","no":23.0,"class":"So.","geo_score":0.857,"id":"a64f8tl99r50","geo_precision":"city","pos":"DB","state":"LA"},"type":"Feature","geometry":{"type":"Point","coordinates":[-89.930956,30.068812]}},{"properties":{"city":"SARASOTA","name":"Marquis Johnson","no":24.0,"class":"Sr.","geo_score":0.857,"id":"a64f8tbr4ijx","geo_precision":"city","pos":"DB","state":"FL"},"type":"Feature","geometry":{"type":"Point","coordinates":[-82.537169,27.335023]}},{"properties":{"city":"DECATUR","name":"Rolando McClain","no":25.0,"class":"Jr.","geo_score":0.857,"id":"a64f8tgxxb0x","geo_precision":"city","pos":"LB","state":"AL"},"type":"Feature","geometry":{"type":"Point","coordinates":[-86.995551,34.549833]}},{"properties":{"city":"STEVENSON","name":"Ali Sharrief","no":26.0,"class":"Sr.","geo_score":0.857,"id":"a64f8thum8gf","geo_precision":"city","pos":"DB","state":"AL"},"type":"Feature","geometry":{"type":"Point","coordinates":[-85.871317,34.856233]}},{"properties":{"city":"OXFORD","name":"Justin Woodall","no":27.0,"class":"Sr.","geo_score":0.857,"id":"a64f8taz2qhk","geo_precision":"city","pos":"DB","state":"MS"},"type":"Feature","geometry":{"type":"Point","coordinates":[-89.483519,34.330814]}},{"properties":{"city":"TAMPA","name":"Javier Arenas","no":28.0,"class":"Sr.","geo_score":0.857,"id":"a64f8te08m63","geo_precision":"city","pos":"DB","state":"FL"},"type":"Feature","geometry":{"type":"Point","coordinates":[-82.582035,27.996097]}},{"properties":{"city":"LUMBERTON","name":"Terry Grant","no":29.0,"class":"Jr.","geo_score":0.857,"id":"a64f8tjt4ynh","geo_precision":"city","pos":"RB","state":"MS"},"type":"Feature","geometry":{"type":"Point","coordinates":[-89.503417,31.100426]}},{"properties":{"city":"PENSACOLA","name":"Trent Richardson","no":3.0,"class":"Fr.","geo_score":0.857,"id":"a64f8tiz8csv","geo_precision":"city","pos":"RB","state":"FL"},"type":"Feature","geometry":{"type":"Point","coordinates":[-87.256471,30.424838]}},{"properties":{"city":"MACON","name":"Kareem Jackson","no":3.0,"class":"Jr.","geo_score":0.857,"id":"a64f8ta94xu1","geo_precision":"city","pos":"DB","state":"GA"},"type":"Feature","geometry":{"type":"Point","coordinates":[-83.595066,32.827949]}},{"properties":{"city":"LEWISBURG","name":"Dont'a Hightower","no":30.0,"class":"So.","geo_score":0.857,"id":"a64f8tct9x1x","geo_precision":"city","pos":"LB","state":"TN"},"type":"Feature","geometry":{"type":"Point","coordinates":[-86.792003,35.504165]}},{"properties":{"city":"SAN ANTONIO","name":"Eryk Anders","no":32.0,"class":"Sr.","geo_score":0.857,"id":"a64f8tcg44u6","geo_precision":"city","pos":"LB","state":"TX"},"type":"Feature","geometry":{"type":"Point","coordinates":[-98.537495,29.399933]}},{"properties":{"city":"TUSCALOOSA","name":"Hampton Gray","no":33.0,"class":"Sr.","geo_score":0.857,"id":"a64f8tb98n4q","geo_precision":"city","pos":"DB","state":"AL"},"type":"Feature","geometry":{"type":"Point","coordinates":[-87.597599,33.241899]}},{"properties":{"city":"HOLLAND","name":"Mike Marrow","no":33.0,"class":"Fr.","geo_score":0.857,"id":"a64f8terxvkf","geo_precision":"city","pos":"RB","state":"OH"},"type":"Feature","geometry":{"type":"Point","coordinates":[-83.751138,41.628501]}},{"properties":{"city":"BATESVILLE","name":"Jeramie Griffin","no":34.0,"class":"So.","geo_score":0.857,"id":"a64f8thhyp8y","geo_precision":"city","pos":"RB","state":"MS"},"type":"Feature","geometry":{"type":"Point","coordinates":[-89.956497,34.343102]}},{"properties":{"city":"ANDALUSIA","name":"Nico Johnson","no":35.0,"class":"Fr.","geo_score":0.857,"id":"a64f8tan4ka4","geo_precision":"city","pos":"LB","state":"AL"},"type":"Feature","geometry":{"type":"Point","coordinates":[-86.386398,31.304166]}},{"properties":{"city":"BRENTWOOD","name":"Chris Jordan","no":36.0,"class":"So.","geo_score":0.857,"id":"a64f8tiqkaim","geo_precision":"city","pos":"LB","state":"TN"},"type":"Feature","geometry":{"type":"Point","coordinates":[-86.907565,35.874553]}},{"properties":{"city":"FOLEY","name":"Robert Lester","no":37.0,"class":"Fr.","geo_score":0.857,"id":"a64f8thawnql","geo_precision":"city","pos":"DB","state":"AL"},"type":"Feature","geometry":{"type":"Point","coordinates":[-87.692401,30.467608]}},{"properties":{"city":"CHATOM","name":"Kyle Pennington","no":39.0,"class":"Jr.","geo_score":0.857,"id":"a64f8tllqna3","geo_precision":"city","pos":"DB","state":"AL"},"type":"Feature","geometry":{"type":"Point","coordinates":[-88.245363,31.436682]}},{"properties":{"city":"MOBILE","name":"Mark Barron","no":4.0,"class":"So.","geo_score":0.857,"id":"a64f8teijlck","geo_precision":"city","pos":"DB","state":"AL"},"type":"Feature","geometry":{"type":"Point","coordinates":[-88.103184,30.701142]}},{"properties":{"city":"TARRANT","name":"Marquis Maze","no":4.0,"class":"So.","geo_score":0.857,"id":"a64f8tdan0h8","geo_precision":"city","pos":"WR","state":"AL"},"type":"Feature","geometry":{"type":"Point","coordinates":[-86.768002,33.594533]}},{"properties":{"city":"KNOXVILLE","name":"Baron Huber","no":40.0,"class":"Sr.","geo_score":0.857,"id":"a64f8t9rg6az","geo_precision":"city","pos":"TE","state":"TN"},"type":"Feature","geometry":{"type":"Point","coordinates":[-83.884804,36.032334]}},{"properties":{"city":"MONTGOMERY","name":"DeMarcus DuBose","no":40.0,"class":"So.","geo_score":0.857,"id":"a64f8tjlcef6","geo_precision":"city","pos":"LB","state":"AL"},"type":"Feature","geometry":{"type":"Point","coordinates":[-86.257817,32.356988]}},{"properties":{"city":"EUFAULA","name":"Courtney Upshaw","no":41.0,"class":"So.","geo_score":0.857,"id":"a64f8tbm6p1w","geo_precision":"city","pos":"LB","state":"AL"},"type":"Feature","geometry":{"type":"Point","coordinates":[-85.389969,31.914745]}},{"properties":{"city":"GEISMAR","name":"Eddie Lacy","no":42.0,"class":"Fr.","geo_score":0.857,"id":"a64f8tlde89z","geo_precision":"city","pos":"RB","state":"LA"},"type":"Feature","geometry":{"type":"Point","coordinates":[-90.992636,30.205118]}},{"properties":{"city":"TRUSSVILLE","name":"Alex Benson","no":44.0,"class":"Sr.","geo_score":0.857,"id":"a64f8td1wxa7","geo_precision":"city","pos":"LB","state":"AL"},"type":"Feature","geometry":{"type":"Point","coordinates":[-86.58589,33.646334]}},{"properties":{"city":"OAK RIDGE","name":"Jacob Vane","no":44.0,"class":"Sr.","geo_score":0.857,"id":"a64f8tb7ey56","geo_precision":"city","pos":"RB","state":"TN"},"type":"Feature","geometry":{"type":"Point","coordinates":[-84.243175,36.019381]}},{"properties":{"city":"HUNTSVILLE","name":"Wesley Neighbors","no":46.0,"class":"So.","geo_score":0.857,"id":"a64f8tiagibm","geo_precision":"city","pos":"DB","state":"AL"},"type":"Feature","geometry":{"type":"Point","coordinates":[-86.556439,34.718428]}},{"properties":{"city":"TUSCALOOSA","name":"William Strickland","no":46.0,"class":"So.","geo_score":0.857,"id":"a64f8tdfnchb","geo_precision":"city","pos":"WR","state":"AL"},"type":"Feature","geometry":{"type":"Point","coordinates":[-87.597599,33.241899]}},{"properties":{"city":"HOMESTEAD","name":"Ed Stinson","no":47.0,"class":"Fr.","geo_score":0.857,"id":"a64f8tfnwa4j","geo_precision":"city","pos":"DL","state":"FL"},"type":"Feature","geometry":{"type":"Point","coordinates":[-80.477557,25.468722]}},{"properties":{"city":"NASHVILLE","name":"Travis Sikes","no":48.0,"class":"Jr.","geo_score":0.857,"id":"a64f8te4z4ad","geo_precision":"city","pos":"WR","state":"TN"},"type":"Feature","geometry":{"type":"Point","coordinates":[-86.778098,36.165688]}},{"properties":{"city":"ATLANTA","name":"Jonathan Atchison","no":49.0,"class":"Fr.","geo_score":0.857,"id":"a64f8t72byzh","geo_precision":"city","pos":"LB","state":"GA"},"type":"Feature","geometry":{"type":"Point","coordinates":[-84.47405,33.844371]}},{"properties":{"city":"GADSDEN","name":"Jerrell Harris","no":5.0,"class":"So.","geo_score":0.857,"id":"a64f8tkwrknr","geo_precision":"city","pos":"LB","state":"AL"},"type":"Feature","geometry":{"type":"Point","coordinates":[-86.074145,34.024285]}},{"properties":{"city":"TALLAHASSEE","name":"Roy Upchurch","no":5.0,"class":"Sr.","geo_score":0.857,"id":"a64f8tl437a2","geo_precision":"city","pos":"RB","state":"FL"},"type":"Feature","geometry":{"type":"Point","coordinates":[-84.203379,30.418514]}},{"properties":{"city":"VESTAVIA HILLS","name":"Brian Selman","no":50.0,"class":"Sr.","geo_score":0.857,"id":"a64f8tj0a1nr","geo_precision":"city","pos":"C","state":"AL"},"type":"Feature","geometry":{"type":"Point","coordinates":[-86.787767,33.448718]}},{"properties":{"city":"MURFREESBORO","name":"Carson Tinker","no":51.0,"class":"So.","geo_score":0.857,"id":"a64f8tehhs4u","geo_precision":"city","pos":"LB","state":"TN"},"type":"Feature","geometry":{"type":"Point","coordinates":[-86.372158,35.762951]}},{"properties":{"city":"HOOVER","name":"Michael DeJohn","no":51.0,"class":"Jr.","geo_score":0.857,"id":"a64f8tl2b0kf","geo_precision":"city","pos":"LB","state":"AL"},"type":"Feature","geometry":{"type":"Point","coordinates":[-86.811378,33.405387]}},{"properties":{"city":"ATHENS","name":"Alfred McCullough","no":52.0,"class":"So.","geo_score":0.857,"id":"a64f8tm66t4m","geo_precision":"city","pos":"OL","state":"AL"},"type":"Feature","geometry":{"type":"Point","coordinates":[-87.103488,34.764976]}},{"properties":{"city":"MOBILE","name":"Glenn Harbin","no":54.0,"class":"So.","geo_score":0.857,"id":"a64f8tmg7mxq","geo_precision":"city","pos":"DL","state":"AL"},"type":"Feature","geometry":{"type":"Point","coordinates":[-88.103184,30.701142]}},{"properties":{"city":"SATSUMA","name":"Russell Raines","no":54.0,"class":"Fr.","geo_score":0.857,"id":"a64f8tjo9kr6","geo_precision":"city","pos":"OL","state":"AL"},"type":"Feature","geometry":{"type":"Point","coordinates":[-88.087879,30.585158]}},{"properties":{"city":"DORA","name":"Chavis Williams","no":55.0,"class":"Jr.","geo_score":0.857,"id":"a64f8t92n9tb","geo_precision":"city","pos":"LB","state":"AL"},"type":"Feature","geometry":{"type":"Point","coordinates":[-87.054641,33.735709]}},{"properties":{"city":"ATHENS","name":"William Ming","no":56.0,"class":"Fr.","geo_score":0.857,"id":"a64f8t8fk8g1","geo_precision":"city","pos":"DL","state":"AL"},"type":"Feature","geometry":{"type":"Point","coordinates":[-87.103488,34.764976]}},{"properties":{"city":"PRATTVILLE","name":"Nick Gentry","no":58.0,"class":"So.","geo_score":0.857,"id":"a64f8tfk34ed","geo_precision":"city","pos":"DL","state":"AL"},"type":"Feature","geometry":{"type":"Point","coordinates":[-86.440879,32.50919]}},{"properties":{"city":"MONTGOMERY","name":"Brandon Moore","no":59.0,"class":"Fr.","geo_score":0.857,"id":"a64f8tlxo86t","geo_precision":"city","pos":"DL","state":"AL"},"type":"Feature","geometry":{"type":"Point","coordinates":[-86.257817,32.356988]}},{"properties":{"city":"LAGRANGE","name":"Demetrius Goode","no":6.0,"class":"So.","geo_score":0.857,"id":"a64f8thssa3s","geo_precision":"city","pos":"RB","state":"GA"},"type":"Feature","geometry":{"type":"Point","coordinates":[-85.073906,33.024347]}},{"properties":{"city":"DUNCANVILLE","name":"David Williams","no":60.0,"class":"Fr.","geo_score":0.857,"id":"a64f8t7d1fwt","geo_precision":"city","pos":"OL","state":"AL"},"type":"Feature","geometry":{"type":"Point","coordinates":[-87.432921,33.072735]}},{"properties":{"city":"LAMBERT","name":"Anthony Steen","no":61.0,"class":"Fr.","geo_score":0.857,"id":"a64f8tk6j26x","geo_precision":"city","pos":"OL","state":"MS"},"type":"Feature","geometry":{"type":"Point","coordinates":[-90.215916,34.189235]}},{"properties":{"city":"FORT MYERS","name":"Terrence Cody","no":62.0,"class":"Sr.","geo_score":0.857,"id":"a64f8tg36tbs","geo_precision":"city","pos":"DL","state":"FL"},"type":"Feature","geometry":{"type":"Point","coordinates":[-81.925065,26.564355]}},{"properties":{"city":"HOOVER","name":"Kerry Murphy","no":64.0,"class":"Fr.","geo_score":0.857,"id":"a64f8thg0pls","geo_precision":"city","pos":"DL","state":"AL"},"type":"Feature","geometry":{"type":"Point","coordinates":[-86.811378,33.405387]}},{"properties":{"city":"ATLANTA","name":"Chance Warmack","no":65.0,"class":"Fr.","geo_score":0.857,"id":"a64f8tef5yhw","geo_precision":"city","pos":"OL","state":"GA"},"type":"Feature","geometry":{"type":"Point","coordinates":[-84.47405,33.844371]}},{"properties":{"city":"AUTAUGAVILLE","name":"Brian Motley","no":66.0,"class":"Jr.","geo_score":0.857,"id":"a64f8tiohnty","geo_precision":"city","pos":"OL","state":"AL"},"type":"Feature","geometry":{"type":"Point","coordinates":[-86.721712,32.450328]}},{"properties":{"city":"NORTHPORT","name":"John Michael Boswell","no":67.0,"class":"So.","geo_score":0.857,"id":"a64f8th92p8l","geo_precision":"city","pos":"OL","state":"AL"},"type":"Feature","geometry":{"type":"Point","coordinates":[-87.537152,33.347539]}},{"properties":{"city":"IRONDALE","name":"Taylor Pharr","no":68.0,"class":"Jr.","geo_score":0.857,"id":"a64f8tlxtkqy","geo_precision":"city","pos":"OL","state":"AL"},"type":"Feature","geometry":{"type":"Point","coordinates":[-86.70721,33.53816]}},{"properties":{"city":"RAYVILLE","name":"Kenny Bell","no":7.0,"class":"Fr.","geo_score":0.857,"id":"a64f8tkzl6g0","geo_precision":"city","pos":"WR","state":"LA"},"type":"Feature","geometry":{"type":"Point","coordinates":[-91.743314,32.445645]}},{"properties":{"city":"COKER","name":"Allen Skelton","no":71.0,"class":"So.","geo_score":0.857,"id":"a64f8tixdwf8","geo_precision":"city","pos":"OL","state":"AL"},"type":"Feature","geometry":{"type":"Point","coordinates":[-87.688789,33.293358]}},{"properties":{"city":"MOUNTAIN BROOK","name":"Tyler Love","no":72.0,"class":"Fr.","geo_score":0.857,"id":"a64f8t863gck","geo_precision":"city","pos":"OL","state":"AL"},"type":"Feature","geometry":{"type":"Point","coordinates":[-86.752211,33.500938]}},{"properties":{"city":"BIRMINGHAM","name":"William Vlachos","no":73.0,"class":"Jr.","geo_score":0.857,"id":"a64f8t9kc6sw","geo_precision":"city","pos":"OL","state":"AL"},"type":"Feature","geometry":{"type":"Point","coordinates":[-86.801904,33.456412]}},{"properties":{"city":"HOMEWOOD","name":"David Ross","no":74.0,"class":"Jr.","geo_score":0.857,"id":"a64f8tiex6c5","geo_precision":"city","pos":"OL","state":"AL"},"type":"Feature","geometry":{"type":"Point","coordinates":[-86.800823,33.471773]}},{"properties":{"city":"MEMPHIS","name":"Barrett Jones","no":75.0,"class":"So.","geo_score":0.857,"id":"a64f8tldpy3g","geo_precision":"city","pos":"OL","state":"TN"},"type":"Feature","geometry":{"type":"Point","coordinates":[-89.990415,35.169255]}},{"properties":{"city":"FOLEY","name":"D.J. Fluker","no":76.0,"class":"Fr.","geo_score":0.857,"id":"a64f8t9misyf","geo_precision":"city","pos":"OL","state":"AL"},"type":"Feature","geometry":{"type":"Point","coordinates":[-87.692401,30.467608]}},{"properties":{"city":"AUGUSTA","name":"James Carpenter","no":77.0,"class":"Jr.","geo_score":0.857,"id":"a64f8tlon196","geo_precision":"city","pos":"OL","state":"GA"},"type":"Feature","geometry":{"type":"Point","coordinates":[-81.969184,33.456687]}},{"properties":{"city":"PENSACOLA","name":"Mike Johnson","no":78.0,"class":"Sr.","geo_score":0.857,"id":"a64f8tlm2avy","geo_precision":"city","pos":"OL","state":"FL"},"type":"Feature","geometry":{"type":"Point","coordinates":[-87.256471,30.424838]}},{"properties":{"city":"EVERGREEN","name":"Drew Davis","no":79.0,"class":"Sr.","geo_score":0.857,"id":"a64f8tb8q40h","geo_precision":"city","pos":"OL","state":"AL"},"type":"Feature","geometry":{"type":"Point","coordinates":[-86.757761,32.552355]}},{"properties":{"city":"FOLEY","name":"Julio Jones","no":8.0,"class":"So.","geo_score":0.857,"id":"a64f8tis54hw","geo_precision":"city","pos":"WR","state":"AL"},"type":"Feature","geometry":{"type":"Point","coordinates":[-87.692401,30.467608]}},{"properties":{"city":"LAKELAND","name":"Chris Rogers","no":8.0,"class":"Sr.","geo_score":0.857,"id":"a64f8td9syrp","geo_precision":"city","pos":"DB","state":"FL"},"type":"Feature","geometry":{"type":"Point","coordinates":[-81.956122,28.059997]}},{"properties":{"city":"GADSDEN","name":"Kendall Kelly","no":81.0,"class":"Fr.","geo_score":0.857,"id":"a64f8t70lqz4","geo_precision":"city","pos":"WR","state":"AL"},"type":"Feature","geometry":{"type":"Point","coordinates":[-86.074145,34.024285]}},{"properties":{"city":"PHENIX CITY","name":"Earl Alexander","no":82.0,"class":"Jr.","geo_score":0.857,"id":"a64f8tf5z9zv","geo_precision":"city","pos":"WR","state":"AL"},"type":"Feature","geometry":{"type":"Point","coordinates":[-85.203923,32.375318]}},{"properties":{"city":"DIBERVILLE","name":"Kevin Norwood","no":83.0,"class":"Fr.","geo_score":0.735,"id":"a64f8tk5863t","geo_precision":"street","pos":"WR","state":"MS"},"type":"Feature","geometry":{"type":"Point","coordinates":[-88.893041,30.436819]}},{"properties":{"city":"PONTE VEDRA","name":"Colin Peek","no":84.0,"class":"Sr.","geo_score":0.857,"id":"a64f8tgbm929","geo_precision":"city","pos":"TE","state":"FL"},"type":"Feature","geometry":{"type":"Point","coordinates":[-81.380082,30.227465]}},{"properties":{"city":"MOBILE","name":"Preston Dial","no":85.0,"class":"Jr.","geo_score":0.857,"id":"a64f8t9k5c7i","geo_precision":"city","pos":"TE","state":"AL"},"type":"Feature","geometry":{"type":"Point","coordinates":[-88.103184,30.701142]}},{"properties":{"city":"BIRMINGHAM","name":"Undra Billingsley","no":86.0,"class":"Fr.","geo_score":0.857,"id":"a64f8t81xczu","geo_precision":"city","pos":"TE","state":"AL"},"type":"Feature","geometry":{"type":"Point","coordinates":[-86.801904,33.456412]}},{"properties":{"city":"FLORENCE","name":"Drew Bullard","no":87.0,"class":"So.","geo_score":0.857,"id":"a64f8tcpy2ho","geo_precision":"city","pos":"LB","state":"AL"},"type":"Feature","geometry":{"type":"Point","coordinates":[-87.686915,34.869601]}},{"properties":{"city":"BIRMINGHAM","name":"Chris Underwood","no":87.0,"class":"So.","geo_score":0.857,"id":"a64f8tci3dih","geo_precision":"city","pos":"TE","state":"AL"},"type":"Feature","geometry":{"type":"Point","coordinates":[-86.801904,33.456412]}},{"properties":{"city":"ROSSVILLE","name":"Michael Bowman","no":88.0,"class":"Fr.","geo_score":0.857,"id":"a64f8tawdkea","geo_precision":"city","pos":"WR","state":"GA"},"type":"Feature","geometry":{"type":"Point","coordinates":[-85.246291,34.798084]}},{"properties":{"city":"REFORM","name":"Michael Williams","no":89.0,"class":"Fr.","geo_score":0.857,"id":"a64f8ta102h6","geo_precision":"city","pos":"TE","state":"AL"},"type":"Feature","geometry":{"type":"Point","coordinates":[-88.042923,33.314928]}},{"properties":{"city":"FORT LAUDERDALE","name":"Nick Williams","no":9.0,"class":"Fr.","geo_score":0.857,"id":"a64f8tl4q6zl","geo_precision":"city","pos":"WR","state":"FL"},"type":"Feature","geometry":{"type":"Point","coordinates":[-80.159317,26.085115]}},{"properties":{"city":"MOBILE","name":"Phelon Jones","no":9.0,"class":"Fr.","geo_score":0.857,"id":"a64f8t9v31gv","geo_precision":"city","pos":"DB","state":"AL"},"type":"Feature","geometry":{"type":"Point","coordinates":[-88.103184,30.701142]}},{"properties":{"city":"RALEIGH","name":"Jeremy Shelley","no":90.0,"class":"Fr.","geo_score":0.857,"id":"a64f8tkc0x3y","geo_precision":"city","pos":"K","state":"NC"},"type":"Feature","geometry":{"type":"Point","coordinates":[-78.604175,35.773755]}},{"properties":{"city":"HATTIESBURG","name":"Milton Talbert","no":90.0,"class":"Jr.","geo_score":0.857,"id":"a64f8tl13ibt","geo_precision":"city","pos":"DL","state":"MS"},"type":"Feature","geometry":{"type":"Point","coordinates":[-89.28071,31.245138]}},{"properties":{"city":"BROWNSVILLE","name":"Alex Watkins","no":91.0,"class":"So.","geo_score":0.857,"id":"a64f8tfmr43u","geo_precision":"city","pos":"LB","state":"TN"},"type":"Feature","geometry":{"type":"Point","coordinates":[-89.276381,35.633418]}},{"properties":{"city":"HOUSTON","name":"Damion Square","no":92.0,"class":"Fr.","geo_score":0.857,"id":"a64f8t7lrq67","geo_precision":"city","pos":"DL","state":"TX"},"type":"Feature","geometry":{"type":"Point","coordinates":[-95.309789,29.813142]}},{"properties":{"city":"COLUMBIA","name":"Chris Bonds","no":93.0,"class":"Fr.","geo_score":0.857,"id":"a64f8thy6rq4","geo_precision":"city","pos":"DL","state":"SC"},"type":"Feature","geometry":{"type":"Point","coordinates":[-81.024864,33.987454]}},{"properties":{"city":"NORCO","name":"Darrington Sentimore","no":94.0,"class":"Fr.","geo_score":0.857,"id":"a64f8t8btcr0","geo_precision":"city","pos":"DL","state":"LA"},"type":"Feature","geometry":{"type":"Point","coordinates":[-90.404699,29.973479]}},{"properties":{"city":"ATLANTA","name":"Colin Gallagher","no":95.0,"class":"Fr.","geo_score":0.857,"id":"a64f8t7u7c3n","geo_precision":"city","pos":"K","state":"GA"},"type":"Feature","geometry":{"type":"Point","coordinates":[-84.47405,33.844371]}},{"properties":{"city":"ELIZABETHTOWN","name":"Brandon Deaderick","no":95.0,"class":"Sr.","geo_score":0.857,"id":"a64f8t7lt4j3","geo_precision":"city","pos":"DL","state":"KY"},"type":"Feature","geometry":{"type":"Point","coordinates":[-85.878391,37.684807]}},{"properties":{"city":"WEST MONROE","name":"Luther Davis","no":96.0,"class":"Jr.","geo_score":0.833,"id":"a64f8t9oiknv","geo_precision":"city","pos":"DL","state":"LA"},"type":"Feature","geometry":{"type":"Point","coordinates":[-92.16588,32.497932]}},{"properties":{"city":"CORAL SPRINGS","name":"P.J. Fitzgerald","no":97.0,"class":"Sr.","geo_score":0.857,"id":"a64f8tia8qwp","geo_precision":"city","pos":"P","state":"FL"},"type":"Feature","geometry":{"type":"Point","coordinates":[-80.270604,26.271192]}},{"properties":{"city":"LOGANVILLE","name":"Lorenzo Washington","no":97.0,"class":"Sr.","geo_score":0.857,"id":"a64f8tix4xx6","geo_precision":"city","pos":"DL","state":"GA"},"type":"Feature","geometry":{"type":"Point","coordinates":[-83.896781,33.876889]}},{"properties":{"city":"MONTGOMERY","name":"Heath Thomas","no":98.0,"class":"Sr.","geo_score":0.857,"id":"a64f8tl5uz1p","geo_precision":"city","pos":"P","state":"AL"},"type":"Feature","geometry":{"type":"Point","coordinates":[-86.257817,32.356988]}},{"properties":{"city":"HOOVER","name":"Josh Chapman","no":99.0,"class":"So.","geo_score":0.857,"id":"a64f8tce18pu","geo_precision":"city","pos":"DL","state":"AL"},"type":"Feature","geometry":{"type":"Point","coordinates":[-86.811378,33.405387]}},{"properties":{"city":"MUSCLE SHOALS","name":"Leigh Tiffin","no":99.0,"class":"Sr.","geo_score":0.857,"id":"a64f8tmgenif","geo_precision":"city","pos":"K","state":"AL"},"type":"Feature","geometry":{"type":"Point","coordinates":[-87.70004,34.758537]}}],"is_temporal":false,"author":{"url":"","metadata":"","contact_name":"","contact_address":"","source":"","contact_phone":""},"source":"","pagination":{"sort":null,"start":0,"total":106,"limit":1000000},"state":"complete","tags":"sports","published":"2014-08-11T00:12:16-04:00","id":18395}