{"type":"FeatureCollection","data_type":"Dataset","url_type":null,"permissions":[{"permissions":{"download":true,"view":true},"group_id":"everyone"}],"classification":null,"title":"Kristin LAYER - US Airports","count":901,"stream_id":19441,"contributor":{"url":"http://geocommons.com/users/10250","name":"kristin"},"data_attributes":null,"calculation_params":null,"icon_link":null,"link":"http://geocommons.com/overlays/19441.json","extent":[-176.646,17.7019,174.114,71.2854],"geometry_types":["point"],"unique_name":null,"name":"Kristin LAYER - US Airports","feature_count":901,"description":"","next_feature":null,"is_raster":false,"short_classification":"Y","stats":{"PERIMETER":{"max":0.0,"mean":0.0,"variance":0.0,"stdev":0.0,"min":0.0,"median":0.0},"AIRPRTX020":{"max":901.0,"mean":451.0,"variance":67725.1666666667,"stdev":260.240593810164,"min":1.0,"median":451.0},"TOT_ENP":{"max":38136866.0,"mean":756726.649278579,"variance":10208384264431.3,"stdev":3195056.22242103,"min":250.0,"median":8220.0},"AREA":{"max":0.0,"mean":0.0,"variance":0.0,"stdev":0.0,"min":0.0,"median":0.0}},"features":[{"properties":{"NAME":"Kona International At Keahole","FEATURE":"Airport","PERIMETER":0.0,"AIRPRTX020":1.0,"TOT_ENP":1271744.0,"STATE":"HI","AREA":0.0,"id":"a68lngvhbxla","STATE_FIPS":"15","LOCID":"KOA","FIPS":"15001","COUNTY":"Hawaii County"},"type":"Feature","geometry":{"type":"Point","coordinates":[-156.042831420898,19.7357311248779]}},{"properties":{"NAME":"Hickory Regional","FEATURE":"Airport","PERIMETER":0.0,"AIRPRTX020":2.0,"TOT_ENP":21532.0,"STATE":"NC","AREA":0.0,"id":"a68lngxczmji","STATE_FIPS":"37","LOCID":"HKY","FIPS":"37035","COUNTY":"Catawba County"},"type":"Feature","geometry":{"type":"Point","coordinates":[-81.3842620849609,35.7402839660645]}},{"properties":{"NAME":"Philadelphia International","FEATURE":"Airport","PERIMETER":0.0,"AIRPRTX020":3.0,"TOT_ENP":11762140.0,"STATE":"PA","AREA":0.0,"id":"a68lnh9p4cmi","STATE_FIPS":"42","LOCID":"PHL","FIPS":"42101","COUNTY":"Philadelphia County"},"type":"Feature","geometry":{"type":"Point","coordinates":[-75.2400283813477,39.8743171691895]}},{"properties":{"NAME":"John F. Kennedy International","FEATURE":"Airport","PERIMETER":0.0,"AIRPRTX020":4.0,"TOT_ENP":15375183.0,"STATE":"NY","AREA":0.0,"id":"a68lngxq5mft","STATE_FIPS":"36","LOCID":"JFK","FIPS":"36081","COUNTY":"Queens County"},"type":"Feature","geometry":{"type":"Point","coordinates":[-73.7774429321289,40.6425323486328]}},{"properties":{"NAME":"Hyder","FEATURE":"Seaplane Base","PERIMETER":0.0,"AIRPRTX020":5.0,"TOT_ENP":319.0,"STATE":"AK","AREA":0.0,"id":"a68lngur8mr0","STATE_FIPS":"02","LOCID":"4Z7","FIPS":"02201","COUNTY":"Prince of Wales-Outer Ketchikan Census Area"},"type":"Feature","geometry":{"type":"Point","coordinates":[-130.01252746582,55.9043388366699]}},{"properties":{"NAME":"Chignik Lagoon","FEATURE":"Airport","PERIMETER":0.0,"AIRPRTX020":6.0,"TOT_ENP":2697.0,"STATE":"AK","AREA":0.0,"id":"a68lnh0fqbsh","STATE_FIPS":"02","LOCID":"KCL","FIPS":"02164","COUNTY":"Lake and Peninsula Borough"},"type":"Feature","geometry":{"type":"Point","coordinates":[-158.532562255859,56.3078689575195]}},{"properties":{"NAME":"Koyuk","FEATURE":"Airport","PERIMETER":0.0,"AIRPRTX020":7.0,"TOT_ENP":2346.0,"STATE":"AK","AREA":0.0,"id":"a68lngwsr37y","STATE_FIPS":"02","LOCID":"KKA","FIPS":"02180","COUNTY":"Nome Census Area"},"type":"Feature","geometry":{"type":"Point","coordinates":[-161.151077270508,64.9380722045898]}},{"properties":{"NAME":"Kivalina","FEATURE":"Airport","PERIMETER":0.0,"AIRPRTX020":8.0,"TOT_ENP":3313.0,"STATE":"AK","AREA":0.0,"id":"a68lngtg5jzq","STATE_FIPS":"02","LOCID":"KVL","FIPS":"02188","COUNTY":"Northwest Arctic Borough"},"type":"Feature","geometry":{"type":"Point","coordinates":[-164.525588989258,67.7452087402344]}},{"properties":{"NAME":"Port Allen","FEATURE":"Airport","PERIMETER":0.0,"AIRPRTX020":9.0,"TOT_ENP":5000.0,"STATE":"HI","AREA":0.0,"id":"a68lnguiopg6","STATE_FIPS":"15","LOCID":"PAK","FIPS":"15007","COUNTY":"Kauai County"},"type":"Feature","geometry":{"type":"Point","coordinates":[-159.598678588867,21.8998603820801]}},{"properties":{"NAME":"Ketchikan Harbor","FEATURE":"Seaplane Base","PERIMETER":0.0,"AIRPRTX020":10.0,"TOT_ENP":46644.0,"STATE":"AK","AREA":0.0,"id":"a68lngv1xbt5","STATE_FIPS":"02","LOCID":"5KE","FIPS":"02130","COUNTY":"Ketchikan Gateway Borough"},"type":"Feature","geometry":{"type":"Point","coordinates":[-131.685104370117,55.3478088378906]}},{"properties":{"NAME":"Eugenio Maria De Hostos","FEATURE":"Airport","PERIMETER":0.0,"AIRPRTX020":11.0,"TOT_ENP":26093.0,"STATE":"PR","AREA":0.0,"id":"a68lnh70amtv","STATE_FIPS":"72","LOCID":"MAZ","FIPS":"72097","COUNTY":"Mayaguez Municipio"},"type":"Feature","geometry":{"type":"Point","coordinates":[-67.1484756469727,18.2556953430176]}},{"properties":{"NAME":"Rafael Hernandez","FEATURE":"Airport","PERIMETER":0.0,"AIRPRTX020":12.0,"TOT_ENP":6052.0,"STATE":"PR","AREA":0.0,"id":"a68lnh36e2ay","STATE_FIPS":"72","LOCID":"BQN","FIPS":"72005","COUNTY":"Aguadilla Municipio"},"type":"Feature","geometry":{"type":"Point","coordinates":[-67.1294479370117,18.4948616027832]}},{"properties":{"NAME":"Mercedita","FEATURE":"Airport","PERIMETER":0.0,"AIRPRTX020":13.0,"TOT_ENP":9234.0,"STATE":"PR","AREA":0.0,"id":"a68lngzoyod2","STATE_FIPS":"72","LOCID":"PSE","FIPS":"72113","COUNTY":"Ponce Municipio"},"type":"Feature","geometry":{"type":"Point","coordinates":[-66.5630111694336,18.00830078125]}},{"properties":{"NAME":"Henry E. Rohlsen","FEATURE":"Airport","PERIMETER":0.0,"AIRPRTX020":14.0,"TOT_ENP":233647.0,"STATE":"VI","AREA":0.0,"id":"a68lnh7uxg0o","STATE_FIPS":"78","LOCID":"STX","FIPS":"78010","COUNTY":"Saint Croix (County Equivalent)"},"type":"Feature","geometry":{"type":"Point","coordinates":[-64.7985534667969,17.7018871307373]}},{"properties":{"NAME":"Antonio Rivera Rodriguez","FEATURE":"Airport","PERIMETER":0.0,"AIRPRTX020":15.0,"TOT_ENP":27108.0,"STATE":"PR","AREA":0.0,"id":"a68lnh2wqfp4","STATE_FIPS":"72","LOCID":"VQS","FIPS":"72147","COUNTY":"Vieques Municipio"},"type":"Feature","geometry":{"type":"Point","coordinates":[-65.491828918457,18.13551902771]}},{"properties":{"NAME":"Roosevelt Roads Naval Station-Ofstie Field","FEATURE":"Airport","PERIMETER":0.0,"AIRPRTX020":16.0,"TOT_ENP":1108.0,"STATE":"PR","AREA":0.0,"id":"a68lnh1cxfhl","STATE_FIPS":"72","LOCID":"NRR","FIPS":"72037","COUNTY":"Ceiba Municipio"},"type":"Feature","geometry":{"type":"Point","coordinates":[-65.6333312988281,18.25]}},{"properties":{"NAME":"Fernando Luis Ribas Dominicci","FEATURE":"Airport","PERIMETER":0.0,"AIRPRTX020":17.0,"TOT_ENP":6112.0,"STATE":"PR","AREA":0.0,"id":"a68lnh75jck1","STATE_FIPS":"72","LOCID":"SIG","FIPS":"72127","COUNTY":"San Juan Municipio"},"type":"Feature","geometry":{"type":"Point","coordinates":[-66.0988311767578,18.456750869751]}},{"properties":{"NAME":"Diego Jimenez Torres","FEATURE":"Airport","PERIMETER":0.0,"AIRPRTX020":18.0,"TOT_ENP":17410.0,"STATE":"PR","AREA":0.0,"id":"a68lngy7plku","STATE_FIPS":"72","LOCID":"X95","FIPS":"72053","COUNTY":"Fajardo Municipio"},"type":"Feature","geometry":{"type":"Point","coordinates":[-65.6618270874023,18.308012008667]}},{"properties":{"NAME":"Luis Munoz Marin International","FEATURE":"Airport","PERIMETER":0.0,"AIRPRTX020":19.0,"TOT_ENP":4760643.0,"STATE":"PR","AREA":0.0,"id":"a68lngtlox2f","STATE_FIPS":"72","LOCID":"SJU","FIPS":"72031","COUNTY":"Carolina Municipio"},"type":"Feature","geometry":{"type":"Point","coordinates":[-66.0018310546875,18.439416885376]}},{"properties":{"NAME":"Benjamin Rivera Noriega","FEATURE":"Airport","PERIMETER":0.0,"AIRPRTX020":20.0,"TOT_ENP":930.0,"STATE":"PR","AREA":0.0,"id":"a68lnguvyp62","STATE_FIPS":"72","LOCID":"CPX","FIPS":"72049","COUNTY":"Culebra Municipio"},"type":"Feature","geometry":{"type":"Point","coordinates":[-65.3043212890625,18.313289642334]}},{"properties":{"NAME":"Cyril E. King","FEATURE":"Airport","PERIMETER":0.0,"AIRPRTX020":21.0,"TOT_ENP":529705.0,"STATE":"VI","AREA":0.0,"id":"a68lnh65a3g0","STATE_FIPS":"78","LOCID":"STT","FIPS":"78030","COUNTY":"Saint Thomas (County Equivalent)"},"type":"Feature","geometry":{"type":"Point","coordinates":[-64.9733581542969,18.3373050689697]}},{"properties":{"NAME":"Brownsville/South Padre Island International","FEATURE":"Airport","PERIMETER":0.0,"AIRPRTX020":22.0,"TOT_ENP":71949.0,"STATE":"TX","AREA":0.0,"id":"a68lnh5r6ypp","STATE_FIPS":"48","LOCID":"BRO","FIPS":"48061","COUNTY":"Cameron County"},"type":"Feature","geometry":{"type":"Point","coordinates":[-97.4258575439453,25.906831741333]}},{"properties":{"NAME":"McAllen Miller International","FEATURE":"Airport","PERIMETER":0.0,"AIRPRTX020":23.0,"TOT_ENP":311237.0,"STATE":"TX","AREA":0.0,"id":"a68lnh0n0fdp","STATE_FIPS":"48","LOCID":"MFE","FIPS":"48215","COUNTY":"Hidalgo County"},"type":"Feature","geometry":{"type":"Point","coordinates":[-98.2386093139648,26.1758327484131]}},{"properties":{"NAME":"Valley International","FEATURE":"Airport","PERIMETER":0.0,"AIRPRTX020":24.0,"TOT_ENP":470170.0,"STATE":"TX","AREA":0.0,"id":"a68lngux5132","STATE_FIPS":"48","LOCID":"HRL","FIPS":"48061","COUNTY":"Cameron County"},"type":"Feature","geometry":{"type":"Point","coordinates":[-97.6543960571289,26.2285060882568]}},{"properties":{"NAME":"Edinburg International","FEATURE":"Airport","PERIMETER":0.0,"AIRPRTX020":25.0,"TOT_ENP":1200.0,"STATE":"TX","AREA":0.0,"id":"a68lngunl7la","STATE_FIPS":"48","LOCID":"25R","FIPS":"48215","COUNTY":"Hidalgo County"},"type":"Feature","geometry":{"type":"Point","coordinates":[-98.1294555664062,26.4420108795166]}},{"properties":{"NAME":"Key West International","FEATURE":"Airport","PERIMETER":0.0,"AIRPRTX020":26.0,"TOT_ENP":275909.0,"STATE":"FL","AREA":0.0,"id":"a68lngvchqdq","STATE_FIPS":"12","LOCID":"EYW","FIPS":"12087","COUNTY":"Monroe County"},"type":"Feature","geometry":{"type":"Point","coordinates":[-81.7595520019531,24.5561103820801]}},{"properties":{"NAME":"The Florida Keys Marathon","FEATURE":"Airport","PERIMETER":0.0,"AIRPRTX020":27.0,"TOT_ENP":20169.0,"STATE":"FL","AREA":0.0,"id":"a68lngz1a97g","STATE_FIPS":"12","LOCID":"MTH","FIPS":"12087","COUNTY":"Monroe County"},"type":"Feature","geometry":{"type":"Point","coordinates":[-81.0513763427734,24.7261409759521]}},{"properties":{"NAME":"Laredo International","FEATURE":"Airport","PERIMETER":0.0,"AIRPRTX020":28.0,"TOT_ENP":87739.0,"STATE":"TX","AREA":0.0,"id":"a68lnh9qx8zo","STATE_FIPS":"48","LOCID":"LRD","FIPS":"48479","COUNTY":"Webb County"},"type":"Feature","geometry":{"type":"Point","coordinates":[-99.461540222168,27.5437393188477]}},{"properties":{"NAME":"Corpus Christi International","FEATURE":"Airport","PERIMETER":0.0,"AIRPRTX020":29.0,"TOT_ENP":449672.0,"STATE":"TX","AREA":0.0,"id":"a68lnh7fygtd","STATE_FIPS":"48","LOCID":"CRP","FIPS":"48355","COUNTY":"Nueces County"},"type":"Feature","geometry":{"type":"Point","coordinates":[-97.5012130737305,27.7703609466553]}},{"properties":{"NAME":"Naples Municipal","FEATURE":"Airport","PERIMETER":0.0,"AIRPRTX020":30.0,"TOT_ENP":54494.0,"STATE":"FL","AREA":0.0,"id":"a68lnh5qblqd","STATE_FIPS":"12","LOCID":"APF","FIPS":"12021","COUNTY":"Collier County"},"type":"Feature","geometry":{"type":"Point","coordinates":[-81.7754440307617,26.1524715423584]}},{"properties":{"NAME":"Miami International","FEATURE":"Airport","PERIMETER":0.0,"AIRPRTX020":31.0,"TOT_ENP":16531295.0,"STATE":"FL","AREA":0.0,"id":"a68lngy8lah9","STATE_FIPS":"12","LOCID":"MIA","FIPS":"12086","COUNTY":"Miami-Dade County"},"type":"Feature","geometry":{"type":"Point","coordinates":[-80.2905578613281,25.793249130249]}},{"properties":{"NAME":"Fort Lauderdale Executive","FEATURE":"Airport","PERIMETER":0.0,"AIRPRTX020":32.0,"TOT_ENP":304.0,"STATE":"FL","AREA":0.0,"id":"a68lnh6nmdh2","STATE_FIPS":"12","LOCID":"FXE","FIPS":"12011","COUNTY":"Broward County"},"type":"Feature","geometry":{"type":"Point","coordinates":[-80.1707077026367,26.1972808837891]}},{"properties":{"NAME":"Fort Lauderdale/Hollywood International","FEATURE":"Airport","PERIMETER":0.0,"AIRPRTX020":33.0,"TOT_ENP":6932142.0,"STATE":"FL","AREA":0.0,"id":"a68lnh7bvitv","STATE_FIPS":"12","LOCID":"FLL","FIPS":"12011","COUNTY":"Broward County"},"type":"Feature","geometry":{"type":"Point","coordinates":[-80.1527481079102,26.0725841522217]}},{"properties":{"NAME":"Victoria Regional","FEATURE":"Airport","PERIMETER":0.0,"AIRPRTX020":34.0,"TOT_ENP":20016.0,"STATE":"TX","AREA":0.0,"id":"a68lnh1vwegr","STATE_FIPS":"48","LOCID":"VCT","FIPS":"48469","COUNTY":"Victoria County"},"type":"Feature","geometry":{"type":"Point","coordinates":[-96.9184875488281,28.8525562286377]}},{"properties":{"NAME":"Brazoria County","FEATURE":"Airport","PERIMETER":0.0,"AIRPRTX020":35.0,"TOT_ENP":6039.0,"STATE":"TX","AREA":0.0,"id":"a68lngy4y7ny","STATE_FIPS":"48","LOCID":"LBX","FIPS":"48039","COUNTY":"Brazoria County"},"type":"Feature","geometry":{"type":"Point","coordinates":[-95.4620819091797,29.1086387634277]}},{"properties":{"NAME":"Sarasota/Bradenton International","FEATURE":"Airport","PERIMETER":0.0,"AIRPRTX020":36.0,"TOT_ENP":763215.0,"STATE":"FL","AREA":0.0,"id":"a68lnh8c9r39","STATE_FIPS":"12","LOCID":"SRQ","FIPS":"12081","COUNTY":"Manatee County"},"type":"Feature","geometry":{"type":"Point","coordinates":[-82.5541076660156,27.3953342437744]}},{"properties":{"NAME":"Southwest Florida International","FEATURE":"Airport","PERIMETER":0.0,"AIRPRTX020":37.0,"TOT_ENP":2418587.0,"STATE":"FL","AREA":0.0,"id":"a68lngz0389o","STATE_FIPS":"12","LOCID":"RSW","FIPS":"12071","COUNTY":"Lee County"},"type":"Feature","geometry":{"type":"Point","coordinates":[-81.7551651000977,26.5361671447754]}},{"properties":{"NAME":"Palm Beach International","FEATURE":"Airport","PERIMETER":0.0,"AIRPRTX020":38.0,"TOT_ENP":2877039.0,"STATE":"FL","AREA":0.0,"id":"a68lnh97rzp5","STATE_FIPS":"12","LOCID":"PBI","FIPS":"12099","COUNTY":"Palm Beach County"},"type":"Feature","geometry":{"type":"Point","coordinates":[-80.0955963134766,26.683162689209]}},{"properties":{"NAME":"North Palm Beach County General Aviation","FEATURE":"Airport","PERIMETER":0.0,"AIRPRTX020":39.0,"TOT_ENP":360.0,"STATE":"FL","AREA":0.0,"id":"a68lngx71w1l","STATE_FIPS":"12","LOCID":"F45","FIPS":"12099","COUNTY":"Palm Beach County"},"type":"Feature","geometry":{"type":"Point","coordinates":[-80.2214813232422,26.8453731536865]}},{"properties":{"NAME":"San Antonio International","FEATURE":"Airport","PERIMETER":0.0,"AIRPRTX020":40.0,"TOT_ENP":3403544.0,"STATE":"TX","AREA":0.0,"id":"a68lnh0i9xy8","STATE_FIPS":"48","LOCID":"SAT","FIPS":"48029","COUNTY":"Bexar County"},"type":"Feature","geometry":{"type":"Point","coordinates":[-98.4697799682617,29.5336952209473]}},{"properties":{"NAME":"Austin-Bergstrom International","FEATURE":"Airport","PERIMETER":0.0,"AIRPRTX020":41.0,"TOT_ENP":3305073.0,"STATE":"TX","AREA":0.0,"id":"a68lngwz9fyg","STATE_FIPS":"48","LOCID":"AUS","FIPS":"48453","COUNTY":"Travis County"},"type":"Feature","geometry":{"type":"Point","coordinates":[-97.6698684692383,30.1945323944092]}},{"properties":{"NAME":"Salaika Aviation","FEATURE":"Airport","PERIMETER":0.0,"AIRPRTX020":42.0,"TOT_ENP":1000.0,"STATE":"TX","AREA":0.0,"id":"a68lngtyvov1","STATE_FIPS":"48","LOCID":"07TA","FIPS":"48039","COUNTY":"Brazoria County"},"type":"Feature","geometry":{"type":"Point","coordinates":[-95.3446578979492,29.2405185699463]}},{"properties":{"NAME":"Clover Field","FEATURE":"Airport","PERIMETER":0.0,"AIRPRTX020":43.0,"TOT_ENP":689.0,"STATE":"TX","AREA":0.0,"id":"a68lnh6k0570","STATE_FIPS":"48","LOCID":"LVJ","FIPS":"48039","COUNTY":"Brazoria County"},"type":"Feature","geometry":{"type":"Point","coordinates":[-95.2421646118164,29.5213050842285]}},{"properties":{"NAME":"Sugar Land Municipal/Hull Field","FEATURE":"Airport","PERIMETER":0.0,"AIRPRTX020":44.0,"TOT_ENP":308.0,"STATE":"TX","AREA":0.0,"id":"a68lnh18z405","STATE_FIPS":"48","LOCID":"SGR","FIPS":"48157","COUNTY":"Fort Bend County"},"type":"Feature","geometry":{"type":"Point","coordinates":[-95.6565322875977,29.6222534179688]}},{"properties":{"NAME":"Ellington Field","FEATURE":"Airport","PERIMETER":0.0,"AIRPRTX020":45.0,"TOT_ENP":46223.0,"STATE":"TX","AREA":0.0,"id":"a68lngtr1258","STATE_FIPS":"48","LOCID":"EFD","FIPS":"48201","COUNTY":"Harris County"},"type":"Feature","geometry":{"type":"Point","coordinates":[-95.1587524414062,29.6073341369629]}},{"properties":{"NAME":"William P. Hobby","FEATURE":"Airport","PERIMETER":0.0,"AIRPRTX020":46.0,"TOT_ENP":4243907.0,"STATE":"TX","AREA":0.0,"id":"a68lngtwb2rt","STATE_FIPS":"48","LOCID":"HOU","FIPS":"48201","COUNTY":"Harris County"},"type":"Feature","geometry":{"type":"Point","coordinates":[-95.2788925170898,29.6454181671143]}},{"properties":{"NAME":"George Bush Intercontinental Airport/Houston","FEATURE":"Airport","PERIMETER":0.0,"AIRPRTX020":47.0,"TOT_ENP":15267294.0,"STATE":"TX","AREA":0.0,"id":"a68lnh7ht22p","STATE_FIPS":"48","LOCID":"IAH","FIPS":"48201","COUNTY":"Harris County"},"type":"Feature","geometry":{"type":"Point","coordinates":[-95.3397216796875,29.9804725646973]}},{"properties":{"NAME":"David Wayne Hooks Memorial","FEATURE":"Airport","PERIMETER":0.0,"AIRPRTX020":48.0,"TOT_ENP":1220.0,"STATE":"TX","AREA":0.0,"id":"a68lngw5wzcg","STATE_FIPS":"48","LOCID":"DWH","FIPS":"48201","COUNTY":"Harris County"},"type":"Feature","geometry":{"type":"Point","coordinates":[-95.5527801513672,30.061861038208]}},{"properties":{"NAME":"Southeast Texas Regional","FEATURE":"Airport","PERIMETER":0.0,"AIRPRTX020":49.0,"TOT_ENP":97537.0,"STATE":"TX","AREA":0.0,"id":"a68lnh7ifm30","STATE_FIPS":"48","LOCID":"BPT","FIPS":"48245","COUNTY":"Jefferson County"},"type":"Feature","geometry":{"type":"Point","coordinates":[-94.0206909179688,29.9508323669434]}},{"properties":{"NAME":"Abbeville Chris Crusta Memorial","FEATURE":"Airport","PERIMETER":0.0,"AIRPRTX020":50.0,"TOT_ENP":2240.0,"STATE":"LA","AREA":0.0,"id":"a68lnh3pvmlm","STATE_FIPS":"22","LOCID":"0R3","FIPS":"22113","COUNTY":"Vermilion Parish"},"type":"Feature","geometry":{"type":"Point","coordinates":[-92.0841522216797,29.9757614135742]}},{"properties":{"NAME":"MacDill Air Force Base","FEATURE":"Airport","PERIMETER":0.0,"AIRPRTX020":51.0,"TOT_ENP":2603.0,"STATE":"FL","AREA":0.0,"id":"a68lngzggtnu","STATE_FIPS":"12","LOCID":"MCF","FIPS":"12057","COUNTY":"Hillsborough County"},"type":"Feature","geometry":{"type":"Point","coordinates":[-82.521484375,27.8491916656494]}},{"properties":{"NAME":"Saint Petersburg-Clearwater International","FEATURE":"Airport","PERIMETER":0.0,"AIRPRTX020":52.0,"TOT_ENP":381730.0,"STATE":"FL","AREA":0.0,"id":"a68lngvkfjl9","STATE_FIPS":"12","LOCID":"PIE","FIPS":"12103","COUNTY":"Pinellas County"},"type":"Feature","geometry":{"type":"Point","coordinates":[-82.6874389648438,27.9107627868652]}},{"properties":{"NAME":"Tampa International","FEATURE":"Airport","PERIMETER":0.0,"AIRPRTX020":53.0,"TOT_ENP":7490117.0,"STATE":"FL","AREA":0.0,"id":"a68lngubaxse","STATE_FIPS":"12","LOCID":"TPA","FIPS":"12057","COUNTY":"Hillsborough County"},"type":"Feature","geometry":{"type":"Point","coordinates":[-82.5332489013672,27.975471496582]}},{"properties":{"NAME":"Kissimmee Municipal","FEATURE":"Airport","PERIMETER":0.0,"AIRPRTX020":54.0,"TOT_ENP":482.0,"STATE":"FL","AREA":0.0,"id":"a68lnh5x5xoz","STATE_FIPS":"12","LOCID":"ISM","FIPS":"12097","COUNTY":"Osceola County"},"type":"Feature","geometry":{"type":"Point","coordinates":[-81.4370803833008,28.2898063659668]}},{"properties":{"NAME":"Orlando International","FEATURE":"Airport","PERIMETER":0.0,"AIRPRTX020":55.0,"TOT_ENP":14026868.0,"STATE":"FL","AREA":0.0,"id":"a68lnh7wnidr","STATE_FIPS":"12","LOCID":"MCO","FIPS":"12095","COUNTY":"Orange County"},"type":"Feature","geometry":{"type":"Point","coordinates":[-81.3160247802734,28.4288883209229]}},{"properties":{"NAME":"Executive","FEATURE":"Airport","PERIMETER":0.0,"AIRPRTX020":56.0,"TOT_ENP":258.0,"STATE":"FL","AREA":0.0,"id":"a68lnh0i77k0","STATE_FIPS":"12","LOCID":"ORL","FIPS":"12095","COUNTY":"Orange County"},"type":"Feature","geometry":{"type":"Point","coordinates":[-81.3329467773438,28.5454730987549]}},{"properties":{"NAME":"Melbourne International","FEATURE":"Airport","PERIMETER":0.0,"AIRPRTX020":57.0,"TOT_ENP":273813.0,"STATE":"FL","AREA":0.0,"id":"a68lnh6tgw8b","STATE_FIPS":"12","LOCID":"MLB","FIPS":"12009","COUNTY":"Brevard County"},"type":"Feature","geometry":{"type":"Point","coordinates":[-80.6458053588867,28.1027507781982]}},{"properties":{"NAME":"Patrick Air Force Base","FEATURE":"Airport","PERIMETER":0.0,"AIRPRTX020":58.0,"TOT_ENP":891.0,"STATE":"FL","AREA":0.0,"id":"a68lngtxn57j","STATE_FIPS":"12","LOCID":"COF","FIPS":"12009","COUNTY":"Brevard County"},"type":"Feature","geometry":{"type":"Point","coordinates":[-80.607551574707,28.2394542694092]}},{"properties":{"NAME":"San Angelo Regional/Mathis Field","FEATURE":"Airport","PERIMETER":0.0,"AIRPRTX020":59.0,"TOT_ENP":39411.0,"STATE":"TX","AREA":0.0,"id":"a68lngv4x6tz","STATE_FIPS":"48","LOCID":"SJT","FIPS":"48451","COUNTY":"Tom Green County"},"type":"Feature","geometry":{"type":"Point","coordinates":[-100.496307373047,31.3577499389648]}},{"properties":{"NAME":"Robert Gray Army Air Field","FEATURE":"Airport","PERIMETER":0.0,"AIRPRTX020":60.0,"TOT_ENP":19888.0,"STATE":"TX","AREA":0.0,"id":"a68lngxshk8b","STATE_FIPS":"48","LOCID":"GRK","FIPS":"48027","COUNTY":"Bell County"},"type":"Feature","geometry":{"type":"Point","coordinates":[-97.8277969360352,31.0648975372314]}},{"properties":{"NAME":"Killeen Municipal","FEATURE":"Airport","PERIMETER":0.0,"AIRPRTX020":61.0,"TOT_ENP":90418.0,"STATE":"TX","AREA":0.0,"id":"a68lnh4nvakj","STATE_FIPS":"48","LOCID":"ILE","FIPS":"48027","COUNTY":"Bell County"},"type":"Feature","geometry":{"type":"Point","coordinates":[-97.6865005493164,31.0858325958252]}},{"properties":{"NAME":"Easterwood Field","FEATURE":"Airport","PERIMETER":0.0,"AIRPRTX020":62.0,"TOT_ENP":93005.0,"STATE":"TX","AREA":0.0,"id":"a68lnh9nuuik","STATE_FIPS":"48","LOCID":"CLL","FIPS":"48041","COUNTY":"Brazos County"},"type":"Feature","geometry":{"type":"Point","coordinates":[-96.3638229370117,30.5885887145996]}},{"properties":{"NAME":"Lake Charles Regional","FEATURE":"Airport","PERIMETER":0.0,"AIRPRTX020":63.0,"TOT_ENP":76263.0,"STATE":"LA","AREA":0.0,"id":"a68lngw0kt3k","STATE_FIPS":"22","LOCID":"LCH","FIPS":"22019","COUNTY":"Calcasieu Parish"},"type":"Feature","geometry":{"type":"Point","coordinates":[-93.2234039306641,30.1260967254639]}},{"properties":{"NAME":"Allen Parish","FEATURE":"Airport","PERIMETER":0.0,"AIRPRTX020":64.0,"TOT_ENP":521.0,"STATE":"LA","AREA":0.0,"id":"a68lnguax3p3","STATE_FIPS":"22","LOCID":"L42","FIPS":"22003","COUNTY":"Allen Parish"},"type":"Feature","geometry":{"type":"Point","coordinates":[-92.6884689331055,30.7501659393311]}},{"properties":{"NAME":"Acadiana Regional","FEATURE":"Airport","PERIMETER":0.0,"AIRPRTX020":65.0,"TOT_ENP":277.0,"STATE":"LA","AREA":0.0,"id":"a68lngtlxhna","STATE_FIPS":"22","LOCID":"ARA","FIPS":"22045","COUNTY":"Iberia Parish"},"type":"Feature","geometry":{"type":"Point","coordinates":[-91.8838958740234,30.0377578735352]}},{"properties":{"NAME":"Lafayette Regional","FEATURE":"Airport","PERIMETER":0.0,"AIRPRTX020":66.0,"TOT_ENP":189772.0,"STATE":"LA","AREA":0.0,"id":"a68lngwong3c","STATE_FIPS":"22","LOCID":"LFT","FIPS":"22055","COUNTY":"Lafayette Parish"},"type":"Feature","geometry":{"type":"Point","coordinates":[-91.9876556396484,30.2052803039551]}},{"properties":{"NAME":"Louis Armstrong New Orleans International/Moisant Field","FEATURE":"Airport","PERIMETER":0.0,"AIRPRTX020":67.0,"TOT_ENP":4735571.0,"STATE":"LA","AREA":0.0,"id":"a68lnh2oyb1p","STATE_FIPS":"22","LOCID":"MSY","FIPS":"22051","COUNTY":"Jefferson Parish"},"type":"Feature","geometry":{"type":"Point","coordinates":[-90.2580261230469,29.9933891296387]}},{"properties":{"NAME":"Baton Rouge Metropolitan, Ryan Field","FEATURE":"Airport","PERIMETER":0.0,"AIRPRTX020":68.0,"TOT_ENP":410386.0,"STATE":"LA","AREA":0.0,"id":"a68lnh94ymib","STATE_FIPS":"22","LOCID":"BTR","FIPS":"22033","COUNTY":"East Baton Rouge Parish"},"type":"Feature","geometry":{"type":"Point","coordinates":[-91.1496353149414,30.5331611633301]}},{"properties":{"NAME":"Lakefront","FEATURE":"Airport","PERIMETER":0.0,"AIRPRTX020":69.0,"TOT_ENP":2217.0,"STATE":"LA","AREA":0.0,"id":"a68lngu3obsf","STATE_FIPS":"22","LOCID":"NEW","FIPS":"22071","COUNTY":"Orleans Parish"},"type":"Feature","geometry":{"type":"Point","coordinates":[-90.0282592773438,30.0424213409424]}},{"properties":{"NAME":"Gulfport-Biloxi Regional","FEATURE":"Airport","PERIMETER":0.0,"AIRPRTX020":70.0,"TOT_ENP":400976.0,"STATE":"MS","AREA":0.0,"id":"a68lngyoajch","STATE_FIPS":"28","LOCID":"GPT","FIPS":"28047","COUNTY":"Harrison County"},"type":"Feature","geometry":{"type":"Point","coordinates":[-89.0700912475586,30.4072799682617]}},{"properties":{"NAME":"Fairhope Municipal","FEATURE":"Airport","PERIMETER":0.0,"AIRPRTX020":71.0,"TOT_ENP":346.0,"STATE":"AL","AREA":0.0,"id":"a68lnh7p0o1g","STATE_FIPS":"01","LOCID":"4R4","FIPS":"01003","COUNTY":"Baldwin County"},"type":"Feature","geometry":{"type":"Point","coordinates":[-87.8780212402344,30.4621124267578]}},{"properties":{"NAME":"Mobile Regional","FEATURE":"Airport","PERIMETER":0.0,"AIRPRTX020":72.0,"TOT_ENP":354459.0,"STATE":"AL","AREA":0.0,"id":"a68lnh9jgw3v","STATE_FIPS":"01","LOCID":"MOB","FIPS":"01097","COUNTY":"Mobile County"},"type":"Feature","geometry":{"type":"Point","coordinates":[-88.2428359985352,30.6914157867432]}},{"properties":{"NAME":"Pensacola Regional","FEATURE":"Airport","PERIMETER":0.0,"AIRPRTX020":73.0,"TOT_ENP":544979.0,"STATE":"FL","AREA":0.0,"id":"a68lngz5hr45","STATE_FIPS":"12","LOCID":"PNS","FIPS":"12033","COUNTY":"Escambia County"},"type":"Feature","geometry":{"type":"Point","coordinates":[-87.1874465942383,30.4733047485352]}},{"properties":{"NAME":"Tyndall Air Force Base","FEATURE":"Airport","PERIMETER":0.0,"AIRPRTX020":74.0,"TOT_ENP":887.0,"STATE":"FL","AREA":0.0,"id":"a68lngygejft","STATE_FIPS":"12","LOCID":"PAM","FIPS":"12005","COUNTY":"Bay County"},"type":"Feature","geometry":{"type":"Point","coordinates":[-85.5764923095703,30.0699634552002]}},{"properties":{"NAME":"Panama City-Bay County International","FEATURE":"Airport","PERIMETER":0.0,"AIRPRTX020":75.0,"TOT_ENP":164426.0,"STATE":"FL","AREA":0.0,"id":"a68lngxni62w","STATE_FIPS":"12","LOCID":"PFN","FIPS":"12005","COUNTY":"Bay County"},"type":"Feature","geometry":{"type":"Point","coordinates":[-85.6828079223633,30.2120838165283]}},{"properties":{"NAME":"Gainesville Regional","FEATURE":"Airport","PERIMETER":0.0,"AIRPRTX020":76.0,"TOT_ENP":152087.0,"STATE":"FL","AREA":0.0,"id":"a68lnh4vbur2","STATE_FIPS":"12","LOCID":"GNV","FIPS":"12001","COUNTY":"Alachua County"},"type":"Feature","geometry":{"type":"Point","coordinates":[-82.2717742919922,29.690055847168]}},{"properties":{"NAME":"Orlando Sanford","FEATURE":"Airport","PERIMETER":0.0,"AIRPRTX020":77.0,"TOT_ENP":426570.0,"STATE":"FL","AREA":0.0,"id":"a68lngzvzkqn","STATE_FIPS":"12","LOCID":"SFB","FIPS":"12117","COUNTY":"Seminole County"},"type":"Feature","geometry":{"type":"Point","coordinates":[-81.2374877929688,28.7776393890381]}},{"properties":{"NAME":"New Smyrna Beach Municipal","FEATURE":"Airport","PERIMETER":0.0,"AIRPRTX020":78.0,"TOT_ENP":703.0,"STATE":"FL","AREA":0.0,"id":"a68lnh0v7wr3","STATE_FIPS":"12","LOCID":"EVB","FIPS":"12127","COUNTY":"Volusia County"},"type":"Feature","geometry":{"type":"Point","coordinates":[-80.9483642578125,29.0558052062988]}},{"properties":{"NAME":"Daytona Beach International","FEATURE":"Airport","PERIMETER":0.0,"AIRPRTX020":79.0,"TOT_ENP":275231.0,"STATE":"FL","AREA":0.0,"id":"a68lnh77n17j","STATE_FIPS":"12","LOCID":"DAB","FIPS":"12127","COUNTY":"Volusia County"},"type":"Feature","geometry":{"type":"Point","coordinates":[-81.0580520629883,29.1799163818359]}},{"properties":{"NAME":"Cape Canaveral As Skid Strip","FEATURE":"Airport","PERIMETER":0.0,"AIRPRTX020":80.0,"TOT_ENP":355.0,"STATE":"FL","AREA":0.0,"id":"a68lnh2tlt2k","STATE_FIPS":"12","LOCID":"XMR","FIPS":"12009","COUNTY":"Brevard County"},"type":"Feature","geometry":{"type":"Point","coordinates":[-80.5664367675781,28.4675006866455]}},{"properties":{"NAME":"Sierra Vista Municipal-Libby Army Air Field","FEATURE":"Airport","PERIMETER":0.0,"AIRPRTX020":81.0,"TOT_ENP":7005.0,"STATE":"AZ","AREA":0.0,"id":"a68lngyj2xzg","STATE_FIPS":"04","LOCID":"FHU","FIPS":"04003","COUNTY":"Cochise County"},"type":"Feature","geometry":{"type":"Point","coordinates":[-110.344390869141,31.588472366333]}},{"properties":{"NAME":"El Paso International","FEATURE":"Airport","PERIMETER":0.0,"AIRPRTX020":82.0,"TOT_ENP":1688927.0,"STATE":"TX","AREA":0.0,"id":"a68lnh2i06os","STATE_FIPS":"48","LOCID":"ELP","FIPS":"48141","COUNTY":"El Paso County"},"type":"Feature","geometry":{"type":"Point","coordinates":[-106.377807617188,31.8066673278809]}},{"properties":{"NAME":"Biggs Army Air Field","FEATURE":"Airport","PERIMETER":0.0,"AIRPRTX020":83.0,"TOT_ENP":1635.0,"STATE":"TX","AREA":0.0,"id":"a68lngzpes50","STATE_FIPS":"48","LOCID":"BIF","FIPS":"48141","COUNTY":"El Paso County"},"type":"Feature","geometry":{"type":"Point","coordinates":[-106.379981994629,31.8495502471924]}},{"properties":{"NAME":"Cavern City Air Trml","FEATURE":"Airport","PERIMETER":0.0,"AIRPRTX020":84.0,"TOT_ENP":7787.0,"STATE":"NM","AREA":0.0,"id":"a68lnh7364if","STATE_FIPS":"35","LOCID":"CNM","FIPS":"35015","COUNTY":"Eddy County"},"type":"Feature","geometry":{"type":"Point","coordinates":[-104.263275146484,32.3374710083008]}},{"properties":{"NAME":"Midland International","FEATURE":"Airport","PERIMETER":0.0,"AIRPRTX020":85.0,"TOT_ENP":485623.0,"STATE":"TX","AREA":0.0,"id":"a68lnh6oi5mt","STATE_FIPS":"48","LOCID":"MAF","FIPS":"48329","COUNTY":"Midland County"},"type":"Feature","geometry":{"type":"Point","coordinates":[-102.20191192627,31.9425277709961]}},{"properties":{"NAME":"Midland Airpark","FEATURE":"Airport","PERIMETER":0.0,"AIRPRTX020":86.0,"TOT_ENP":738.0,"STATE":"TX","AREA":0.0,"id":"a68lnh89liye","STATE_FIPS":"48","LOCID":"MDD","FIPS":"48329","COUNTY":"Midland County"},"type":"Feature","geometry":{"type":"Point","coordinates":[-102.101028442383,32.0365257263184]}},{"properties":{"NAME":"Abilene Regional","FEATURE":"Airport","PERIMETER":0.0,"AIRPRTX020":87.0,"TOT_ENP":47984.0,"STATE":"TX","AREA":0.0,"id":"a68lnh731g6o","STATE_FIPS":"48","LOCID":"ABI","FIPS":"48441","COUNTY":"Taylor County"},"type":"Feature","geometry":{"type":"Point","coordinates":[-99.6819000244141,32.411319732666]}},{"properties":{"NAME":"Brownwood Regional","FEATURE":"Airport","PERIMETER":0.0,"AIRPRTX020":88.0,"TOT_ENP":1699.0,"STATE":"TX","AREA":0.0,"id":"a68lngto8got","STATE_FIPS":"48","LOCID":"BWD","FIPS":"48049","COUNTY":"Brown County"},"type":"Feature","geometry":{"type":"Point","coordinates":[-98.9564971923828,31.7936229705811]}},{"properties":{"NAME":"Waco Regional","FEATURE":"Airport","PERIMETER":0.0,"AIRPRTX020":89.0,"TOT_ENP":67045.0,"STATE":"TX","AREA":0.0,"id":"a68lnh2n5l00","STATE_FIPS":"48","LOCID":"ACT","FIPS":"48309","COUNTY":"McLennan County"},"type":"Feature","geometry":{"type":"Point","coordinates":[-97.2305221557617,31.6112880706787]}},{"properties":{"NAME":"Alexandria International","FEATURE":"Airport","PERIMETER":0.0,"AIRPRTX020":90.0,"TOT_ENP":116006.0,"STATE":"LA","AREA":0.0,"id":"a68lnh9c9td4","STATE_FIPS":"22","LOCID":"AEX","FIPS":"22079","COUNTY":"Rapides Parish"},"type":"Feature","geometry":{"type":"Point","coordinates":[-92.5485534667969,31.32737159729]}},{"properties":{"NAME":"Hattiesburg-Laurel Regional","FEATURE":"Airport","PERIMETER":0.0,"AIRPRTX020":91.0,"TOT_ENP":12331.0,"STATE":"MS","AREA":0.0,"id":"a68lnh8tcgj4","STATE_FIPS":"28","LOCID":"PIB","FIPS":"28067","COUNTY":"Jones County"},"type":"Feature","geometry":{"type":"Point","coordinates":[-89.3370590209961,31.4671497344971]}},{"properties":{"NAME":"Eglin Air Force Base","FEATURE":"Airport","PERIMETER":0.0,"AIRPRTX020":92.0,"TOT_ENP":351935.0,"STATE":"FL","AREA":0.0,"id":"a68lngwzr0g4","STATE_FIPS":"12","LOCID":"VPS","FIPS":"12091","COUNTY":"Okaloosa County"},"type":"Feature","geometry":{"type":"Point","coordinates":[-86.5253982543945,30.4832496643066]}},{"properties":{"NAME":"Dothan Regional","FEATURE":"Airport","PERIMETER":0.0,"AIRPRTX020":93.0,"TOT_ENP":66025.0,"STATE":"AL","AREA":0.0,"id":"a68lnh9fr4q5","STATE_FIPS":"01","LOCID":"DHN","FIPS":"01045","COUNTY":"Dale County"},"type":"Feature","geometry":{"type":"Point","coordinates":[-85.4496307373047,31.3213386535645]}},{"properties":{"NAME":"Tallahassee Regional","FEATURE":"Airport","PERIMETER":0.0,"AIRPRTX020":94.0,"TOT_ENP":454624.0,"STATE":"FL","AREA":0.0,"id":"a68lnh2ijol6","STATE_FIPS":"12","LOCID":"TLH","FIPS":"12073","COUNTY":"Leon County"},"type":"Feature","geometry":{"type":"Point","coordinates":[-84.3503341674805,30.3965282440186]}},{"properties":{"NAME":"Valdosta Regional","FEATURE":"Airport","PERIMETER":0.0,"AIRPRTX020":95.0,"TOT_ENP":32695.0,"STATE":"GA","AREA":0.0,"id":"a68lnh1ertdc","STATE_FIPS":"13","LOCID":"VLD","FIPS":"13185","COUNTY":"Lowndes County"},"type":"Feature","geometry":{"type":"Point","coordinates":[-83.276725769043,30.7824993133545]}},{"properties":{"NAME":"Jacksonville International","FEATURE":"Airport","PERIMETER":0.0,"AIRPRTX020":96.0,"TOT_ENP":2445231.0,"STATE":"FL","AREA":0.0,"id":"a68lngyz4m5r","STATE_FIPS":"12","LOCID":"JAX","FIPS":"12031","COUNTY":"Duval County"},"type":"Feature","geometry":{"type":"Point","coordinates":[-81.687858581543,30.4940547943115]}},{"properties":{"NAME":"Jacksonville Naval Air Station/Towers Field","FEATURE":"Airport","PERIMETER":0.0,"AIRPRTX020":97.0,"TOT_ENP":4144.0,"STATE":"FL","AREA":0.0,"id":"a68lnh0rqv07","STATE_FIPS":"12","LOCID":"NIP","FIPS":"12031","COUNTY":"Duval County"},"type":"Feature","geometry":{"type":"Point","coordinates":[-81.6764831542969,30.2346839904785]}},{"properties":{"NAME":"Tucson International","FEATURE":"Airport","PERIMETER":0.0,"AIRPRTX020":98.0,"TOT_ENP":1781091.0,"STATE":"AZ","AREA":0.0,"id":"a68lngy136dp","STATE_FIPS":"04","LOCID":"TUS","FIPS":"04019","COUNTY":"Pima County"},"type":"Feature","geometry":{"type":"Point","coordinates":[-110.941024780273,32.1160850524902]}},{"properties":{"NAME":"Davis-Monthan Air Force Base","FEATURE":"Airport","PERIMETER":0.0,"AIRPRTX020":99.0,"TOT_ENP":462.0,"STATE":"AZ","AREA":0.0,"id":"a68lngufs6y2","STATE_FIPS":"04","LOCID":"DMA","FIPS":"04019","COUNTY":"Pima County"},"type":"Feature","geometry":{"type":"Point","coordinates":[-110.883140563965,32.1664657592773]}},{"properties":{"NAME":"Grant County","FEATURE":"Airport","PERIMETER":0.0,"AIRPRTX020":100.0,"TOT_ENP":3192.0,"STATE":"NM","AREA":0.0,"id":"a68lngux7x8b","STATE_FIPS":"35","LOCID":"SVC","FIPS":"35017","COUNTY":"Grant County"},"type":"Feature","geometry":{"type":"Point","coordinates":[-108.156387329102,32.636547088623]}},{"properties":{"NAME":"Las Cruces International","FEATURE":"Airport","PERIMETER":0.0,"AIRPRTX020":101.0,"TOT_ENP":2995.0,"STATE":"NM","AREA":0.0,"id":"a68lnh88iuxf","STATE_FIPS":"35","LOCID":"LRU","FIPS":"35013","COUNTY":"Dona Ana County"},"type":"Feature","geometry":{"type":"Point","coordinates":[-106.921974182129,32.2894172668457]}},{"properties":{"NAME":"Alamogordo-White Sands Regional","FEATURE":"Airport","PERIMETER":0.0,"AIRPRTX020":102.0,"TOT_ENP":3098.0,"STATE":"NM","AREA":0.0,"id":"a68lnh8gbs6s","STATE_FIPS":"35","LOCID":"ALM","FIPS":"35035","COUNTY":"Otero County"},"type":"Feature","geometry":{"type":"Point","coordinates":[-105.990585327148,32.8399429321289]}},{"properties":{"NAME":"Roswell Industrial Air Center","FEATURE":"Airport","PERIMETER":0.0,"AIRPRTX020":103.0,"TOT_ENP":18832.0,"STATE":"NM","AREA":0.0,"id":"a68lngtnzue0","STATE_FIPS":"35","LOCID":"ROW","FIPS":"35005","COUNTY":"Chaves County"},"type":"Feature","geometry":{"type":"Point","coordinates":[-104.530555725098,33.3015556335449]}},{"properties":{"NAME":"Fort Worth Meacham International","FEATURE":"Airport","PERIMETER":0.0,"AIRPRTX020":104.0,"TOT_ENP":1389.0,"STATE":"TX","AREA":0.0,"id":"a68lnh3fpy1o","STATE_FIPS":"48","LOCID":"FTW","FIPS":"48439","COUNTY":"Tarrant County"},"type":"Feature","geometry":{"type":"Point","coordinates":[-97.3624420166016,32.8197784423828]}},{"properties":{"NAME":"Dallas Love Field","FEATURE":"Airport","PERIMETER":0.0,"AIRPRTX020":105.0,"TOT_ENP":3415478.0,"STATE":"TX","AREA":0.0,"id":"a68lnh3ijl87","STATE_FIPS":"48","LOCID":"DAL","FIPS":"48113","COUNTY":"Dallas County"},"type":"Feature","geometry":{"type":"Point","coordinates":[-96.8517684936523,32.8471145629883]}},{"properties":{"NAME":"Dallas/Fort Worth International","FEATURE":"Airport","PERIMETER":0.0,"AIRPRTX020":106.0,"TOT_ENP":27990212.0,"STATE":"TX","AREA":0.0,"id":"a68lngvj4mje","STATE_FIPS":"48","LOCID":"DFW","FIPS":"48439","COUNTY":"Tarrant County"},"type":"Feature","geometry":{"type":"Point","coordinates":[-97.0372009277344,32.8959503173828]}},{"properties":{"NAME":"Tyler Pounds Field","FEATURE":"Airport","PERIMETER":0.0,"AIRPRTX020":107.0,"TOT_ENP":74233.0,"STATE":"TX","AREA":0.0,"id":"a68lnh9gf3ob","STATE_FIPS":"48","LOCID":"TYR","FIPS":"48423","COUNTY":"Smith County"},"type":"Feature","geometry":{"type":"Point","coordinates":[-95.4023895263672,32.3541374206543]}},{"properties":{"NAME":"Gregg County","FEATURE":"Airport","PERIMETER":0.0,"AIRPRTX020":108.0,"TOT_ENP":30497.0,"STATE":"TX","AREA":0.0,"id":"a68lnguhx0fz","STATE_FIPS":"48","LOCID":"GGG","FIPS":"48183","COUNTY":"Gregg County"},"type":"Feature","geometry":{"type":"Point","coordinates":[-94.7117080688477,32.3848609924316]}},{"properties":{"NAME":"Shreveport Regional","FEATURE":"Airport","PERIMETER":0.0,"AIRPRTX020":109.0,"TOT_ENP":375785.0,"STATE":"LA","AREA":0.0,"id":"a68lnh2wfg0a","STATE_FIPS":"22","LOCID":"SHV","FIPS":"22017","COUNTY":"Caddo Parish"},"type":"Feature","geometry":{"type":"Point","coordinates":[-93.8255996704102,32.4466285705566]}},{"properties":{"NAME":"Barksdale Air Force Base","FEATURE":"Airport","PERIMETER":0.0,"AIRPRTX020":110.0,"TOT_ENP":374.0,"STATE":"LA","AREA":0.0,"id":"a68lngxfth43","STATE_FIPS":"22","LOCID":"BAD","FIPS":"22015","COUNTY":"Bossier Parish"},"type":"Feature","geometry":{"type":"Point","coordinates":[-93.6626739501953,32.5018196105957]}},{"properties":{"NAME":"Monroe Regional","FEATURE":"Airport","PERIMETER":0.0,"AIRPRTX020":111.0,"TOT_ENP":122412.0,"STATE":"LA","AREA":0.0,"id":"a68lnh348233","STATE_FIPS":"22","LOCID":"MLU","FIPS":"22073","COUNTY":"Ouachita Parish"},"type":"Feature","geometry":{"type":"Point","coordinates":[-92.0376892089844,32.5108642578125]}},{"properties":{"NAME":"Jackson International","FEATURE":"Airport","PERIMETER":0.0,"AIRPRTX020":112.0,"TOT_ENP":670251.0,"STATE":"MS","AREA":0.0,"id":"a68lnh2fm4lo","STATE_FIPS":"28","LOCID":"JAN","FIPS":"28121","COUNTY":"Rankin County"},"type":"Feature","geometry":{"type":"Point","coordinates":[-90.0758895874023,32.311164855957]}},{"properties":{"NAME":"Key Field","FEATURE":"Airport","PERIMETER":0.0,"AIRPRTX020":113.0,"TOT_ENP":30991.0,"STATE":"MS","AREA":0.0,"id":"a68lnh598thj","STATE_FIPS":"28","LOCID":"MEI","FIPS":"28075","COUNTY":"Lauderdale County"},"type":"Feature","geometry":{"type":"Point","coordinates":[-88.7512054443359,32.3331336975098]}},{"properties":{"NAME":"Montgomery Regional-Dannelly Field","FEATURE":"Airport","PERIMETER":0.0,"AIRPRTX020":114.0,"TOT_ENP":231061.0,"STATE":"AL","AREA":0.0,"id":"a68lnh4tp5d6","STATE_FIPS":"01","LOCID":"MGM","FIPS":"01101","COUNTY":"Montgomery County"},"type":"Feature","geometry":{"type":"Point","coordinates":[-86.3939743041992,32.3006439208984]}},{"properties":{"NAME":"Maxwell Air Force Base","FEATURE":"Airport","PERIMETER":0.0,"AIRPRTX020":115.0,"TOT_ENP":2592.0,"STATE":"AL","AREA":0.0,"id":"a68lnh1agsyy","STATE_FIPS":"01","LOCID":"MXF","FIPS":"01101","COUNTY":"Montgomery County"},"type":"Feature","geometry":{"type":"Point","coordinates":[-86.3624725341797,32.3793029785156]}},{"properties":{"NAME":"Lawson Army Air Field","FEATURE":"Airport","PERIMETER":0.0,"AIRPRTX020":116.0,"TOT_ENP":4074.0,"STATE":"GA","AREA":0.0,"id":"a68lnguxc22m","STATE_FIPS":"13","LOCID":"LSF","FIPS":"13053","COUNTY":"Chattahoochee County"},"type":"Feature","geometry":{"type":"Point","coordinates":[-84.9921493530273,32.3379249572754]}},{"properties":{"NAME":"Southwest Georgia Regional","FEATURE":"Airport","PERIMETER":0.0,"AIRPRTX020":117.0,"TOT_ENP":44339.0,"STATE":"GA","AREA":0.0,"id":"a68lnh6555ai","STATE_FIPS":"13","LOCID":"ABY","FIPS":"13095","COUNTY":"Dougherty County"},"type":"Feature","geometry":{"type":"Point","coordinates":[-84.1944732666016,31.535514831543]}},{"properties":{"NAME":"Glynco Jetport","FEATURE":"Airport","PERIMETER":0.0,"AIRPRTX020":118.0,"TOT_ENP":24492.0,"STATE":"GA","AREA":0.0,"id":"a68lnh1y62tx","STATE_FIPS":"13","LOCID":"BQK","FIPS":"13127","COUNTY":"Glynn County"},"type":"Feature","geometry":{"type":"Point","coordinates":[-81.46630859375,31.2590274810791]}},{"properties":{"NAME":"North Island Naval Air Station/Halsey Field","FEATURE":"Airport","PERIMETER":0.0,"AIRPRTX020":119.0,"TOT_ENP":6081.0,"STATE":"CA","AREA":0.0,"id":"a68lngy8k7eq","STATE_FIPS":"06","LOCID":"NZY","FIPS":"06073","COUNTY":"San Diego County"},"type":"Feature","geometry":{"type":"Point","coordinates":[-117.215309143066,32.69921875]}},{"properties":{"NAME":"San Diego International-Lindbergh Field","FEATURE":"Airport","PERIMETER":0.0,"AIRPRTX020":120.0,"TOT_ENP":7636623.0,"STATE":"CA","AREA":0.0,"id":"a68lnh5x4oad","STATE_FIPS":"06","LOCID":"SAN","FIPS":"06073","COUNTY":"San Diego County"},"type":"Feature","geometry":{"type":"Point","coordinates":[-117.189659118652,32.7335548400879]}},{"properties":{"NAME":"Montgomery Field","FEATURE":"Airport","PERIMETER":0.0,"AIRPRTX020":121.0,"TOT_ENP":10642.0,"STATE":"CA","AREA":0.0,"id":"a68lngzr84n3","STATE_FIPS":"06","LOCID":"MYF","FIPS":"06073","COUNTY":"San Diego County"},"type":"Feature","geometry":{"type":"Point","coordinates":[-117.13956451416,32.8157348632812]}},{"properties":{"NAME":"Miramar Marine Corps Air Station/Mitscher Field","FEATURE":"Airport","PERIMETER":0.0,"AIRPRTX020":122.0,"TOT_ENP":1107.0,"STATE":"CA","AREA":0.0,"id":"a68lnh0np3nb","STATE_FIPS":"06","LOCID":"NKX","FIPS":"06073","COUNTY":"San Diego County"},"type":"Feature","geometry":{"type":"Point","coordinates":[-117.142532348633,32.8683815002441]}},{"properties":{"NAME":"Yuma Marine Corps Air Station/Yuma International","FEATURE":"Airport","PERIMETER":0.0,"AIRPRTX020":123.0,"TOT_ENP":64078.0,"STATE":"AZ","AREA":0.0,"id":"a68lngym8mfu","STATE_FIPS":"04","LOCID":"YUM","FIPS":"04027","COUNTY":"Yuma County"},"type":"Feature","geometry":{"type":"Point","coordinates":[-114.605972290039,32.6565818786621]}},{"properties":{"NAME":"Imperial County","FEATURE":"Airport","PERIMETER":0.0,"AIRPRTX020":124.0,"TOT_ENP":24834.0,"STATE":"CA","AREA":0.0,"id":"a68lngxprcca","STATE_FIPS":"06","LOCID":"IPL","FIPS":"06025","COUNTY":"Imperial County"},"type":"Feature","geometry":{"type":"Point","coordinates":[-115.578742980957,32.8342208862305]}},{"properties":{"NAME":"Phoenix-Deer Valley Municipal","FEATURE":"Airport","PERIMETER":0.0,"AIRPRTX020":125.0,"TOT_ENP":725.0,"STATE":"AZ","AREA":0.0,"id":"a68lnh75ixdx","STATE_FIPS":"04","LOCID":"DVT","FIPS":"04013","COUNTY":"Maricopa County"},"type":"Feature","geometry":{"type":"Point","coordinates":[-112.082557678223,33.6883163452148]}},{"properties":{"NAME":"Scottsdale","FEATURE":"Airport","PERIMETER":0.0,"AIRPRTX020":126.0,"TOT_ENP":12805.0,"STATE":"AZ","AREA":0.0,"id":"a68lngyl5p4e","STATE_FIPS":"04","LOCID":"SDL","FIPS":"04013","COUNTY":"Maricopa County"},"type":"Feature","geometry":{"type":"Point","coordinates":[-111.910530090332,33.622875213623]}},{"properties":{"NAME":"Sierra Blanca Regional","FEATURE":"Airport","PERIMETER":0.0,"AIRPRTX020":127.0,"TOT_ENP":297.0,"STATE":"NM","AREA":0.0,"id":"a68lnh3hmmcg","STATE_FIPS":"35","LOCID":"SRR","FIPS":"35027","COUNTY":"Lincoln County"},"type":"Feature","geometry":{"type":"Point","coordinates":[-105.53475189209,33.4628486633301]}},{"properties":{"NAME":"Cannon Air Force Base","FEATURE":"Airport","PERIMETER":0.0,"AIRPRTX020":128.0,"TOT_ENP":1231.0,"STATE":"NM","AREA":0.0,"id":"a68lngzczfru","STATE_FIPS":"35","LOCID":"CVS","FIPS":"35009","COUNTY":"Curry County"},"type":"Feature","geometry":{"type":"Point","coordinates":[-103.322174072266,34.3828544616699]}},{"properties":{"NAME":"Clovis Municipal","FEATURE":"Airport","PERIMETER":0.0,"AIRPRTX020":129.0,"TOT_ENP":2841.0,"STATE":"NM","AREA":0.0,"id":"a68lnguugljx","STATE_FIPS":"35","LOCID":"CVN","FIPS":"35009","COUNTY":"Curry County"},"type":"Feature","geometry":{"type":"Point","coordinates":[-103.079277038574,34.4251403808594]}},{"properties":{"NAME":"Lubbock International","FEATURE":"Airport","PERIMETER":0.0,"AIRPRTX020":130.0,"TOT_ENP":565547.0,"STATE":"TX","AREA":0.0,"id":"a68lnh0hhut3","STATE_FIPS":"48","LOCID":"LBB","FIPS":"48303","COUNTY":"Lubbock County"},"type":"Feature","geometry":{"type":"Point","coordinates":[-101.822776794434,33.6636390686035]}},{"properties":{"NAME":"Sheppard Air Force Base/Wichita Falls Municipal","FEATURE":"Airport","PERIMETER":0.0,"AIRPRTX020":131.0,"TOT_ENP":55903.0,"STATE":"TX","AREA":0.0,"id":"a68lngxi3b1b","STATE_FIPS":"48","LOCID":"SPS","FIPS":"48485","COUNTY":"Wichita County"},"type":"Feature","geometry":{"type":"Point","coordinates":[-98.4918899536133,33.9887962341309]}},{"properties":{"NAME":"Texarkana Regional-Webb Field","FEATURE":"Airport","PERIMETER":0.0,"AIRPRTX020":132.0,"TOT_ENP":46049.0,"STATE":"AR","AREA":0.0,"id":"a68lngxjrxmh","STATE_FIPS":"05","LOCID":"TXK","FIPS":"05091","COUNTY":"Miller County"},"type":"Feature","geometry":{"type":"Point","coordinates":[-93.9910202026367,33.4537086486816]}},{"properties":{"NAME":"South Arkansas Regional At Goodwin Field","FEATURE":"Airport","PERIMETER":0.0,"AIRPRTX020":133.0,"TOT_ENP":1519.0,"STATE":"AR","AREA":0.0,"id":"a68lnh2p0oix","STATE_FIPS":"05","LOCID":"ELD","FIPS":"05139","COUNTY":"Union County"},"type":"Feature","geometry":{"type":"Point","coordinates":[-92.8132553100586,33.2208633422852]}},{"properties":{"NAME":"Mid Delta Regional","FEATURE":"Airport","PERIMETER":0.0,"AIRPRTX020":134.0,"TOT_ENP":13265.0,"STATE":"MS","AREA":0.0,"id":"a68lnh2bzd7y","STATE_FIPS":"28","LOCID":"GLH","FIPS":"28151","COUNTY":"Washington County"},"type":"Feature","geometry":{"type":"Point","coordinates":[-90.9856109619141,33.4828796386719]}},{"properties":{"NAME":"Golden Triangle Regional","FEATURE":"Airport","PERIMETER":0.0,"AIRPRTX020":135.0,"TOT_ENP":44976.0,"STATE":"MS","AREA":0.0,"id":"a68lnh56g0u2","STATE_FIPS":"28","LOCID":"GTR","FIPS":"28087","COUNTY":"Lowndes County"},"type":"Feature","geometry":{"type":"Point","coordinates":[-88.5913696289062,33.4503326416016]}},{"properties":{"NAME":"Tuscaloosa Municipal","FEATURE":"Airport","PERIMETER":0.0,"AIRPRTX020":136.0,"TOT_ENP":1491.0,"STATE":"AL","AREA":0.0,"id":"a68lnh6msban","STATE_FIPS":"01","LOCID":"TCL","FIPS":"01125","COUNTY":"Tuscaloosa County"},"type":"Feature","geometry":{"type":"Point","coordinates":[-87.6114044189453,33.2206268310547]}},{"properties":{"NAME":"Birmingham International","FEATURE":"Airport","PERIMETER":0.0,"AIRPRTX020":137.0,"TOT_ENP":1525654.0,"STATE":"AL","AREA":0.0,"id":"a68lngwq6ajr","STATE_FIPS":"01","LOCID":"BHM","FIPS":"01073","COUNTY":"Jefferson County"},"type":"Feature","geometry":{"type":"Point","coordinates":[-86.753547668457,33.5629425048828]}},{"properties":{"NAME":"Columbus Metropolitan","FEATURE":"Airport","PERIMETER":0.0,"AIRPRTX020":138.0,"TOT_ENP":93512.0,"STATE":"GA","AREA":0.0,"id":"a68lnh2hs69h","STATE_FIPS":"13","LOCID":"CSG","FIPS":"13215","COUNTY":"Muscogee County"},"type":"Feature","geometry":{"type":"Point","coordinates":[-84.9388580322266,32.5163345336914]}},{"properties":{"NAME":"Middle Georgia Regional","FEATURE":"Airport","PERIMETER":0.0,"AIRPRTX020":139.0,"TOT_ENP":30207.0,"STATE":"GA","AREA":0.0,"id":"a68lngvhm0q0","STATE_FIPS":"13","LOCID":"MCN","FIPS":"13021","COUNTY":"Bibb County"},"type":"Feature","geometry":{"type":"Point","coordinates":[-83.6492080688477,32.6928482055664]}},{"properties":{"NAME":"Hunter Army Air Field","FEATURE":"Airport","PERIMETER":0.0,"AIRPRTX020":140.0,"TOT_ENP":12072.0,"STATE":"GA","AREA":0.0,"id":"a68lnguucz3l","STATE_FIPS":"13","LOCID":"SVN","FIPS":"13051","COUNTY":"Chatham County"},"type":"Feature","geometry":{"type":"Point","coordinates":[-81.1456680297852,32.0096549987793]}},{"properties":{"NAME":"Savannah International","FEATURE":"Airport","PERIMETER":0.0,"AIRPRTX020":141.0,"TOT_ENP":763905.0,"STATE":"GA","AREA":0.0,"id":"a68lngxsvzr8","STATE_FIPS":"13","LOCID":"SAV","FIPS":"13051","COUNTY":"Chatham County"},"type":"Feature","geometry":{"type":"Point","coordinates":[-81.2021408081055,32.1275825500488]}},{"properties":{"NAME":"Hilton Head","FEATURE":"Airport","PERIMETER":0.0,"AIRPRTX020":142.0,"TOT_ENP":100194.0,"STATE":"SC","AREA":0.0,"id":"a68lnh98707n","STATE_FIPS":"45","LOCID":"HXD","FIPS":"45013","COUNTY":"Beaufort County"},"type":"Feature","geometry":{"type":"Point","coordinates":[-80.6974716186523,32.2243614196777]}},{"properties":{"NAME":"McClellan-Palomar","FEATURE":"Airport","PERIMETER":0.0,"AIRPRTX020":143.0,"TOT_ENP":78364.0,"STATE":"CA","AREA":0.0,"id":"a68lnh75qmio","STATE_FIPS":"06","LOCID":"CRQ","FIPS":"06073","COUNTY":"San Diego County"},"type":"Feature","geometry":{"type":"Point","coordinates":[-117.280220031738,33.1282234191895]}},{"properties":{"NAME":"French Valley","FEATURE":"Airport","PERIMETER":0.0,"AIRPRTX020":144.0,"TOT_ENP":3528.0,"STATE":"CA","AREA":0.0,"id":"a68lnh674lce","STATE_FIPS":"06","LOCID":"F70","FIPS":"06065","COUNTY":"Riverside County"},"type":"Feature","geometry":{"type":"Point","coordinates":[-117.127975463867,33.576057434082]}},{"properties":{"NAME":"John Wayne Airport-Orange County","FEATURE":"Airport","PERIMETER":0.0,"AIRPRTX020":145.0,"TOT_ENP":3739968.0,"STATE":"CA","AREA":0.0,"id":"a68lnh520gi9","STATE_FIPS":"06","LOCID":"SNA","FIPS":"06059","COUNTY":"Orange County"},"type":"Feature","geometry":{"type":"Point","coordinates":[-117.868225097656,33.6756591796875]}},{"properties":{"NAME":"March Field","FEATURE":"Airport","PERIMETER":0.0,"AIRPRTX020":146.0,"TOT_ENP":7094.0,"STATE":"CA","AREA":0.0,"id":"a68lnh128513","STATE_FIPS":"06","LOCID":"RIV","FIPS":"06065","COUNTY":"Riverside County"},"type":"Feature","geometry":{"type":"Point","coordinates":[-117.259483337402,33.8805732727051]}},{"properties":{"NAME":"Long Beach/Daugherty Field","FEATURE":"Airport","PERIMETER":0.0,"AIRPRTX020":147.0,"TOT_ENP":455927.0,"STATE":"CA","AREA":0.0,"id":"a68lngz5o8tu","STATE_FIPS":"06","LOCID":"LGB","FIPS":"06037","COUNTY":"Los Angeles County"},"type":"Feature","geometry":{"type":"Point","coordinates":[-118.151611328125,33.8177223205566]}},{"properties":{"NAME":"Palm Springs International","FEATURE":"Airport","PERIMETER":0.0,"AIRPRTX020":148.0,"TOT_ENP":645926.0,"STATE":"CA","AREA":0.0,"id":"a68lnh205oxh","STATE_FIPS":"06","LOCID":"PSP","FIPS":"06065","COUNTY":"Riverside County"},"type":"Feature","geometry":{"type":"Point","coordinates":[-116.506256103516,33.829216003418]}},{"properties":{"NAME":"Ernest A. Love Field","FEATURE":"Airport","PERIMETER":0.0,"AIRPRTX020":149.0,"TOT_ENP":5543.0,"STATE":"AZ","AREA":0.0,"id":"a68lnh676ege","STATE_FIPS":"04","LOCID":"PRC","FIPS":"04025","COUNTY":"Yavapai County"},"type":"Feature","geometry":{"type":"Point","coordinates":[-112.419586181641,34.6544723510742]}},{"properties":{"NAME":"Sedona","FEATURE":"Airport","PERIMETER":0.0,"AIRPRTX020":150.0,"TOT_ENP":673.0,"STATE":"AZ","AREA":0.0,"id":"a68lnh0tf8zi","STATE_FIPS":"04","LOCID":"SEZ","FIPS":"04025","COUNTY":"Yavapai County"},"type":"Feature","geometry":{"type":"Point","coordinates":[-111.788459777832,34.8486289978027]}},{"properties":{"NAME":"Show Low Municipal","FEATURE":"Airport","PERIMETER":0.0,"AIRPRTX020":151.0,"TOT_ENP":3905.0,"STATE":"AZ","AREA":0.0,"id":"a68lngylb320","STATE_FIPS":"04","LOCID":"SOW","FIPS":"04017","COUNTY":"Navajo County"},"type":"Feature","geometry":{"type":"Point","coordinates":[-110.005409240723,34.2652702331543]}},{"properties":{"NAME":"Black Rock","FEATURE":"Airport","PERIMETER":0.0,"AIRPRTX020":152.0,"TOT_ENP":250.0,"STATE":"NM","AREA":0.0,"id":"a68lngwoet3z","STATE_FIPS":"35","LOCID":"ZUN","FIPS":"35031","COUNTY":"McKinley County"},"type":"Feature","geometry":{"type":"Point","coordinates":[-108.791778564453,35.0832252502441]}},{"properties":{"NAME":"Albuquerque International Sunport","FEATURE":"Airport","PERIMETER":0.0,"AIRPRTX020":153.0,"TOT_ENP":3137931.0,"STATE":"NM","AREA":0.0,"id":"a68lnh11vf7s","STATE_FIPS":"35","LOCID":"ABQ","FIPS":"35001","COUNTY":"Bernalillo County"},"type":"Feature","geometry":{"type":"Point","coordinates":[-106.609191894531,35.0402221679688]}},{"properties":{"NAME":"Amarillo International","FEATURE":"Airport","PERIMETER":0.0,"AIRPRTX020":154.0,"TOT_ENP":437506.0,"STATE":"TX","AREA":0.0,"id":"a68lnh8eopit","STATE_FIPS":"48","LOCID":"AMA","FIPS":"48375","COUNTY":"Potter County"},"type":"Feature","geometry":{"type":"Point","coordinates":[-101.705924987793,35.2193717956543]}},{"properties":{"NAME":"Lawton-Fort Sill Regional","FEATURE":"Airport","PERIMETER":0.0,"AIRPRTX020":155.0,"TOT_ENP":62335.0,"STATE":"OK","AREA":0.0,"id":"a68lngtk75vk","STATE_FIPS":"40","LOCID":"LAW","FIPS":"40031","COUNTY":"Comanche County"},"type":"Feature","geometry":{"type":"Point","coordinates":[-98.416633605957,34.5677146911621]}},{"properties":{"NAME":"Will Rogers World","FEATURE":"Airport","PERIMETER":0.0,"AIRPRTX020":156.0,"TOT_ENP":1749450.0,"STATE":"OK","AREA":0.0,"id":"a68lnh7s2uaq","STATE_FIPS":"40","LOCID":"OKC","FIPS":"40109","COUNTY":"Oklahoma County"},"type":"Feature","geometry":{"type":"Point","coordinates":[-97.6007308959961,35.3930892944336]}},{"properties":{"NAME":"Fort Smith Regional","FEATURE":"Airport","PERIMETER":0.0,"AIRPRTX020":157.0,"TOT_ENP":102583.0,"STATE":"AR","AREA":0.0,"id":"a68lngxipf3e","STATE_FIPS":"05","LOCID":"FSM","FIPS":"05131","COUNTY":"Sebastian County"},"type":"Feature","geometry":{"type":"Point","coordinates":[-94.3674392700195,35.3365898132324]}},{"properties":{"NAME":"Memorial Field","FEATURE":"Airport","PERIMETER":0.0,"AIRPRTX020":158.0,"TOT_ENP":2411.0,"STATE":"AR","AREA":0.0,"id":"a68lnh1hpxxw","STATE_FIPS":"05","LOCID":"HOT","FIPS":"05051","COUNTY":"Garland County"},"type":"Feature","geometry":{"type":"Point","coordinates":[-93.0962066650391,34.4780349731445]}},{"properties":{"NAME":"Adams Field","FEATURE":"Airport","PERIMETER":0.0,"AIRPRTX020":159.0,"TOT_ENP":1292507.0,"STATE":"AR","AREA":0.0,"id":"a68lnh3pmdnk","STATE_FIPS":"05","LOCID":"LIT","FIPS":"05119","COUNTY":"Pulaski County"},"type":"Feature","geometry":{"type":"Point","coordinates":[-92.2242431640625,34.7293968200684]}},{"properties":{"NAME":"Little Rock Air Force Base","FEATURE":"Airport","PERIMETER":0.0,"AIRPRTX020":160.0,"TOT_ENP":304.0,"STATE":"AR","AREA":0.0,"id":"a68lngypppo0","STATE_FIPS":"05","LOCID":"LRF","FIPS":"05119","COUNTY":"Pulaski County"},"type":"Feature","geometry":{"type":"Point","coordinates":[-92.1462554931641,34.9164772033691]}},{"properties":{"NAME":"Memphis International","FEATURE":"Airport","PERIMETER":0.0,"AIRPRTX020":161.0,"TOT_ENP":5211305.0,"STATE":"TN","AREA":0.0,"id":"a68lnh4kbzpw","STATE_FIPS":"47","LOCID":"MEM","FIPS":"47157","COUNTY":"Shelby County"},"type":"Feature","geometry":{"type":"Point","coordinates":[-89.9766693115234,35.0424156188965]}},{"properties":{"NAME":"Tupelo Regional","FEATURE":"Airport","PERIMETER":0.0,"AIRPRTX020":162.0,"TOT_ENP":15494.0,"STATE":"MS","AREA":0.0,"id":"a68lnh6n77u3","STATE_FIPS":"28","LOCID":"TUP","FIPS":"28081","COUNTY":"Lee County"},"type":"Feature","geometry":{"type":"Point","coordinates":[-88.7698974609375,34.2681083679199]}},{"properties":{"NAME":"University-Oxford","FEATURE":"Airport","PERIMETER":0.0,"AIRPRTX020":163.0,"TOT_ENP":266.0,"STATE":"MS","AREA":0.0,"id":"a68lnh7nlsls","STATE_FIPS":"28","LOCID":"UOX","FIPS":"28071","COUNTY":"Lafayette County"},"type":"Feature","geometry":{"type":"Point","coordinates":[-89.5353088378906,34.3843154907227]}},{"properties":{"NAME":"Northwest Alabama Regional","FEATURE":"Airport","PERIMETER":0.0,"AIRPRTX020":164.0,"TOT_ENP":8770.0,"STATE":"AL","AREA":0.0,"id":"a68lnh0120t9","STATE_FIPS":"01","LOCID":"MSL","FIPS":"01033","COUNTY":"Colbert County"},"type":"Feature","geometry":{"type":"Point","coordinates":[-87.6102294921875,34.7453193664551]}},{"properties":{"NAME":"Huntsville International-Carl T. Jones Field","FEATURE":"Airport","PERIMETER":0.0,"AIRPRTX020":165.0,"TOT_ENP":514221.0,"STATE":"AL","AREA":0.0,"id":"a68lnh44hxt8","STATE_FIPS":"01","LOCID":"HSV","FIPS":"01089","COUNTY":"Madison County"},"type":"Feature","geometry":{"type":"Point","coordinates":[-86.7731094360352,34.6404457092285]}},{"properties":{"NAME":"The William B. Hartsfield Atlanta International","FEATURE":"Airport","PERIMETER":0.0,"AIRPRTX020":166.0,"TOT_ENP":38136866.0,"STATE":"GA","AREA":0.0,"id":"a68lnh5j4s1r","STATE_FIPS":"13","LOCID":"ATL","FIPS":"13063","COUNTY":"Clayton County"},"type":"Feature","geometry":{"type":"Point","coordinates":[-84.4269409179688,33.6404457092285]}},{"properties":{"NAME":"Dekalb-Peachtree","FEATURE":"Airport","PERIMETER":0.0,"AIRPRTX020":167.0,"TOT_ENP":2315.0,"STATE":"GA","AREA":0.0,"id":"a68lngwjehkh","STATE_FIPS":"13","LOCID":"PDK","FIPS":"13089","COUNTY":"Dekalb County"},"type":"Feature","geometry":{"type":"Point","coordinates":[-84.3019714355469,33.875602722168]}},{"properties":{"NAME":"Dobbins Air Reserve Base","FEATURE":"Airport","PERIMETER":0.0,"AIRPRTX020":168.0,"TOT_ENP":2048.0,"STATE":"GA","AREA":0.0,"id":"a68lngyl5hbu","STATE_FIPS":"13","LOCID":"MGE","FIPS":"13067","COUNTY":"Cobb County"},"type":"Feature","geometry":{"type":"Point","coordinates":[-84.5163192749023,33.9153823852539]}},{"properties":{"NAME":"Athens/Ben Epps","FEATURE":"Airport","PERIMETER":0.0,"AIRPRTX020":169.0,"TOT_ENP":11234.0,"STATE":"GA","AREA":0.0,"id":"a68lnh6al27s","STATE_FIPS":"13","LOCID":"AHN","FIPS":"13059","COUNTY":"Clarke County"},"type":"Feature","geometry":{"type":"Point","coordinates":[-83.3263473510742,33.9485969543457]}},{"properties":{"NAME":"Augusta Regional At Bush Field","FEATURE":"Airport","PERIMETER":0.0,"AIRPRTX020":170.0,"TOT_ENP":215556.0,"STATE":"GA","AREA":0.0,"id":"a68lnh585g76","STATE_FIPS":"13","LOCID":"AGS","FIPS":"13245","COUNTY":"Richmond County"},"type":"Feature","geometry":{"type":"Point","coordinates":[-81.9644927978516,33.3699531555176]}},{"properties":{"NAME":"Charleston Air Force Base/International","FEATURE":"Airport","PERIMETER":0.0,"AIRPRTX020":171.0,"TOT_ENP":785882.0,"STATE":"SC","AREA":0.0,"id":"a68lngwertfu","STATE_FIPS":"45","LOCID":"CHS","FIPS":"45019","COUNTY":"Charleston County"},"type":"Feature","geometry":{"type":"Point","coordinates":[-80.0405044555664,32.8986473083496]}},{"properties":{"NAME":"Summerville","FEATURE":"Airport","PERIMETER":0.0,"AIRPRTX020":172.0,"TOT_ENP":450.0,"STATE":"SC","AREA":0.0,"id":"a68lnh8wl55b","STATE_FIPS":"45","LOCID":"DYB","FIPS":"45035","COUNTY":"Dorchester County"},"type":"Feature","geometry":{"type":"Point","coordinates":[-80.2793350219727,33.0634460449219]}},{"properties":{"NAME":"Santa Barbara Municipal","FEATURE":"Airport","PERIMETER":0.0,"AIRPRTX020":173.0,"TOT_ENP":407737.0,"STATE":"CA","AREA":0.0,"id":"a68lnh83o9up","STATE_FIPS":"06","LOCID":"SBA","FIPS":"06083","COUNTY":"Santa Barbara County"},"type":"Feature","geometry":{"type":"Point","coordinates":[-119.840370178223,34.426212310791]}},{"properties":{"NAME":"Los Angeles International","FEATURE":"Airport","PERIMETER":0.0,"AIRPRTX020":174.0,"TOT_ENP":30830915.0,"STATE":"CA","AREA":0.0,"id":"a68lnh6mxyhy","STATE_FIPS":"06","LOCID":"LAX","FIPS":"06037","COUNTY":"Los Angeles County"},"type":"Feature","geometry":{"type":"Point","coordinates":[-118.408073425293,33.9425354003906]}},{"properties":{"NAME":"Santa Monica Municipal","FEATURE":"Airport","PERIMETER":0.0,"AIRPRTX020":175.0,"TOT_ENP":436.0,"STATE":"CA","AREA":0.0,"id":"a68lnh8pq4ej","STATE_FIPS":"06","LOCID":"SMO","FIPS":"06037","COUNTY":"Los Angeles County"},"type":"Feature","geometry":{"type":"Point","coordinates":[-118.451293945312,34.0158233642578]}},{"properties":{"NAME":"Van Nuys","FEATURE":"Airport","PERIMETER":0.0,"AIRPRTX020":176.0,"TOT_ENP":1923.0,"STATE":"CA","AREA":0.0,"id":"a68lnh10slcd","STATE_FIPS":"06","LOCID":"VNY","FIPS":"06037","COUNTY":"Los Angeles County"},"type":"Feature","geometry":{"type":"Point","coordinates":[-118.489974975586,34.2098083496094]}},{"properties":{"NAME":"Point Mugu Naval Air Station","FEATURE":"Airport","PERIMETER":0.0,"AIRPRTX020":177.0,"TOT_ENP":2351.0,"STATE":"CA","AREA":0.0,"id":"a68lngttbq5g","STATE_FIPS":"06","LOCID":"NTD","FIPS":"06111","COUNTY":"Ventura County"},"type":"Feature","geometry":{"type":"Point","coordinates":[-119.120941162109,34.1202850341797]}},{"properties":{"NAME":"Oxnard","FEATURE":"Airport","PERIMETER":0.0,"AIRPRTX020":178.0,"TOT_ENP":50722.0,"STATE":"CA","AREA":0.0,"id":"a68lnh0h4xba","STATE_FIPS":"06","LOCID":"OXR","FIPS":"06111","COUNTY":"Ventura County"},"type":"Feature","geometry":{"type":"Point","coordinates":[-119.207214355469,34.2008018493652]}},{"properties":{"NAME":"San Bernardino International","FEATURE":"Airport","PERIMETER":0.0,"AIRPRTX020":179.0,"TOT_ENP":1363.0,"STATE":"CA","AREA":0.0,"id":"a68lngxmhlqo","STATE_FIPS":"06","LOCID":"SBD","FIPS":"06071","COUNTY":"San Bernardino County"},"type":"Feature","geometry":{"type":"Point","coordinates":[-117.234870910645,34.0953521728516]}},{"properties":{"NAME":"Jack Northrop Field/Hawthorne Municipal","FEATURE":"Airport","PERIMETER":0.0,"AIRPRTX020":180.0,"TOT_ENP":414.0,"STATE":"CA","AREA":0.0,"id":"a68lngybt4zv","STATE_FIPS":"06","LOCID":"HHR","FIPS":"06037","COUNTY":"Los Angeles County"},"type":"Feature","geometry":{"type":"Point","coordinates":[-118.335189819336,33.9228401184082]}},{"properties":{"NAME":"Ontario International","FEATURE":"Airport","PERIMETER":0.0,"AIRPRTX020":181.0,"TOT_ENP":3125592.0,"STATE":"CA","AREA":0.0,"id":"a68lngziv7vl","STATE_FIPS":"06","LOCID":"ONT","FIPS":"06071","COUNTY":"San Bernardino County"},"type":"Feature","geometry":{"type":"Point","coordinates":[-117.601196289062,34.0559997558594]}},{"properties":{"NAME":"Burbank-Glendale-Pasadena","FEATURE":"Airport","PERIMETER":0.0,"AIRPRTX020":182.0,"TOT_ENP":2376645.0,"STATE":"CA","AREA":0.0,"id":"a68lnh7ei1au","STATE_FIPS":"06","LOCID":"BUR","FIPS":"06037","COUNTY":"Los Angeles County"},"type":"Feature","geometry":{"type":"Point","coordinates":[-118.358497619629,34.2006187438965]}},{"properties":{"NAME":"Southern California Logistics","FEATURE":"Airport","PERIMETER":0.0,"AIRPRTX020":183.0,"TOT_ENP":45251.0,"STATE":"CA","AREA":0.0,"id":"a68lnh86u5zo","STATE_FIPS":"06","LOCID":"VCV","FIPS":"06071","COUNTY":"San Bernardino County"},"type":"Feature","geometry":{"type":"Point","coordinates":[-117.379463195801,34.5932235717773]}},{"properties":{"NAME":"Lake Havasu City","FEATURE":"Airport","PERIMETER":0.0,"AIRPRTX020":184.0,"TOT_ENP":9119.0,"STATE":"AZ","AREA":0.0,"id":"a68lnh02psjg","STATE_FIPS":"04","LOCID":"HII","FIPS":"04015","COUNTY":"Mohave County"},"type":"Feature","geometry":{"type":"Point","coordinates":[-114.356178283691,34.5681610107422]}},{"properties":{"NAME":"Laughlin/Bullhead International","FEATURE":"Airport","PERIMETER":0.0,"AIRPRTX020":185.0,"TOT_ENP":39931.0,"STATE":"AZ","AREA":0.0,"id":"a68lnh0pi1b5","STATE_FIPS":"04","LOCID":"IFP","FIPS":"04015","COUNTY":"Mohave County"},"type":"Feature","geometry":{"type":"Point","coordinates":[-114.559524536133,35.1573905944824]}},{"properties":{"NAME":"Kingman","FEATURE":"Airport","PERIMETER":0.0,"AIRPRTX020":186.0,"TOT_ENP":2574.0,"STATE":"AZ","AREA":0.0,"id":"a68lnh847ii4","STATE_FIPS":"04","LOCID":"IGM","FIPS":"04015","COUNTY":"Mohave County"},"type":"Feature","geometry":{"type":"Point","coordinates":[-113.938056945801,35.2594718933105]}},{"properties":{"NAME":"Flagstaff Pulliam","FEATURE":"Airport","PERIMETER":0.0,"AIRPRTX020":187.0,"TOT_ENP":33978.0,"STATE":"AZ","AREA":0.0,"id":"a68lngy6976o","STATE_FIPS":"04","LOCID":"FLG","FIPS":"04005","COUNTY":"Coconino County"},"type":"Feature","geometry":{"type":"Point","coordinates":[-111.67121887207,35.1384544372559]}},{"properties":{"NAME":"Gallup Municipal","FEATURE":"Airport","PERIMETER":0.0,"AIRPRTX020":188.0,"TOT_ENP":4201.0,"STATE":"NM","AREA":0.0,"id":"a68lnh7qwtdu","STATE_FIPS":"35","LOCID":"GUP","FIPS":"35031","COUNTY":"McKinley County"},"type":"Feature","geometry":{"type":"Point","coordinates":[-108.789306640625,35.511058807373]}},{"properties":{"NAME":"Window Rock","FEATURE":"Airport","PERIMETER":0.0,"AIRPRTX020":189.0,"TOT_ENP":287.0,"STATE":"AZ","AREA":0.0,"id":"a68lngzrlss1","STATE_FIPS":"04","LOCID":"RQE","FIPS":"04001","COUNTY":"Apache County"},"type":"Feature","geometry":{"type":"Point","coordinates":[-109.067390441895,35.6520538330078]}},{"properties":{"NAME":"Santa Fe Municipal","FEATURE":"Airport","PERIMETER":0.0,"AIRPRTX020":190.0,"TOT_ENP":26178.0,"STATE":"NM","AREA":0.0,"id":"a68lnh6jwxb0","STATE_FIPS":"35","LOCID":"SAF","FIPS":"35049","COUNTY":"Santa Fe County"},"type":"Feature","geometry":{"type":"Point","coordinates":[-106.08814239502,35.6167793273926]}},{"properties":{"NAME":"Stillwater Regional","FEATURE":"Airport","PERIMETER":0.0,"AIRPRTX020":191.0,"TOT_ENP":1382.0,"STATE":"OK","AREA":0.0,"id":"a68lngusd7gq","STATE_FIPS":"40","LOCID":"SWO","FIPS":"40119","COUNTY":"Payne County"},"type":"Feature","geometry":{"type":"Point","coordinates":[-97.0857696533203,36.1602516174316]}},{"properties":{"NAME":"Enid Woodring Municipal","FEATURE":"Airport","PERIMETER":0.0,"AIRPRTX020":192.0,"TOT_ENP":2431.0,"STATE":"OK","AREA":0.0,"id":"a68lngzd85dd","STATE_FIPS":"40","LOCID":"WDG","FIPS":"40047","COUNTY":"Garfield County"},"type":"Feature","geometry":{"type":"Point","coordinates":[-97.7911148071289,36.3792037963867]}},{"properties":{"NAME":"Tulsa International","FEATURE":"Airport","PERIMETER":0.0,"AIRPRTX020":193.0,"TOT_ENP":1711539.0,"STATE":"OK","AREA":0.0,"id":"a68lngtj2i6y","STATE_FIPS":"40","LOCID":"TUL","FIPS":"40143","COUNTY":"Tulsa County"},"type":"Feature","geometry":{"type":"Point","coordinates":[-95.8882446289062,36.198371887207]}},{"properties":{"NAME":"Drake Field","FEATURE":"Airport","PERIMETER":0.0,"AIRPRTX020":194.0,"TOT_ENP":20213.0,"STATE":"AR","AREA":0.0,"id":"a68lngvltvcm","STATE_FIPS":"05","LOCID":"FYV","FIPS":"05143","COUNTY":"Washington County"},"type":"Feature","geometry":{"type":"Point","coordinates":[-94.1700592041016,36.0050964355469]}},{"properties":{"NAME":"Springdale Municipal","FEATURE":"Airport","PERIMETER":0.0,"AIRPRTX020":195.0,"TOT_ENP":2526.0,"STATE":"AR","AREA":0.0,"id":"a68lnh33hp84","STATE_FIPS":"05","LOCID":"ASG","FIPS":"05143","COUNTY":"Washington County"},"type":"Feature","geometry":{"type":"Point","coordinates":[-94.119255065918,36.1764106750488]}},{"properties":{"NAME":"Northwest Arkansas Regional","FEATURE":"Airport","PERIMETER":0.0,"AIRPRTX020":196.0,"TOT_ENP":320438.0,"STATE":"AR","AREA":0.0,"id":"a68lnguk4z36","STATE_FIPS":"05","LOCID":"XNA","FIPS":"05007","COUNTY":"Benton County"},"type":"Feature","geometry":{"type":"Point","coordinates":[-94.3068084716797,36.281867980957]}},{"properties":{"NAME":"Rogers Municipal-Carter Field","FEATURE":"Airport","PERIMETER":0.0,"AIRPRTX020":197.0,"TOT_ENP":384.0,"STATE":"AR","AREA":0.0,"id":"a68lnh7ddf5n","STATE_FIPS":"05","LOCID":"ROG","FIPS":"05007","COUNTY":"Benton County"},"type":"Feature","geometry":{"type":"Point","coordinates":[-94.1068725585938,36.3722953796387]}},{"properties":{"NAME":"Boone County","FEATURE":"Airport","PERIMETER":0.0,"AIRPRTX020":198.0,"TOT_ENP":1900.0,"STATE":"AR","AREA":0.0,"id":"a68lnh6l1h87","STATE_FIPS":"05","LOCID":"HRO","FIPS":"05009","COUNTY":"Boone County"},"type":"Feature","geometry":{"type":"Point","coordinates":[-93.1547317504883,36.2615203857422]}},{"properties":{"NAME":"Jonesboro Municipal","FEATURE":"Airport","PERIMETER":0.0,"AIRPRTX020":199.0,"TOT_ENP":2345.0,"STATE":"AR","AREA":0.0,"id":"a68lngzbzm7y","STATE_FIPS":"05","LOCID":"JBR","FIPS":"05031","COUNTY":"Craighead County"},"type":"Feature","geometry":{"type":"Point","coordinates":[-90.6461639404297,35.831859588623]}},{"properties":{"NAME":"McKellar-Sipes Regional","FEATURE":"Airport","PERIMETER":0.0,"AIRPRTX020":200.0,"TOT_ENP":6671.0,"STATE":"TN","AREA":0.0,"id":"a68lnh6gpx9i","STATE_FIPS":"47","LOCID":"MKL","FIPS":"47113","COUNTY":"Madison County"},"type":"Feature","geometry":{"type":"Point","coordinates":[-88.9156188964844,35.5998802185059]}},{"properties":{"NAME":"Ellington","FEATURE":"Airport","PERIMETER":0.0,"AIRPRTX020":201.0,"TOT_ENP":300.0,"STATE":"TN","AREA":0.0,"id":"a68lnh3tf3ri","STATE_FIPS":"47","LOCID":"LUG","FIPS":"47117","COUNTY":"Marshall County"},"type":"Feature","geometry":{"type":"Point","coordinates":[-86.8038864135742,35.5069732666016]}},{"properties":{"NAME":"Lovell Field","FEATURE":"Airport","PERIMETER":0.0,"AIRPRTX020":202.0,"TOT_ENP":303689.0,"STATE":"TN","AREA":0.0,"id":"a68lnh4z65hw","STATE_FIPS":"47","LOCID":"CHA","FIPS":"47065","COUNTY":"Hamilton County"},"type":"Feature","geometry":{"type":"Point","coordinates":[-85.2037887573242,35.0352668762207]}},{"properties":{"NAME":"Greenville Downtown","FEATURE":"Airport","PERIMETER":0.0,"AIRPRTX020":203.0,"TOT_ENP":293.0,"STATE":"SC","AREA":0.0,"id":"a68lnh1j1iwp","STATE_FIPS":"45","LOCID":"GMU","FIPS":"45045","COUNTY":"Greenville County"},"type":"Feature","geometry":{"type":"Point","coordinates":[-82.3499984741211,34.8479461669922]}},{"properties":{"NAME":"Columbia Metropolitan","FEATURE":"Airport","PERIMETER":0.0,"AIRPRTX020":204.0,"TOT_ENP":563557.0,"STATE":"SC","AREA":0.0,"id":"a68lngzxshrp","STATE_FIPS":"45","LOCID":"CAE","FIPS":"45063","COUNTY":"Lexington County"},"type":"Feature","geometry":{"type":"Point","coordinates":[-81.1195373535156,33.9388389587402]}},{"properties":{"NAME":"Shaw Air Force Base","FEATURE":"Airport","PERIMETER":0.0,"AIRPRTX020":205.0,"TOT_ENP":387.0,"STATE":"SC","AREA":0.0,"id":"a68lngtug4h0","STATE_FIPS":"45","LOCID":"SSC","FIPS":"45085","COUNTY":"Sumter County"},"type":"Feature","geometry":{"type":"Point","coordinates":[-80.4728622436523,33.9729309082031]}},{"properties":{"NAME":"Florence Regional","FEATURE":"Airport","PERIMETER":0.0,"AIRPRTX020":206.0,"TOT_ENP":57123.0,"STATE":"SC","AREA":0.0,"id":"a68lngvwmfys","STATE_FIPS":"45","LOCID":"FLO","FIPS":"45041","COUNTY":"Florence County"},"type":"Feature","geometry":{"type":"Point","coordinates":[-79.7238922119141,34.185359954834]}},{"properties":{"NAME":"Myrtle Beach International","FEATURE":"Airport","PERIMETER":0.0,"AIRPRTX020":207.0,"TOT_ENP":630655.0,"STATE":"SC","AREA":0.0,"id":"a68lnh71wha2","STATE_FIPS":"45","LOCID":"MYR","FIPS":"45051","COUNTY":"Horry County"},"type":"Feature","geometry":{"type":"Point","coordinates":[-78.928337097168,33.6797485351562]}},{"properties":{"NAME":"Grand Strand","FEATURE":"Airport","PERIMETER":0.0,"AIRPRTX020":208.0,"TOT_ENP":1181.0,"STATE":"SC","AREA":0.0,"id":"a68lnh7tvoaf","STATE_FIPS":"45","LOCID":"CRE","FIPS":"45051","COUNTY":"Horry County"},"type":"Feature","geometry":{"type":"Point","coordinates":[-78.7239456176758,33.8117485046387]}},{"properties":{"NAME":"Lompoc","FEATURE":"Airport","PERIMETER":0.0,"AIRPRTX020":209.0,"TOT_ENP":941.0,"STATE":"CA","AREA":0.0,"id":"a68lnh7htjop","STATE_FIPS":"06","LOCID":"LPC","FIPS":"06083","COUNTY":"Santa Barbara County"},"type":"Feature","geometry":{"type":"Point","coordinates":[-120.466789245605,34.6656112670898]}},{"properties":{"NAME":"Vandenberg Air Force Base","FEATURE":"Airport","PERIMETER":0.0,"AIRPRTX020":210.0,"TOT_ENP":655.0,"STATE":"CA","AREA":0.0,"id":"a68lngtbp9oa","STATE_FIPS":"06","LOCID":"VBG","FIPS":"06083","COUNTY":"Santa Barbara County"},"type":"Feature","geometry":{"type":"Point","coordinates":[-120.576835632324,34.7297019958496]}},{"properties":{"NAME":"Santa Maria Public/Captain G. Allan Hancock Field","FEATURE":"Airport","PERIMETER":0.0,"AIRPRTX020":211.0,"TOT_ENP":44591.0,"STATE":"CA","AREA":0.0,"id":"a68lnh76skvx","STATE_FIPS":"06","LOCID":"SMX","FIPS":"06083","COUNTY":"Santa Barbara County"},"type":"Feature","geometry":{"type":"Point","coordinates":[-120.457580566406,34.8992500305176]}},{"properties":{"NAME":"San Luis Obispo County-McChesney Field","FEATURE":"Airport","PERIMETER":0.0,"AIRPRTX020":212.0,"TOT_ENP":147028.0,"STATE":"CA","AREA":0.0,"id":"a68lnh1lit4a","STATE_FIPS":"06","LOCID":"SBP","FIPS":"06079","COUNTY":"San Luis Obispo County"},"type":"Feature","geometry":{"type":"Point","coordinates":[-120.642395019531,35.2370567321777]}},{"properties":{"NAME":"Meadows Field","FEATURE":"Airport","PERIMETER":0.0,"AIRPRTX020":213.0,"TOT_ENP":147142.0,"STATE":"CA","AREA":0.0,"id":"a68lnh841v5o","STATE_FIPS":"06","LOCID":"BFL","FIPS":"06029","COUNTY":"Kern County"},"type":"Feature","geometry":{"type":"Point","coordinates":[-119.056770324707,35.4335975646973]}},{"properties":{"NAME":"Inyokern","FEATURE":"Airport","PERIMETER":0.0,"AIRPRTX020":214.0,"TOT_ENP":9089.0,"STATE":"CA","AREA":0.0,"id":"a68lnh07jiz6","STATE_FIPS":"06","LOCID":"IYK","FIPS":"06029","COUNTY":"Kern County"},"type":"Feature","geometry":{"type":"Point","coordinates":[-117.829513549805,35.6588439941406]}},{"properties":{"NAME":"Henderson","FEATURE":"Airport","PERIMETER":0.0,"AIRPRTX020":215.0,"TOT_ENP":111487.0,"STATE":"NV","AREA":0.0,"id":"a68lngxrj787","STATE_FIPS":"32","LOCID":"L15","FIPS":"32003","COUNTY":"Clark County"},"type":"Feature","geometry":{"type":"Point","coordinates":[-115.132774353027,35.9763641357422]}},{"properties":{"NAME":"McCarran International","FEATURE":"Airport","PERIMETER":0.0,"AIRPRTX020":216.0,"TOT_ENP":16055319.0,"STATE":"NV","AREA":0.0,"id":"a68lnh46lbel","STATE_FIPS":"32","LOCID":"LAS","FIPS":"32003","COUNTY":"Clark County"},"type":"Feature","geometry":{"type":"Point","coordinates":[-115.152336120605,36.0803604125977]}},{"properties":{"NAME":"North Las Vegas","FEATURE":"Airport","PERIMETER":0.0,"AIRPRTX020":217.0,"TOT_ENP":107433.0,"STATE":"NV","AREA":0.0,"id":"a68lngv7qyks","STATE_FIPS":"32","LOCID":"VGT","FIPS":"32003","COUNTY":"Clark County"},"type":"Feature","geometry":{"type":"Point","coordinates":[-115.195747375488,36.2116661071777]}},{"properties":{"NAME":"Nellis Air Force Base","FEATURE":"Airport","PERIMETER":0.0,"AIRPRTX020":218.0,"TOT_ENP":2476.0,"STATE":"NV","AREA":0.0,"id":"a68lnh53u7gn","STATE_FIPS":"32","LOCID":"LSV","FIPS":"32003","COUNTY":"Clark County"},"type":"Feature","geometry":{"type":"Point","coordinates":[-115.034446716309,36.2358055114746]}},{"properties":{"NAME":"Grand Canyon West","FEATURE":"Airport","PERIMETER":0.0,"AIRPRTX020":219.0,"TOT_ENP":18093.0,"STATE":"AZ","AREA":0.0,"id":"a68lnh4f4h01","STATE_FIPS":"04","LOCID":"1G4","FIPS":"04015","COUNTY":"Mohave County"},"type":"Feature","geometry":{"type":"Point","coordinates":[-113.816619873047,35.9922103881836]}},{"properties":{"NAME":"Boulder City Municipal","FEATURE":"Airport","PERIMETER":0.0,"AIRPRTX020":220.0,"TOT_ENP":42139.0,"STATE":"NV","AREA":0.0,"id":"a68lngwjf6yw","STATE_FIPS":"32","LOCID":"61B","FIPS":"32003","COUNTY":"Clark County"},"type":"Feature","geometry":{"type":"Point","coordinates":[-114.861099243164,35.9474792480469]}},{"properties":{"NAME":"Grand Canyon Bar Ten Airstrip","FEATURE":"Airport","PERIMETER":0.0,"AIRPRTX020":221.0,"TOT_ENP":4360.0,"STATE":"AZ","AREA":0.0,"id":"a68lngxi3tzy","STATE_FIPS":"04","LOCID":"1Z1","FIPS":"04015","COUNTY":"Mohave County"},"type":"Feature","geometry":{"type":"Point","coordinates":[-113.231323242188,36.2597045898438]}},{"properties":{"NAME":"Grand Canyon National Park","FEATURE":"Airport","PERIMETER":0.0,"AIRPRTX020":222.0,"TOT_ENP":582388.0,"STATE":"AZ","AREA":0.0,"id":"a68lnh1dqbdn","STATE_FIPS":"04","LOCID":"GCN","FIPS":"04005","COUNTY":"Coconino County"},"type":"Feature","geometry":{"type":"Point","coordinates":[-112.146965026855,35.9523544311523]}},{"properties":{"NAME":"Cliff Dwellers Lodge","FEATURE":"Airport","PERIMETER":0.0,"AIRPRTX020":223.0,"TOT_ENP":4289.0,"STATE":"AZ","AREA":0.0,"id":"a68lngxntuk7","STATE_FIPS":"04","LOCID":"AZ03","FIPS":"04005","COUNTY":"Coconino County"},"type":"Feature","geometry":{"type":"Point","coordinates":[-111.752662658691,36.734432220459]}},{"properties":{"NAME":"Page Municipal","FEATURE":"Airport","PERIMETER":0.0,"AIRPRTX020":224.0,"TOT_ENP":23979.0,"STATE":"AZ","AREA":0.0,"id":"a68lngviali8","STATE_FIPS":"04","LOCID":"PGA","FIPS":"04005","COUNTY":"Coconino County"},"type":"Feature","geometry":{"type":"Point","coordinates":[-111.448364257812,36.9261093139648]}},{"properties":{"NAME":"Monument Valley","FEATURE":"Airport","PERIMETER":0.0,"AIRPRTX020":225.0,"TOT_ENP":7362.0,"STATE":"UT","AREA":0.0,"id":"a68lnh87vxg6","STATE_FIPS":"49","LOCID":"71V","FIPS":"49037","COUNTY":"San Juan County"},"type":"Feature","geometry":{"type":"Point","coordinates":[-110.20068359375,37.0166664123535]}},{"properties":{"NAME":"Four Corners Regional","FEATURE":"Airport","PERIMETER":0.0,"AIRPRTX020":226.0,"TOT_ENP":53538.0,"STATE":"NM","AREA":0.0,"id":"a68lngzcdfyt","STATE_FIPS":"35","LOCID":"FMN","FIPS":"35045","COUNTY":"San Juan County"},"type":"Feature","geometry":{"type":"Point","coordinates":[-108.229942321777,36.7412490844727]}},{"properties":{"NAME":"Durango-La Plata County","FEATURE":"Airport","PERIMETER":0.0,"AIRPRTX020":227.0,"TOT_ENP":96647.0,"STATE":"CO","AREA":0.0,"id":"a68lnh6xepf0","STATE_FIPS":"08","LOCID":"DRO","FIPS":"08067","COUNTY":"La Plata County"},"type":"Feature","geometry":{"type":"Point","coordinates":[-107.753768920898,37.1515159606934]}},{"properties":{"NAME":"Animas Air Park","FEATURE":"Airport","PERIMETER":0.0,"AIRPRTX020":228.0,"TOT_ENP":1041.0,"STATE":"CO","AREA":0.0,"id":"a68lngz3wyx5","STATE_FIPS":"08","LOCID":"00C","FIPS":"08067","COUNTY":"La Plata County"},"type":"Feature","geometry":{"type":"Point","coordinates":[-107.869194030762,37.2031784057617]}},{"properties":{"NAME":"San Luis Valley Regional/Bergman Field","FEATURE":"Airport","PERIMETER":0.0,"AIRPRTX020":229.0,"TOT_ENP":4298.0,"STATE":"CO","AREA":0.0,"id":"a68lngxteldt","STATE_FIPS":"08","LOCID":"ALS","FIPS":"08003","COUNTY":"Alamosa County"},"type":"Feature","geometry":{"type":"Point","coordinates":[-105.866554260254,37.4349174499512]}},{"properties":{"NAME":"Guymon Municipal","FEATURE":"Airport","PERIMETER":0.0,"AIRPRTX020":230.0,"TOT_ENP":349.0,"STATE":"OK","AREA":0.0,"id":"a68lngv497ze","STATE_FIPS":"40","LOCID":"GUY","FIPS":"40139","COUNTY":"Texas County"},"type":"Feature","geometry":{"type":"Point","coordinates":[-101.507781982422,36.6850700378418]}},{"properties":{"NAME":"Liberal Municipal","FEATURE":"Airport","PERIMETER":0.0,"AIRPRTX020":231.0,"TOT_ENP":7318.0,"STATE":"KS","AREA":0.0,"id":"a68lngw55q5i","STATE_FIPS":"20","LOCID":"LBL","FIPS":"20175","COUNTY":"Seward County"},"type":"Feature","geometry":{"type":"Point","coordinates":[-100.959861755371,37.0442085266113]}},{"properties":{"NAME":"Ponca City Municipal","FEATURE":"Airport","PERIMETER":0.0,"AIRPRTX020":232.0,"TOT_ENP":2411.0,"STATE":"OK","AREA":0.0,"id":"a68lnh9gzsv7","STATE_FIPS":"40","LOCID":"PNC","FIPS":"40071","COUNTY":"Kay County"},"type":"Feature","geometry":{"type":"Point","coordinates":[-97.0997695922852,36.730583190918]}},{"properties":{"NAME":"Joplin Regional","FEATURE":"Airport","PERIMETER":0.0,"AIRPRTX020":233.0,"TOT_ENP":28877.0,"STATE":"MO","AREA":0.0,"id":"a68lnh5km4ap","STATE_FIPS":"29","LOCID":"JLN","FIPS":"29097","COUNTY":"Jasper County"},"type":"Feature","geometry":{"type":"Point","coordinates":[-94.4982681274414,37.1518135070801]}},{"properties":{"NAME":"Springfield-Branson Regional","FEATURE":"Airport","PERIMETER":0.0,"AIRPRTX020":234.0,"TOT_ENP":349320.0,"STATE":"MO","AREA":0.0,"id":"a68lnh430wj5","STATE_FIPS":"29","LOCID":"SGF","FIPS":"29077","COUNTY":"Greene County"},"type":"Feature","geometry":{"type":"Point","coordinates":[-93.3868560791016,37.244327545166]}},{"properties":{"NAME":"Baxter County Regional","FEATURE":"Airport","PERIMETER":0.0,"AIRPRTX020":235.0,"TOT_ENP":4340.0,"STATE":"AR","AREA":0.0,"id":"a68lngy593yl","STATE_FIPS":"05","LOCID":"BPK","FIPS":"05005","COUNTY":"Baxter County"},"type":"Feature","geometry":{"type":"Point","coordinates":[-92.4705276489258,36.3689422607422]}},{"properties":{"NAME":"Campbell Army Air Field","FEATURE":"Airport","PERIMETER":0.0,"AIRPRTX020":236.0,"TOT_ENP":3213.0,"STATE":"KY","AREA":0.0,"id":"a68lnh8y8bp1","STATE_FIPS":"21","LOCID":"HOP","FIPS":"21047","COUNTY":"Christian County"},"type":"Feature","geometry":{"type":"Point","coordinates":[-87.4916763305664,36.6728248596191]}},{"properties":{"NAME":"Smyrna","FEATURE":"Airport","PERIMETER":0.0,"AIRPRTX020":237.0,"TOT_ENP":563.0,"STATE":"TN","AREA":0.0,"id":"a68lngyqi265","STATE_FIPS":"47","LOCID":"MQY","FIPS":"47149","COUNTY":"Rutherford County"},"type":"Feature","geometry":{"type":"Point","coordinates":[-86.5200729370117,36.0089797973633]}},{"properties":{"NAME":"Nashville International","FEATURE":"Airport","PERIMETER":0.0,"AIRPRTX020":238.0,"TOT_ENP":4207731.0,"STATE":"TN","AREA":0.0,"id":"a68lngufov98","STATE_FIPS":"47","LOCID":"BNA","FIPS":"47037","COUNTY":"Davidson County"},"type":"Feature","geometry":{"type":"Point","coordinates":[-86.6781845092773,36.1244773864746]}},{"properties":{"NAME":"McGhee Tyson","FEATURE":"Airport","PERIMETER":0.0,"AIRPRTX020":239.0,"TOT_ENP":878737.0,"STATE":"TN","AREA":0.0,"id":"a68lngu5b8p2","STATE_FIPS":"47","LOCID":"TYS","FIPS":"47009","COUNTY":"Blount County"},"type":"Feature","geometry":{"type":"Point","coordinates":[-83.9928588867188,35.8124885559082]}},{"properties":{"NAME":"Asheville Regional","FEATURE":"Airport","PERIMETER":0.0,"AIRPRTX020":240.0,"TOT_ENP":283144.0,"STATE":"NC","AREA":0.0,"id":"a68lngwqa3q9","STATE_FIPS":"37","LOCID":"AVL","FIPS":"37021","COUNTY":"Buncombe County"},"type":"Feature","geometry":{"type":"Point","coordinates":[-82.5418090820312,35.4361953735352]}},{"properties":{"NAME":"Charlotte/Douglas International","FEATURE":"Airport","PERIMETER":0.0,"AIRPRTX020":241.0,"TOT_ENP":10618589.0,"STATE":"NC","AREA":0.0,"id":"a68lnh8xhsyy","STATE_FIPS":"37","LOCID":"CLT","FIPS":"37119","COUNTY":"Mecklenburg County"},"type":"Feature","geometry":{"type":"Point","coordinates":[-80.9431228637695,35.2140121459961]}},{"properties":{"NAME":"Moore County","FEATURE":"Airport","PERIMETER":0.0,"AIRPRTX020":242.0,"TOT_ENP":20238.0,"STATE":"NC","AREA":0.0,"id":"a68lnh1hex69","STATE_FIPS":"37","LOCID":"SOP","FIPS":"37125","COUNTY":"Moore County"},"type":"Feature","geometry":{"type":"Point","coordinates":[-79.3911666870117,35.2373542785645]}},{"properties":{"NAME":"Fayetteville Regional/Grannis Field","FEATURE":"Airport","PERIMETER":0.0,"AIRPRTX020":243.0,"TOT_ENP":157906.0,"STATE":"NC","AREA":0.0,"id":"a68lngy8wokl","STATE_FIPS":"37","LOCID":"FAY","FIPS":"37051","COUNTY":"Cumberland County"},"type":"Feature","geometry":{"type":"Point","coordinates":[-78.879997253418,34.9914703369141]}},{"properties":{"NAME":"Pope Air Force Base","FEATURE":"Airport","PERIMETER":0.0,"AIRPRTX020":244.0,"TOT_ENP":10405.0,"STATE":"NC","AREA":0.0,"id":"a68lnh0ycybt","STATE_FIPS":"37","LOCID":"POB","FIPS":"37051","COUNTY":"Cumberland County"},"type":"Feature","geometry":{"type":"Point","coordinates":[-79.0144729614258,35.1708831787109]}},{"properties":{"NAME":"Wilmington International","FEATURE":"Airport","PERIMETER":0.0,"AIRPRTX020":245.0,"TOT_ENP":246790.0,"STATE":"NC","AREA":0.0,"id":"a68lnh21h3wg","STATE_FIPS":"37","LOCID":"ILM","FIPS":"37129","COUNTY":"New Hanover County"},"type":"Feature","geometry":{"type":"Point","coordinates":[-77.9025573730469,34.2706108093262]}},{"properties":{"NAME":"Albert J. Ellis","FEATURE":"Airport","PERIMETER":0.0,"AIRPRTX020":246.0,"TOT_ENP":54722.0,"STATE":"NC","AREA":0.0,"id":"a68lnguediva","STATE_FIPS":"37","LOCID":"OAJ","FIPS":"37133","COUNTY":"Onslow County"},"type":"Feature","geometry":{"type":"Point","coordinates":[-77.6121368408203,34.8291625976562]}},{"properties":{"NAME":"Cherry Point Marine Corps Air Station/Cunningham Field","FEATURE":"Airport","PERIMETER":0.0,"AIRPRTX020":247.0,"TOT_ENP":15280.0,"STATE":"NC","AREA":0.0,"id":"a68lnh4lquxf","STATE_FIPS":"37","LOCID":"NKT","FIPS":"37049","COUNTY":"Craven County"},"type":"Feature","geometry":{"type":"Point","coordinates":[-76.8810501098633,34.902660369873]}},{"properties":{"NAME":"Paso Robles Municipal","FEATURE":"Airport","PERIMETER":0.0,"AIRPRTX020":248.0,"TOT_ENP":260.0,"STATE":"CA","AREA":0.0,"id":"a68lngvrxhrf","STATE_FIPS":"06","LOCID":"PRB","FIPS":"06079","COUNTY":"San Luis Obispo County"},"type":"Feature","geometry":{"type":"Point","coordinates":[-120.627052307129,35.6728858947754]}},{"properties":{"NAME":"Visalia Municipal","FEATURE":"Airport","PERIMETER":0.0,"AIRPRTX020":249.0,"TOT_ENP":10255.0,"STATE":"CA","AREA":0.0,"id":"a68lnh8f96k6","STATE_FIPS":"06","LOCID":"VIS","FIPS":"06107","COUNTY":"Tulare County"},"type":"Feature","geometry":{"type":"Point","coordinates":[-119.392890930176,36.3186683654785]}},{"properties":{"NAME":"Fresno Yosemite International","FEATURE":"Airport","PERIMETER":0.0,"AIRPRTX020":250.0,"TOT_ENP":520303.0,"STATE":"CA","AREA":0.0,"id":"a68lnh0x7vwz","STATE_FIPS":"06","LOCID":"FAT","FIPS":"06019","COUNTY":"Fresno County"},"type":"Feature","geometry":{"type":"Point","coordinates":[-119.718139648438,36.776195526123]}},{"properties":{"NAME":"Saint George Municipal","FEATURE":"Airport","PERIMETER":0.0,"AIRPRTX020":251.0,"TOT_ENP":33707.0,"STATE":"UT","AREA":0.0,"id":"a68lngz629tn","STATE_FIPS":"49","LOCID":"SGU","FIPS":"49053","COUNTY":"Washington County"},"type":"Feature","geometry":{"type":"Point","coordinates":[-113.593055725098,37.0905838012695]}},{"properties":{"NAME":"Cedar City Regional","FEATURE":"Airport","PERIMETER":0.0,"AIRPRTX020":252.0,"TOT_ENP":8398.0,"STATE":"UT","AREA":0.0,"id":"a68lngz1smw1","STATE_FIPS":"49","LOCID":"CDC","FIPS":"49021","COUNTY":"Iron County"},"type":"Feature","geometry":{"type":"Point","coordinates":[-113.098571777344,37.7009696960449]}},{"properties":{"NAME":"Bryce Canyon","FEATURE":"Airport","PERIMETER":0.0,"AIRPRTX020":253.0,"TOT_ENP":2785.0,"STATE":"UT","AREA":0.0,"id":"a68lnh2a5xkj","STATE_FIPS":"49","LOCID":"BCE","FIPS":"49017","COUNTY":"Garfield County"},"type":"Feature","geometry":{"type":"Point","coordinates":[-112.145469665527,37.706371307373]}},{"properties":{"NAME":"Cortez Municipal","FEATURE":"Airport","PERIMETER":0.0,"AIRPRTX020":254.0,"TOT_ENP":8220.0,"STATE":"CO","AREA":0.0,"id":"a68lnh8wtj2k","STATE_FIPS":"08","LOCID":"CEZ","FIPS":"08083","COUNTY":"Montezuma County"},"type":"Feature","geometry":{"type":"Point","coordinates":[-108.628067016602,37.3029975891113]}},{"properties":{"NAME":"Telluride Regional","FEATURE":"Airport","PERIMETER":0.0,"AIRPRTX020":255.0,"TOT_ENP":22483.0,"STATE":"CO","AREA":0.0,"id":"a68lngyq5lbi","STATE_FIPS":"08","LOCID":"TEX","FIPS":"08113","COUNTY":"San Miguel County"},"type":"Feature","geometry":{"type":"Point","coordinates":[-107.908477783203,37.9537582397461]}},{"properties":{"NAME":"Pueblo Memorial","FEATURE":"Airport","PERIMETER":0.0,"AIRPRTX020":256.0,"TOT_ENP":5656.0,"STATE":"CO","AREA":0.0,"id":"a68lnh1oylek","STATE_FIPS":"08","LOCID":"PUB","FIPS":"08101","COUNTY":"Pueblo County"},"type":"Feature","geometry":{"type":"Point","coordinates":[-104.496574401855,38.2890853881836]}},{"properties":{"NAME":"Lamar Municipal","FEATURE":"Airport","PERIMETER":0.0,"AIRPRTX020":257.0,"TOT_ENP":1433.0,"STATE":"CO","AREA":0.0,"id":"a68lngzofvn3","STATE_FIPS":"08","LOCID":"LAA","FIPS":"08099","COUNTY":"Prowers County"},"type":"Feature","geometry":{"type":"Point","coordinates":[-102.688499450684,38.069694519043]}},{"properties":{"NAME":"Dodge City Regional","FEATURE":"Airport","PERIMETER":0.0,"AIRPRTX020":258.0,"TOT_ENP":5818.0,"STATE":"KS","AREA":0.0,"id":"a68lnh0ub000","STATE_FIPS":"20","LOCID":"DDC","FIPS":"20057","COUNTY":"Ford County"},"type":"Feature","geometry":{"type":"Point","coordinates":[-99.9654235839844,37.7631225585938]}},{"properties":{"NAME":"Garden City Regional","FEATURE":"Airport","PERIMETER":0.0,"AIRPRTX020":259.0,"TOT_ENP":10943.0,"STATE":"KS","AREA":0.0,"id":"a68lnh8t19up","STATE_FIPS":"20","LOCID":"GCK","FIPS":"20055","COUNTY":"Finney County"},"type":"Feature","geometry":{"type":"Point","coordinates":[-100.724411010742,37.9275169372559]}},{"properties":{"NAME":"Great Bend Municipal","FEATURE":"Airport","PERIMETER":0.0,"AIRPRTX020":260.0,"TOT_ENP":3029.0,"STATE":"KS","AREA":0.0,"id":"a68lngvihe23","STATE_FIPS":"20","LOCID":"GBD","FIPS":"20009","COUNTY":"Barton County"},"type":"Feature","geometry":{"type":"Point","coordinates":[-98.8591690063477,38.3444175720215]}},{"properties":{"NAME":"Wichita Mid-Continent","FEATURE":"Airport","PERIMETER":0.0,"AIRPRTX020":261.0,"TOT_ENP":595316.0,"STATE":"KS","AREA":0.0,"id":"a68lnh3qd18e","STATE_FIPS":"20","LOCID":"ICT","FIPS":"20173","COUNTY":"Sedgwick County"},"type":"Feature","geometry":{"type":"Point","coordinates":[-97.4330444335938,37.649959564209]}},{"properties":{"NAME":"Colonel James Jabara","FEATURE":"Airport","PERIMETER":0.0,"AIRPRTX020":262.0,"TOT_ENP":1319.0,"STATE":"KS","AREA":0.0,"id":"a68lnh3h5iju","STATE_FIPS":"20","LOCID":"AAO","FIPS":"20173","COUNTY":"Sedgwick County"},"type":"Feature","geometry":{"type":"Point","coordinates":[-97.2211380004883,37.7475547790527]}},{"properties":{"NAME":"Newton-City-County","FEATURE":"Airport","PERIMETER":0.0,"AIRPRTX020":263.0,"TOT_ENP":258.0,"STATE":"KS","AREA":0.0,"id":"a68lnh67obuu","STATE_FIPS":"20","LOCID":"EWK","FIPS":"20079","COUNTY":"Harvey County"},"type":"Feature","geometry":{"type":"Point","coordinates":[-97.2752304077148,38.0571060180664]}},{"properties":{"NAME":"Waynesville Regional Airport At Forney Field","FEATURE":"Airport","PERIMETER":0.0,"AIRPRTX020":264.0,"TOT_ENP":6050.0,"STATE":"MO","AREA":0.0,"id":"a68lngvcc1db","STATE_FIPS":"29","LOCID":"TBN","FIPS":"29169","COUNTY":"Pulaski County"},"type":"Feature","geometry":{"type":"Point","coordinates":[-92.140739440918,37.7416305541992]}},{"properties":{"NAME":"Cape Girardeau Regional","FEATURE":"Airport","PERIMETER":0.0,"AIRPRTX020":265.0,"TOT_ENP":10390.0,"STATE":"MO","AREA":0.0,"id":"a68lnh500gsy","STATE_FIPS":"29","LOCID":"CGI","FIPS":"29201","COUNTY":"Scott County"},"type":"Feature","geometry":{"type":"Point","coordinates":[-89.5707550048828,37.2253150939941]}},{"properties":{"NAME":"Barkley Regional","FEATURE":"Airport","PERIMETER":0.0,"AIRPRTX020":266.0,"TOT_ENP":26300.0,"STATE":"KY","AREA":0.0,"id":"a68lnh25wgrb","STATE_FIPS":"21","LOCID":"PAH","FIPS":"21145","COUNTY":"McCracken County"},"type":"Feature","geometry":{"type":"Point","coordinates":[-88.7737503051758,37.0608329772949]}},{"properties":{"NAME":"Williamson County Regional","FEATURE":"Airport","PERIMETER":0.0,"AIRPRTX020":267.0,"TOT_ENP":10108.0,"STATE":"IL","AREA":0.0,"id":"a68lnh230e7n","STATE_FIPS":"17","LOCID":"MWA","FIPS":"17199","COUNTY":"Williamson County"},"type":"Feature","geometry":{"type":"Point","coordinates":[-89.0115966796875,37.7531356811523]}},{"properties":{"NAME":"Madisonville Municipal","FEATURE":"Airport","PERIMETER":0.0,"AIRPRTX020":268.0,"TOT_ENP":912.0,"STATE":"KY","AREA":0.0,"id":"a68lnh278iem","STATE_FIPS":"21","LOCID":"2I0","FIPS":"21107","COUNTY":"Hopkins County"},"type":"Feature","geometry":{"type":"Point","coordinates":[-87.3996353149414,37.3550262451172]}},{"properties":{"NAME":"Owensboro-Daviess County","FEATURE":"Airport","PERIMETER":0.0,"AIRPRTX020":269.0,"TOT_ENP":10229.0,"STATE":"KY","AREA":0.0,"id":"a68lnh9bzkht","STATE_FIPS":"21","LOCID":"OWB","FIPS":"21059","COUNTY":"Daviess County"},"type":"Feature","geometry":{"type":"Point","coordinates":[-87.1668319702148,37.7401123046875]}},{"properties":{"NAME":"Bowling Green-Warren County Regional","FEATURE":"Airport","PERIMETER":0.0,"AIRPRTX020":270.0,"TOT_ENP":311.0,"STATE":"KY","AREA":0.0,"id":"a68lngv00nd7","STATE_FIPS":"21","LOCID":"BWG","FIPS":"21227","COUNTY":"Warren County"},"type":"Feature","geometry":{"type":"Point","coordinates":[-86.419677734375,36.9645156860352]}},{"properties":{"NAME":"Tri-Cities Regional TN/VA","FEATURE":"Airport","PERIMETER":0.0,"AIRPRTX020":271.0,"TOT_ENP":221228.0,"STATE":"TN","AREA":0.0,"id":"a68lnh136exn","STATE_FIPS":"47","LOCID":"TRI","FIPS":"47163","COUNTY":"Sullivan County"},"type":"Feature","geometry":{"type":"Point","coordinates":[-82.4074172973633,36.4752159118652]}},{"properties":{"NAME":"Smith Reynolds","FEATURE":"Airport","PERIMETER":0.0,"AIRPRTX020":272.0,"TOT_ENP":7242.0,"STATE":"NC","AREA":0.0,"id":"a68lngy5eusy","STATE_FIPS":"37","LOCID":"INT","FIPS":"37067","COUNTY":"Forsyth County"},"type":"Feature","geometry":{"type":"Point","coordinates":[-80.2220001220703,36.1337203979492]}},{"properties":{"NAME":"Piedmont Triad International","FEATURE":"Airport","PERIMETER":0.0,"AIRPRTX020":273.0,"TOT_ENP":1382198.0,"STATE":"NC","AREA":0.0,"id":"a68lnh738y82","STATE_FIPS":"37","LOCID":"GSO","FIPS":"37081","COUNTY":"Guilford County"},"type":"Feature","geometry":{"type":"Point","coordinates":[-79.9372940063477,36.0977478027344]}},{"properties":{"NAME":"Seymour Johnson Air Force Base","FEATURE":"Airport","PERIMETER":0.0,"AIRPRTX020":274.0,"TOT_ENP":937.0,"STATE":"NC","AREA":0.0,"id":"a68lnh9m282m","STATE_FIPS":"37","LOCID":"GSB","FIPS":"37191","COUNTY":"Wayne County"},"type":"Feature","geometry":{"type":"Point","coordinates":[-77.9605865478516,35.3393821716309]}},{"properties":{"NAME":"Raleigh-Durham International","FEATURE":"Airport","PERIMETER":0.0,"AIRPRTX020":275.0,"TOT_ENP":4394220.0,"STATE":"NC","AREA":0.0,"id":"a68lngv467g1","STATE_FIPS":"37","LOCID":"RDU","FIPS":"37183","COUNTY":"Wake County"},"type":"Feature","geometry":{"type":"Point","coordinates":[-78.7874755859375,35.8776397705078]}},{"properties":{"NAME":"Rocky Mount-Wilson Regional","FEATURE":"Airport","PERIMETER":0.0,"AIRPRTX020":276.0,"TOT_ENP":7678.0,"STATE":"NC","AREA":0.0,"id":"a68lnh85eo54","STATE_FIPS":"37","LOCID":"RWI","FIPS":"37127","COUNTY":"Nash County"},"type":"Feature","geometry":{"type":"Point","coordinates":[-77.8929595947266,35.8549880981445]}},{"properties":{"NAME":"Craven County Regional","FEATURE":"Airport","PERIMETER":0.0,"AIRPRTX020":277.0,"TOT_ENP":73882.0,"STATE":"NC","AREA":0.0,"id":"a68lnh58f2cp","STATE_FIPS":"37","LOCID":"EWN","FIPS":"37049","COUNTY":"Craven County"},"type":"Feature","geometry":{"type":"Point","coordinates":[-77.0429458618164,35.0729713439941]}},{"properties":{"NAME":"Kinston Regional Jetport At Stallings Field","FEATURE":"Airport","PERIMETER":0.0,"AIRPRTX020":278.0,"TOT_ENP":13057.0,"STATE":"NC","AREA":0.0,"id":"a68lnh2ktnn6","STATE_FIPS":"37","LOCID":"ISO","FIPS":"37107","COUNTY":"Lenoir County"},"type":"Feature","geometry":{"type":"Point","coordinates":[-77.6155242919922,35.3280792236328]}},{"properties":{"NAME":"Pitt-Greenville","FEATURE":"Airport","PERIMETER":0.0,"AIRPRTX020":279.0,"TOT_ENP":43756.0,"STATE":"NC","AREA":0.0,"id":"a68lnh7n9lr6","STATE_FIPS":"37","LOCID":"PGV","FIPS":"37147","COUNTY":"Pitt County"},"type":"Feature","geometry":{"type":"Point","coordinates":[-77.3853225708008,35.6352386474609]}},{"properties":{"NAME":"Monterey Peninsula","FEATURE":"Airport","PERIMETER":0.0,"AIRPRTX020":280.0,"TOT_ENP":258605.0,"STATE":"CA","AREA":0.0,"id":"a68lngxyerei","STATE_FIPS":"06","LOCID":"MRY","FIPS":"06053","COUNTY":"Monterey County"},"type":"Feature","geometry":{"type":"Point","coordinates":[-121.842948913574,36.5869827270508]}},{"properties":{"NAME":"San Jose International","FEATURE":"Airport","PERIMETER":0.0,"AIRPRTX020":281.0,"TOT_ENP":5582359.0,"STATE":"CA","AREA":0.0,"id":"a68lnh12tu6w","STATE_FIPS":"06","LOCID":"SJC","FIPS":"06085","COUNTY":"Santa Clara County"},"type":"Feature","geometry":{"type":"Point","coordinates":[-121.929008483887,37.3618621826172]}},{"properties":{"NAME":"Merced Municipal/MacReady Field","FEATURE":"Airport","PERIMETER":0.0,"AIRPRTX020":282.0,"TOT_ENP":3879.0,"STATE":"CA","AREA":0.0,"id":"a68lnh0a1w0e","STATE_FIPS":"06","LOCID":"MCE","FIPS":"06047","COUNTY":"Merced County"},"type":"Feature","geometry":{"type":"Point","coordinates":[-120.513885498047,37.2847290039062]}},{"properties":{"NAME":"Canyonlands Field","FEATURE":"Airport","PERIMETER":0.0,"AIRPRTX020":283.0,"TOT_ENP":1960.0,"STATE":"UT","AREA":0.0,"id":"a68lngzli2vm","STATE_FIPS":"49","LOCID":"CNY","FIPS":"49019","COUNTY":"Grand County"},"type":"Feature","geometry":{"type":"Point","coordinates":[-109.754844665527,38.754955291748]}},{"properties":{"NAME":"Montrose Regional","FEATURE":"Airport","PERIMETER":0.0,"AIRPRTX020":284.0,"TOT_ENP":70799.0,"STATE":"CO","AREA":0.0,"id":"a68lngxxlj1d","STATE_FIPS":"08","LOCID":"MTJ","FIPS":"08085","COUNTY":"Montrose County"},"type":"Feature","geometry":{"type":"Point","coordinates":[-107.893836975098,38.5088653564453]}},{"properties":{"NAME":"Walker Field","FEATURE":"Airport","PERIMETER":0.0,"AIRPRTX020":285.0,"TOT_ENP":137793.0,"STATE":"CO","AREA":0.0,"id":"a68lngu6m20n","STATE_FIPS":"08","LOCID":"GJT","FIPS":"08077","COUNTY":"Mesa County"},"type":"Feature","geometry":{"type":"Point","coordinates":[-108.526733398438,39.1224136352539]}},{"properties":{"NAME":"Gunnison County","FEATURE":"Airport","PERIMETER":0.0,"AIRPRTX020":286.0,"TOT_ENP":57953.0,"STATE":"CO","AREA":0.0,"id":"a68lnh1pvmhx","STATE_FIPS":"08","LOCID":"GUC","FIPS":"08051","COUNTY":"Gunnison County"},"type":"Feature","geometry":{"type":"Point","coordinates":[-106.933181762695,38.5339622497559]}},{"properties":{"NAME":"Aspen-Pitkin County/Sardy Field","FEATURE":"Airport","PERIMETER":0.0,"AIRPRTX020":287.0,"TOT_ENP":215685.0,"STATE":"CO","AREA":0.0,"id":"a68lnh1f670r","STATE_FIPS":"08","LOCID":"ASE","FIPS":"08097","COUNTY":"Pitkin County"},"type":"Feature","geometry":{"type":"Point","coordinates":[-106.868843078613,39.2231597900391]}},{"properties":{"NAME":"City Of Colorado Springs Municipal","FEATURE":"Airport","PERIMETER":0.0,"AIRPRTX020":288.0,"TOT_ENP":1223324.0,"STATE":"CO","AREA":0.0,"id":"a68lngxjimem","STATE_FIPS":"08","LOCID":"COS","FIPS":"08041","COUNTY":"El Paso County"},"type":"Feature","geometry":{"type":"Point","coordinates":[-104.700248718262,38.8058052062988]}},{"properties":{"NAME":"Centennial","FEATURE":"Airport","PERIMETER":0.0,"AIRPRTX020":289.0,"TOT_ENP":530.0,"STATE":"CO","AREA":0.0,"id":"a68lnh39v0pd","STATE_FIPS":"08","LOCID":"APA","FIPS":"08005","COUNTY":"Arapahoe County"},"type":"Feature","geometry":{"type":"Point","coordinates":[-104.849296569824,39.5701293945312]}},{"properties":{"NAME":"Renner Field/Goodland Municipal","FEATURE":"Airport","PERIMETER":0.0,"AIRPRTX020":290.0,"TOT_ENP":1079.0,"STATE":"KS","AREA":0.0,"id":"a68lnh92spvn","STATE_FIPS":"20","LOCID":"GLD","FIPS":"20181","COUNTY":"Sherman County"},"type":"Feature","geometry":{"type":"Point","coordinates":[-101.698989868164,39.3706207275391]}},{"properties":{"NAME":"Hays Regional","FEATURE":"Airport","PERIMETER":0.0,"AIRPRTX020":291.0,"TOT_ENP":7143.0,"STATE":"KS","AREA":0.0,"id":"a68lnh0kteku","STATE_FIPS":"20","LOCID":"HYS","FIPS":"20051","COUNTY":"Ellis County"},"type":"Feature","geometry":{"type":"Point","coordinates":[-99.2740325927734,38.8449401855469]}},{"properties":{"NAME":"Salina Municipal","FEATURE":"Airport","PERIMETER":0.0,"AIRPRTX020":292.0,"TOT_ENP":15978.0,"STATE":"KS","AREA":0.0,"id":"a68lnh9ho2vi","STATE_FIPS":"20","LOCID":"SLN","FIPS":"20169","COUNTY":"Saline County"},"type":"Feature","geometry":{"type":"Point","coordinates":[-97.6506042480469,38.7914810180664]}},{"properties":{"NAME":"Forbes Field","FEATURE":"Airport","PERIMETER":0.0,"AIRPRTX020":293.0,"TOT_ENP":11157.0,"STATE":"KS","AREA":0.0,"id":"a68lngztse5b","STATE_FIPS":"20","LOCID":"FOE","FIPS":"20177","COUNTY":"Shawnee County"},"type":"Feature","geometry":{"type":"Point","coordinates":[-95.6636123657227,38.9509506225586]}},{"properties":{"NAME":"Manhattan Regional","FEATURE":"Airport","PERIMETER":0.0,"AIRPRTX020":294.0,"TOT_ENP":19908.0,"STATE":"KS","AREA":0.0,"id":"a68lnh7hkhqf","STATE_FIPS":"20","LOCID":"MHK","FIPS":"20161","COUNTY":"Riley County"},"type":"Feature","geometry":{"type":"Point","coordinates":[-96.6708297729492,39.1409683227539]}},{"properties":{"NAME":"Kansas City Downtown","FEATURE":"Airport","PERIMETER":0.0,"AIRPRTX020":295.0,"TOT_ENP":1550.0,"STATE":"MO","AREA":0.0,"id":"a68lnh9p4250","STATE_FIPS":"29","LOCID":"MKC","FIPS":"29047","COUNTY":"Clay County"},"type":"Feature","geometry":{"type":"Point","coordinates":[-94.5927352905273,39.1232414245605]}},