{"type":"FeatureCollection","data_type":"Dataset","url_type":null,"permissions":[{"permissions":{"download":true,"view":true},"group_id":"everyone"}],"classification":null,"title":"A Prayer For Owen Meany, International Reviews, Book-Crossing Dataset","count":177,"stream_id":19862,"contributor":{"url":"http://geocommons.com/users/2943","name":"Margot"},"data_attributes":null,"calculation_params":null,"icon_link":null,"link":"http://geocommons.com/overlays/19862.json","extent":[-158.003,-43.8115,172.253,54.5958],"geometry_types":["point"],"unique_name":null,"name":"A Prayer For Owen Meany, International Reviews, Book-Crossing Dataset","feature_count":177,"description":"\t\nCollected by Cai-Nicolas Ziegler in a 4-week crawl (August / September 2004) from the Book-Crossing community with kind permission from Ron Hornbaker, CTO of Humankind Systems. Contains 278,858 users (anonymized but with demographic information) providing 1,149,780 ratings (explicit / implicit) about 271,379 books.\n\n[ ! ] Freely available for research use when acknowledged with the following reference (further details on the dataset are given in this publication):\nImproving Recommendation Lists Through Topic Diversification,\nCai-Nicolas Ziegler, Sean M. McNee, Joseph A. Konstan, Georg Lausen; Proceedings of the 14th International World Wide Web Conference (WWW '05), May 10-14, 2005, Chiba, Japan. To appear.\n\nContains the book rating information. Ratings (`Book-Rating`) are either explicit, expressed on a scale from 1-10 (higher values denoting higher appreciation), or implicit, expressed by 0.","next_feature":null,"is_raster":false,"short_classification":"Y","stats":{"isbn":{"max":679642595.0,"mean":347253885.548023,"variance":631306970428184.0,"stdev":25125822.7811187,"min":345361792.0,"median":345361792.0},"latitude":{"max":54.595805,"mean":39.043556621469,"variance":139.007626564995,"stdev":11.7901495565152,"min":-43.81152,"median":40.722736},"book-rating":{"max":10.0,"mean":8.57627118644068,"variance":2.75693374422189,"stdev":1.66040168158849,"min":1.0,"median":9.0},"user-id":{"max":250249.0,"mean":121568.581920904,"variance":5210608939.85831,"stdev":72184.5477914651,"min":2996.0,"median":111362.0},"longitude":{"max":172.252686,"mean":-83.3816367853107,"variance":2478.333284053,"stdev":49.7828613485907,"min":-158.003335,"median":-86.016519}},"features":[{"properties":{"city":"Toronto","isbn":345361792.0,"latitude":43.648565,"book-rating":1.0,"title":"A Prayer for Owen Meany","user-id":100266.0,"longitude":-79.385329,"id":"a63uygodo0cw","state":"Ontario"},"type":"Feature","geometry":{"type":"Point","coordinates":[-79.385329,43.648565]}},{"properties":{"city":"Chicago","isbn":345361792.0,"latitude":41.88415,"book-rating":8.0,"title":"A Prayer for Owen Meany","user-id":101632.0,"longitude":-87.632409,"id":"a63uygg17114","state":"Illinois"},"type":"Feature","geometry":{"type":"Point","coordinates":[-87.632409,41.88415]}},{"properties":{"city":"Virginia Beach","isbn":345361792.0,"latitude":36.75502,"book-rating":9.0,"title":"A Prayer for Owen Meany","user-id":101745.0,"longitude":-76.059204,"id":"a63uygfokn51","state":"Virginia"},"type":"Feature","geometry":{"type":"Point","coordinates":[-76.059204,36.75502]}},{"properties":{"city":"Nicholasville","isbn":345361792.0,"latitude":37.88679,"book-rating":10.0,"title":"A Prayer for Owen Meany","user-id":101876.0,"longitude":-84.570349,"id":"a63uyge3862m","state":"Kentucky"},"type":"Feature","geometry":{"type":"Point","coordinates":[-84.570349,37.88679]}},{"properties":{"city":"Modesto","isbn":345361792.0,"latitude":37.6383,"book-rating":7.0,"title":"A Prayer for Owen Meany","user-id":102647.0,"longitude":-120.999589,"id":"a63uygdi98i6","state":"California"},"type":"Feature","geometry":{"type":"Point","coordinates":[-120.999589,37.6383]}},{"properties":{"city":"Calgary","isbn":345361792.0,"latitude":51.04522,"book-rating":10.0,"title":"A Prayer for Owen Meany","user-id":105517.0,"longitude":-114.063014,"id":"a63uyge9nypn","state":"Alberta"},"type":"Feature","geometry":{"type":"Point","coordinates":[-114.063014,51.04522]}},{"properties":{"city":"Oakland","isbn":345417976.0,"latitude":37.805065,"book-rating":8.0,"title":"A Prayer for Owen Meany (Ballantine Reader's Circle)","user-id":105979.0,"longitude":-122.273024,"id":"a63uygenot93","state":"California"},"type":"Feature","geometry":{"type":"Point","coordinates":[-122.273024,37.805065]}},{"properties":{"city":"Oakland","isbn":345361792.0,"latitude":37.805065,"book-rating":8.0,"title":"A Prayer for Owen Meany","user-id":105979.0,"longitude":-122.273024,"id":"a63uygdjvywg","state":"California"},"type":"Feature","geometry":{"type":"Point","coordinates":[-122.273024,37.805065]}},{"properties":{"city":"Ottawa","isbn":345361792.0,"latitude":45.4215,"book-rating":9.0,"title":"A Prayer for Owen Meany","user-id":106414.0,"longitude":-75.691894,"id":"a63uygjpeiks","state":null},"type":"Feature","geometry":{"type":"Point","coordinates":[-75.691894,45.4215]}},{"properties":{"city":"North Olmsted","isbn":345361792.0,"latitude":41.414125,"book-rating":10.0,"title":"A Prayer for Owen Meany","user-id":109649.0,"longitude":-81.923415,"id":"a63uygn4ke02","state":"Ohio"},"type":"Feature","geometry":{"type":"Point","coordinates":[-81.923415,41.414125]}},{"properties":{"city":"Savannah","isbn":345361792.0,"latitude":32.08078,"book-rating":10.0,"title":"A Prayer for Owen Meany","user-id":109997.0,"longitude":-81.090719,"id":"a63uygmadod9","state":"Georgia"},"type":"Feature","geometry":{"type":"Point","coordinates":[-81.090719,32.08078]}},{"properties":{"city":"Belfast","isbn":345361792.0,"latitude":54.595805,"book-rating":9.0,"title":"A Prayer for Owen Meany","user-id":110826.0,"longitude":-5.934939,"id":"a63uygkrgzoo","state":"Northern Ireland"},"type":"Feature","geometry":{"type":"Point","coordinates":[-5.934939,54.595805]}},{"properties":{"city":"Milpitas","isbn":345361792.0,"latitude":37.432722,"book-rating":10.0,"title":"A Prayer for Owen Meany","user-id":110912.0,"longitude":-121.897253,"id":"a63uygh3u39r","state":"California"},"type":"Feature","geometry":{"type":"Point","coordinates":[-121.897253,37.432722]}},{"properties":{"city":"Kirkland","isbn":345361792.0,"latitude":47.678855,"book-rating":10.0,"title":"A Prayer for Owen Meany","user-id":110934.0,"longitude":-122.207244,"id":"a63uyg9hvt7w","state":"Washington"},"type":"Feature","geometry":{"type":"Point","coordinates":[-122.207244,47.678855]}},{"properties":{"city":"New Castle","isbn":345361792.0,"latitude":39.65977,"book-rating":8.0,"title":"A Prayer for Owen Meany","user-id":111045.0,"longitude":-75.563939,"id":"a63uygbrnagp","state":"Delaware"},"type":"Feature","geometry":{"type":"Point","coordinates":[-75.563939,39.65977]}},{"properties":{"city":"Vancouver","isbn":345361792.0,"latitude":49.26044,"book-rating":9.0,"title":"A Prayer for Owen Meany","user-id":111362.0,"longitude":-123.114034,"id":"a63uygjsjfrv","state":null},"type":"Feature","geometry":{"type":"Point","coordinates":[-123.114034,49.26044]}},{"properties":{"city":"Los Angeles","isbn":345361792.0,"latitude":34.05349,"book-rating":9.0,"title":"A Prayer for Owen Meany","user-id":111888.0,"longitude":-118.245319,"id":"a63uygfgqz66","state":"California"},"type":"Feature","geometry":{"type":"Point","coordinates":[-118.245319,34.05349]}},{"properties":{"city":"Brighton","isbn":345361792.0,"latitude":44.04247,"book-rating":10.0,"title":"A Prayer for Owen Meany","user-id":11362.0,"longitude":-77.735619,"id":"a63uygljjujv","state":"Ontario"},"type":"Feature","geometry":{"type":"Point","coordinates":[-77.735619,44.04247]}},{"properties":{"city":"Windsor","isbn":345361792.0,"latitude":42.31782,"book-rating":10.0,"title":"A Prayer for Owen Meany","user-id":114306.0,"longitude":-83.033914,"id":"a63uygohjpfr","state":"Ontario"},"type":"Feature","geometry":{"type":"Point","coordinates":[-83.033914,42.31782]}},{"properties":{"city":"Fridley","isbn":345361792.0,"latitude":45.085105,"book-rating":5.0,"title":"A Prayer for Owen Meany","user-id":115678.0,"longitude":-93.26326,"id":"a63uygirf7wx","state":"Minnesota"},"type":"Feature","geometry":{"type":"Point","coordinates":[-93.26326,45.085105]}},{"properties":{"city":"Elm Grove","isbn":345361792.0,"latitude":43.046236,"book-rating":10.0,"title":"A Prayer for Owen Meany","user-id":122801.0,"longitude":-88.082262,"id":"a63uygfyqjbv","state":"Wisconsin"},"type":"Feature","geometry":{"type":"Point","coordinates":[-88.082262,43.046236]}},{"properties":{"city":"Verona","isbn":345361792.0,"latitude":40.83186,"book-rating":8.0,"title":"A Prayer for Owen Meany","user-id":123697.0,"longitude":-74.245894,"id":"a63uygd1ctvq","state":"New Jersey"},"type":"Feature","geometry":{"type":"Point","coordinates":[-74.245894,40.83186]}},{"properties":{"city":"Marietta","isbn":345361792.0,"latitude":33.953195,"book-rating":10.0,"title":"A Prayer for Owen Meany","user-id":126240.0,"longitude":-84.545879,"id":"a63uygd4qtyc","state":"Georgia"},"type":"Feature","geometry":{"type":"Point","coordinates":[-84.545879,33.953195]}},{"properties":{"city":"Edmonton","isbn":345361792.0,"latitude":53.54622,"book-rating":10.0,"title":"A Prayer for Owen Meany","user-id":12707.0,"longitude":-113.490374,"id":"a63uygoz81g3","state":"Alberta"},"type":"Feature","geometry":{"type":"Point","coordinates":[-113.490374,53.54622]}},{"properties":{"city":"Camarillo","isbn":345361792.0,"latitude":34.22295,"book-rating":7.0,"title":"A Prayer for Owen Meany","user-id":129003.0,"longitude":-119.050714,"id":"a63uyga5wg5i","state":"California"},"type":"Feature","geometry":{"type":"Point","coordinates":[-119.050714,34.22295]}},{"properties":{"city":"Encinitas","isbn":345417976.0,"latitude":33.045436,"book-rating":8.0,"title":"A Prayer for Owen Meany (Ballantine Reader's Circle)","user-id":129399.0,"longitude":-117.292518,"id":"a63uygduo83z","state":"California"},"type":"Feature","geometry":{"type":"Point","coordinates":[-117.292518,33.045436]}},{"properties":{"city":"Greenville","isbn":345361792.0,"latitude":34.84802,"book-rating":10.0,"title":"A Prayer for Owen Meany","user-id":129705.0,"longitude":-82.400219,"id":"a63uygpi33h7","state":"South Carolina"},"type":"Feature","geometry":{"type":"Point","coordinates":[-82.400219,34.84802]}},{"properties":{"city":"Canoga Park","isbn":345361792.0,"latitude":34.201965,"book-rating":8.0,"title":"A Prayer for Owen Meany","user-id":130199.0,"longitude":-118.601564,"id":"a63uygp0up02","state":"California"},"type":"Feature","geometry":{"type":"Point","coordinates":[-118.601564,34.201965]}},{"properties":{"city":"Fresno","isbn":345361792.0,"latitude":36.740685,"book-rating":10.0,"title":"A Prayer for Owen Meany","user-id":130722.0,"longitude":-119.785734,"id":"a63uygo6ov69","state":"California"},"type":"Feature","geometry":{"type":"Point","coordinates":[-119.785734,36.740685]}},{"properties":{"city":"Portland","isbn":345361792.0,"latitude":45.511795,"book-rating":10.0,"title":"A Prayer for Owen Meany","user-id":131498.0,"longitude":-122.675629,"id":"a63uygcx2zqk","state":"Oregon"},"type":"Feature","geometry":{"type":"Point","coordinates":[-122.675629,45.511795]}},{"properties":{"city":"Raleigh","isbn":345361792.0,"latitude":35.78551,"book-rating":5.0,"title":"A Prayer for Owen Meany","user-id":132290.0,"longitude":-78.642669,"id":"a63uyghvxlhw","state":"North Carolina"},"type":"Feature","geometry":{"type":"Point","coordinates":[-78.642669,35.78551]}},{"properties":{"city":"Olney","isbn":345361792.0,"latitude":39.150405,"book-rating":8.0,"title":"A Prayer for Owen Meany","user-id":133571.0,"longitude":-77.068094,"id":"a63uygc6vcwl","state":"Maryland"},"type":"Feature","geometry":{"type":"Point","coordinates":[-77.068094,39.150405]}},{"properties":{"city":"Fair Oaks","isbn":345417976.0,"latitude":38.643035,"book-rating":10.0,"title":"A Prayer for Owen Meany (Ballantine Reader's Circle)","user-id":136139.0,"longitude":-121.270154,"id":"a63uygkhq1or","state":"California"},"type":"Feature","geometry":{"type":"Point","coordinates":[-121.270154,38.643035]}},{"properties":{"city":"Hamilton","isbn":345361792.0,"latitude":43.26099,"book-rating":9.0,"title":"A Prayer for Owen Meany","user-id":139387.0,"longitude":-79.888454,"id":"a63uygkt30rc","state":"Ontario"},"type":"Feature","geometry":{"type":"Point","coordinates":[-79.888454,43.26099]}},{"properties":{"city":"Somerville","isbn":345361792.0,"latitude":42.386675,"book-rating":10.0,"title":"A Prayer for Owen Meany","user-id":140223.0,"longitude":-71.098264,"id":"a63uygd74sqj","state":"Massachusetts"},"type":"Feature","geometry":{"type":"Point","coordinates":[-71.098264,42.386675]}},{"properties":{"city":"Zeeland","isbn":345361792.0,"latitude":42.811855,"book-rating":6.0,"title":"A Prayer for Owen Meany","user-id":140340.0,"longitude":-86.016519,"id":"a63uygg8x5tw","state":"Michigan"},"type":"Feature","geometry":{"type":"Point","coordinates":[-86.016519,42.811855]}},{"properties":{"city":"San Diego","isbn":345361792.0,"latitude":32.715685,"book-rating":8.0,"title":"A Prayer for Owen Meany","user-id":142100.0,"longitude":-117.161724,"id":"a63uygjn7lr7","state":"California"},"type":"Feature","geometry":{"type":"Point","coordinates":[-117.161724,32.715685]}},{"properties":{"city":"Waipahu","isbn":345361792.0,"latitude":21.385712,"book-rating":10.0,"title":"A Prayer for Owen Meany","user-id":142121.0,"longitude":-158.003335,"id":"a63uyg9d35ea","state":"Hawaii"},"type":"Feature","geometry":{"type":"Point","coordinates":[-158.003335,21.385712]}},{"properties":{"city":"Detroit","isbn":345361792.0,"latitude":42.331685,"book-rating":10.0,"title":"A Prayer for Owen Meany","user-id":142524.0,"longitude":-83.047924,"id":"a63uygel4uid","state":"Michigan"},"type":"Feature","geometry":{"type":"Point","coordinates":[-83.047924,42.331685]}},{"properties":{"city":"Covington","isbn":345361792.0,"latitude":39.08378,"book-rating":9.0,"title":"A Prayer for Owen Meany","user-id":143419.0,"longitude":-84.510179,"id":"a63uygmdii3u","state":"Kentucky"},"type":"Feature","geometry":{"type":"Point","coordinates":[-84.510179,39.08378]}},{"properties":{"city":"Coalville","isbn":345361792.0,"latitude":52.718786,"book-rating":9.0,"title":"A Prayer for Owen Meany","user-id":14387.0,"longitude":-1.372306,"id":"a63uygo3b0fg","state":"Leicestershire"},"type":"Feature","geometry":{"type":"Point","coordinates":[-1.372306,52.718786]}},{"properties":{"city":"Roseville","isbn":345361792.0,"latitude":38.748529,"book-rating":9.0,"title":"A Prayer for Owen Meany","user-id":144349.0,"longitude":-121.284558,"id":"a63uygbc1hns","state":"California"},"type":"Feature","geometry":{"type":"Point","coordinates":[-121.284558,38.748529]}},{"properties":{"city":"Nashville","isbn":345361792.0,"latitude":36.167783,"book-rating":9.0,"title":"A Prayer for Owen Meany","user-id":145845.0,"longitude":-86.778365,"id":"a63uygpd1j4m","state":"Tennessee"},"type":"Feature","geometry":{"type":"Point","coordinates":[-86.778365,36.167783]}},{"properties":{"city":"Fredericton","isbn":345361792.0,"latitude":45.96064,"book-rating":7.0,"title":"A Prayer for Owen Meany","user-id":146778.0,"longitude":-66.639124,"id":"a63uygkqqsbf","state":"New Brunswick"},"type":"Feature","geometry":{"type":"Point","coordinates":[-66.639124,45.96064]}},{"properties":{"city":"Gladstone","isbn":345361792.0,"latitude":45.38059,"book-rating":8.0,"title":"A Prayer for Owen Meany","user-id":149231.0,"longitude":-122.594794,"id":"a63uygblv8ui","state":"Oregon"},"type":"Feature","geometry":{"type":"Point","coordinates":[-122.594794,45.38059]}},{"properties":{"city":"Orillia","isbn":345361792.0,"latitude":44.60659,"book-rating":10.0,"title":"A Prayer for Owen Meany","user-id":151608.0,"longitude":-79.418229,"id":"a63uyggj9oh3","state":"Ontario"},"type":"Feature","geometry":{"type":"Point","coordinates":[-79.418229,44.60659]}},{"properties":{"city":"Seattle","isbn":345417976.0,"latitude":47.60356,"book-rating":7.0,"title":"A Prayer for Owen Meany (Ballantine Reader's Circle)","user-id":152897.0,"longitude":-122.329439,"id":"a63uyg9chuzq","state":"Washington"},"type":"Feature","geometry":{"type":"Point","coordinates":[-122.329439,47.60356]}},{"properties":{"city":"Fishers","isbn":345361792.0,"latitude":39.9582,"book-rating":10.0,"title":"A Prayer for Owen Meany","user-id":154529.0,"longitude":-86.017089,"id":"a63uyghoec28","state":"Indiana"},"type":"Feature","geometry":{"type":"Point","coordinates":[-86.017089,39.9582]}},{"properties":{"city":"Columbia","isbn":345361792.0,"latitude":33.99855,"book-rating":8.0,"title":"A Prayer for Owen Meany","user-id":156438.0,"longitude":-81.045249,"id":"a63uygfmf2pm","state":"South Carolina"},"type":"Feature","geometry":{"type":"Point","coordinates":[-81.045249,33.99855]}},{"properties":{"city":"Kuala Lumpur","isbn":345361792.0,"latitude":3.104635,"book-rating":8.0,"title":"A Prayer for Owen Meany","user-id":16155.0,"longitude":101.690975,"id":"a63uygj94ln9","state":null},"type":"Feature","geometry":{"type":"Point","coordinates":[101.690975,3.104635]}},{"properties":{"city":"Alexandria","isbn":345361792.0,"latitude":38.804565,"book-rating":10.0,"title":"A Prayer for Owen Meany","user-id":161957.0,"longitude":-77.043079,"id":"a63uygeh58e0","state":"Virginia"},"type":"Feature","geometry":{"type":"Point","coordinates":[-77.043079,38.804565]}},{"properties":{"city":"New York","isbn":345417976.0,"latitude":40.71455,"book-rating":7.0,"title":"A Prayer for Owen Meany (Ballantine Reader's Circle)","user-id":162030.0,"longitude":-74.007124,"id":"a63uyggsoh4u","state":"New York"},"type":"Feature","geometry":{"type":"Point","coordinates":[-74.007124,40.71455]}},{"properties":{"city":"Lynn","isbn":345361792.0,"latitude":42.4637,"book-rating":10.0,"title":"A Prayer for Owen Meany","user-id":162376.0,"longitude":-70.950219,"id":"a63uygajqqr8","state":"Massachusetts"},"type":"Feature","geometry":{"type":"Point","coordinates":[-70.950219,42.4637]}},{"properties":{"city":"Berlin","isbn":345361792.0,"latitude":52.516074,"book-rating":9.0,"title":"A Prayer for Owen Meany","user-id":163689.0,"longitude":13.376987,"id":"a63uygktg5el","state":"Berlin"},"type":"Feature","geometry":{"type":"Point","coordinates":[13.376987,52.516074]}},{"properties":{"city":"Charlestown","isbn":345361792.0,"latitude":42.37169,"book-rating":10.0,"title":"A Prayer for Owen Meany","user-id":167746.0,"longitude":-71.062439,"id":"a63uygfnpb8o","state":"Massachusetts"},"type":"Feature","geometry":{"type":"Point","coordinates":[-71.062439,42.37169]}},{"properties":{"city":"Chico","isbn":345361792.0,"latitude":39.73201,"book-rating":10.0,"title":"A Prayer for Owen Meany","user-id":169368.0,"longitude":-121.841985,"id":"a63uyghgm9yb","state":"California"},"type":"Feature","geometry":{"type":"Point","coordinates":[-121.841985,39.73201]}},{"properties":{"city":"Duncanville","isbn":345361792.0,"latitude":32.646095,"book-rating":9.0,"title":"A Prayer for Owen Meany","user-id":169770.0,"longitude":-96.905416,"id":"a63uygcrlkpk","state":"Texas"},"type":"Feature","geometry":{"type":"Point","coordinates":[-96.905416,32.646095]}},{"properties":{"city":"Vancouver","isbn":345361792.0,"latitude":49.26044,"book-rating":8.0,"title":"A Prayer for Owen Meany","user-id":170372.0,"longitude":-123.114034,"id":"a63uyged1xfk","state":"British Columbia"},"type":"Feature","geometry":{"type":"Point","coordinates":[-123.114034,49.26044]}},{"properties":{"city":"Regensburg","isbn":345361792.0,"latitude":49.014615,"book-rating":9.0,"title":"A Prayer for Owen Meany","user-id":174982.0,"longitude":12.101695,"id":"a63uygftcvl3","state":"Bayern"},"type":"Feature","geometry":{"type":"Point","coordinates":[12.101695,49.014615]}},{"properties":{"city":"Newport Coast","isbn":345361792.0,"latitude":33.606443,"book-rating":10.0,"title":"A Prayer for Owen Meany","user-id":17588.0,"longitude":-117.828564,"id":"a63uygbl2fz3","state":null},"type":"Feature","geometry":{"type":"Point","coordinates":[-117.828564,33.606443]}},{"properties":{"city":"Little Falls","isbn":345361792.0,"latitude":43.04045,"book-rating":10.0,"title":"A Prayer for Owen Meany","user-id":179019.0,"longitude":-74.858869,"id":"a63uygb87a6z","state":"New York"},"type":"Feature","geometry":{"type":"Point","coordinates":[-74.858869,43.04045]}},{"properties":{"city":"St. Louis","isbn":345417976.0,"latitude":38.62774,"book-rating":6.0,"title":"A Prayer for Owen Meany (Ballantine Reader's Circle)","user-id":181176.0,"longitude":-90.199514,"id":"a63uyga0ce1k","state":"Missouri"},"type":"Feature","geometry":{"type":"Point","coordinates":[-90.199514,38.62774]}},{"properties":{"city":"Ithaca","isbn":345361792.0,"latitude":42.440495,"book-rating":10.0,"title":"A Prayer for Owen Meany","user-id":182442.0,"longitude":-76.495454,"id":"a63uygheswao","state":"New York"},"type":"Feature","geometry":{"type":"Point","coordinates":[-76.495454,42.440495]}},{"properties":{"city":"Houston","isbn":345361792.0,"latitude":29.76045,"book-rating":8.0,"title":"A Prayer for Owen Meany","user-id":183100.0,"longitude":-95.369784,"id":"a63uygh54zx1","state":"Texas"},"type":"Feature","geometry":{"type":"Point","coordinates":[-95.369784,29.76045]}},{"properties":{"city":"St Louis Park","isbn":345361792.0,"latitude":44.94848,"book-rating":9.0,"title":"A Prayer for Owen Meany","user-id":18317.0,"longitude":-93.343394,"id":"a63uygfloegb","state":"Minnesota"},"type":"Feature","geometry":{"type":"Point","coordinates":[-93.343394,44.94848]}},{"properties":{"city":"Austin","isbn":345361792.0,"latitude":30.267605,"book-rating":9.0,"title":"A Prayer for Owen Meany","user-id":187422.0,"longitude":-97.742984,"id":"a63uygnh1cmh","state":"Texas"},"type":"Feature","geometry":{"type":"Point","coordinates":[-97.742984,30.267605]}},{"properties":{"city":"Victoria","isbn":345361792.0,"latitude":48.428315,"book-rating":9.0,"title":"A Prayer for Owen Meany","user-id":189066.0,"longitude":-123.364514,"id":"a63uyg9glost","state":"British Columbia"},"type":"Feature","geometry":{"type":"Point","coordinates":[-123.364514,48.428315]}},{"properties":{"city":"Honolulu","isbn":679642595.0,"latitude":21.30477,"book-rating":5.0,"title":"A Prayer for Owen Meany (Modern Library)","user-id":189835.0,"longitude":-157.857614,"id":"a63uygjsuv96","state":"Hawaii"},"type":"Feature","geometry":{"type":"Point","coordinates":[-157.857614,21.30477]}},{"properties":{"city":"Calgary","isbn":345361792.0,"latitude":51.04522,"book-rating":6.0,"title":"A Prayer for Owen Meany","user-id":190831.0,"longitude":-114.063014,"id":"a63uygcpmsio","state":"Alberta"},"type":"Feature","geometry":{"type":"Point","coordinates":[-114.063014,51.04522]}},{"properties":{"city":"Aurora","isbn":345361792.0,"latitude":39.708709,"book-rating":10.0,"title":"A Prayer for Owen Meany","user-id":190933.0,"longitude":-104.812649,"id":"a63uygf3kayj","state":"Colorado"},"type":"Feature","geometry":{"type":"Point","coordinates":[-104.812649,39.708709]}},{"properties":{"city":"Chicago","isbn":345361792.0,"latitude":41.88415,"book-rating":5.0,"title":"A Prayer for Owen Meany","user-id":191014.0,"longitude":-87.632409,"id":"a63uygacnxt0","state":"Illinois"},"type":"Feature","geometry":{"type":"Point","coordinates":[-87.632409,41.88415]}},{"properties":{"city":"Seattle","isbn":345361792.0,"latitude":47.60356,"book-rating":8.0,"title":"A Prayer for Owen Meany","user-id":192644.0,"longitude":-122.329439,"id":"a63uygcqizyn","state":"Washington"},"type":"Feature","geometry":{"type":"Point","coordinates":[-122.329439,47.60356]}},{"properties":{"city":"Houston","isbn":345361792.0,"latitude":29.76045,"book-rating":10.0,"title":"A Prayer for Owen Meany","user-id":192727.0,"longitude":-95.369784,"id":"a63uyga5y6v6","state":"Texas"},"type":"Feature","geometry":{"type":"Point","coordinates":[-95.369784,29.76045]}},{"properties":{"city":"Toronto","isbn":345361792.0,"latitude":43.648565,"book-rating":10.0,"title":"A Prayer for Owen Meany","user-id":193458.0,"longitude":-79.385329,"id":"a63uyggiv3dt","state":"Ontario"},"type":"Feature","geometry":{"type":"Point","coordinates":[-79.385329,43.648565]}},{"properties":{"city":"South Ogden","isbn":345361792.0,"latitude":41.19184,"book-rating":9.0,"title":"A Prayer for Owen Meany","user-id":193723.0,"longitude":-111.966914,"id":"a63uyggoxozd","state":"Utah"},"type":"Feature","geometry":{"type":"Point","coordinates":[-111.966914,41.19184]}},{"properties":{"city":"Pittsburgh","isbn":345361792.0,"latitude":40.438315,"book-rating":8.0,"title":"A Prayer for Owen Meany","user-id":196053.0,"longitude":-79.997449,"id":"a63uygjlcuek","state":"Pennsylvania"},"type":"Feature","geometry":{"type":"Point","coordinates":[-79.997449,40.438315]}},{"properties":{"city":"Toronto","isbn":345361792.0,"latitude":43.648565,"book-rating":8.0,"title":"A Prayer for Owen Meany","user-id":196775.0,"longitude":-79.385329,"id":"a63uygmqb0jz","state":"Ontario"},"type":"Feature","geometry":{"type":"Point","coordinates":[-79.385329,43.648565]}},{"properties":{"city":"Albuquerque","isbn":345361792.0,"latitude":35.08418,"book-rating":6.0,"title":"A Prayer for Owen Meany","user-id":20005.0,"longitude":-106.648639,"id":"a63uyg9yox0l","state":"New Mexico"},"type":"Feature","geometry":{"type":"Point","coordinates":[-106.648639,35.08418]}},{"properties":{"city":"Morgan City","isbn":345361792.0,"latitude":29.701243,"book-rating":8.0,"title":"A Prayer for Owen Meany","user-id":201445.0,"longitude":-91.202921,"id":"a63uygodieai","state":"Louisiana"},"type":"Feature","geometry":{"type":"Point","coordinates":[-91.202921,29.701243]}},{"properties":{"city":"Marlborough","isbn":345361792.0,"latitude":42.346806,"book-rating":10.0,"title":"A Prayer for Owen Meany","user-id":20150.0,"longitude":-71.547991,"id":"a63uygaso1sk","state":"Massachusetts"},"type":"Feature","geometry":{"type":"Point","coordinates":[-71.547991,42.346806]}},{"properties":{"city":"Simi Valley","isbn":345361792.0,"latitude":34.28946,"book-rating":9.0,"title":"A Prayer for Owen Meany","user-id":204864.0,"longitude":-118.717659,"id":"a63uygmbjkps","state":"California"},"type":"Feature","geometry":{"type":"Point","coordinates":[-118.717659,34.28946]}},{"properties":{"city":"San Diego","isbn":345361792.0,"latitude":32.715685,"book-rating":9.0,"title":"A Prayer for Owen Meany","user-id":205772.0,"longitude":-117.161724,"id":"a63uygokdeww","state":"California"},"type":"Feature","geometry":{"type":"Point","coordinates":[-117.161724,32.715685]}},{"properties":{"city":"Tucson","isbn":345361792.0,"latitude":32.221553,"book-rating":10.0,"title":"A Prayer for Owen Meany","user-id":206107.0,"longitude":-110.969754,"id":"a63uygn0mumf","state":null},"type":"Feature","geometry":{"type":"Point","coordinates":[-110.969754,32.221553]}},{"properties":{"city":"San Francisco","isbn":345417976.0,"latitude":37.7796,"book-rating":9.0,"title":"A Prayer for Owen Meany (Ballantine Reader's Circle)","user-id":21011.0,"longitude":-122.420139,"id":"a63uyglihdtq","state":"California"},"type":"Feature","geometry":{"type":"Point","coordinates":[-122.420139,37.7796]}},{"properties":{"city":"Glen Ellyn","isbn":345361792.0,"latitude":41.875465,"book-rating":8.0,"title":"A Prayer for Owen Meany","user-id":211770.0,"longitude":-88.065729,"id":"a63uygg1b7gi","state":"Illinois"},"type":"Feature","geometry":{"type":"Point","coordinates":[-88.065729,41.875465]}},{"properties":{"city":"Minneapolis","isbn":345361792.0,"latitude":44.979035,"book-rating":10.0,"title":"A Prayer for Owen Meany","user-id":212923.0,"longitude":-93.264929,"id":"a63uygh2ir7o","state":"Minnesota"},"type":"Feature","geometry":{"type":"Point","coordinates":[-93.264929,44.979035]}},{"properties":{"city":"Sandpoint","isbn":345361792.0,"latitude":48.272995,"book-rating":10.0,"title":"A Prayer for Owen Meany","user-id":213537.0,"longitude":-116.547789,"id":"a63uygdvdurs","state":"Idaho"},"type":"Feature","geometry":{"type":"Point","coordinates":[-116.547789,48.272995]}},{"properties":{"city":"Spartanburg","isbn":345361792.0,"latitude":34.948255,"book-rating":9.0,"title":"A Prayer for Owen Meany","user-id":218608.0,"longitude":-81.934869,"id":"a63uygnrf0s4","state":"South Carolina"},"type":"Feature","geometry":{"type":"Point","coordinates":[-81.934869,34.948255]}},{"properties":{"city":"Marshfield","isbn":345361792.0,"latitude":42.091211,"book-rating":8.0,"title":"A Prayer for Owen Meany","user-id":219321.0,"longitude":-70.710402,"id":"a63uyggywp3t","state":"Massachusetts"},"type":"Feature","geometry":{"type":"Point","coordinates":[-70.710402,42.091211]}},{"properties":{"city":"Toronto","isbn":345361792.0,"latitude":43.648565,"book-rating":5.0,"title":"A Prayer for Owen Meany","user-id":220597.0,"longitude":-79.385329,"id":"a63uygcrn18e","state":"Ontario"},"type":"Feature","geometry":{"type":"Point","coordinates":[-79.385329,43.648565]}},{"properties":{"city":"Anaheim","isbn":345361792.0,"latitude":33.83276,"book-rating":6.0,"title":"A Prayer for Owen Meany","user-id":221537.0,"longitude":-117.915719,"id":"a63uyg9c78ys","state":"California"},"type":"Feature","geometry":{"type":"Point","coordinates":[-117.915719,33.83276]}},{"properties":{"city":"Lexington","isbn":345361792.0,"latitude":38.048595,"book-rating":8.0,"title":"A Prayer for Owen Meany","user-id":223528.0,"longitude":-84.500319,"id":"a63uygjghdcn","state":"Kentucky"},"type":"Feature","geometry":{"type":"Point","coordinates":[-84.500319,38.048595]}},{"properties":{"city":"Newmarket","isbn":345361792.0,"latitude":44.04018,"book-rating":5.0,"title":"A Prayer for Owen Meany","user-id":223644.0,"longitude":-79.458574,"id":"a63uygd7zypr","state":"Ontario"},"type":"Feature","geometry":{"type":"Point","coordinates":[-79.458574,44.04018]}},{"properties":{"city":"Bethlehem","isbn":345361792.0,"latitude":44.27928,"book-rating":8.0,"title":"A Prayer for Owen Meany","user-id":227146.0,"longitude":-71.687568,"id":"a63uygl911df","state":"New Hampshire"},"type":"Feature","geometry":{"type":"Point","coordinates":[-71.687568,44.27928]}},{"properties":{"city":"Saskatoon","isbn":345361792.0,"latitude":52.130505,"book-rating":9.0,"title":"A Prayer for Owen Meany","user-id":227275.0,"longitude":-106.659314,"id":"a63uygob879v","state":"Saskatchewan"},"type":"Feature","geometry":{"type":"Point","coordinates":[-106.659314,52.130505]}},{"properties":{"city":"Chicago","isbn":345361792.0,"latitude":41.88415,"book-rating":10.0,"title":"A Prayer for Owen Meany","user-id":227282.0,"longitude":-87.632409,"id":"a63uygonl6xs","state":"Illinois"},"type":"Feature","geometry":{"type":"Point","coordinates":[-87.632409,41.88415]}},{"properties":{"city":"Gaithersburg","isbn":345361792.0,"latitude":39.139866,"book-rating":5.0,"title":"A Prayer for Owen Meany","user-id":227855.0,"longitude":-77.193829,"id":"a63uygnl9a5h","state":"Maryland"},"type":"Feature","geometry":{"type":"Point","coordinates":[-77.193829,39.139866]}},{"properties":{"city":"At Sea","isbn":345361792.0,"latitude":47.441261,"book-rating":9.0,"title":"A Prayer for Owen Meany","user-id":231875.0,"longitude":-122.296112,"id":"a63uygozz01n","state":"N/A"},"type":"Feature","geometry":{"type":"Point","coordinates":[-122.296112,47.441261]}},{"properties":{"city":"Oakland","isbn":345361792.0,"latitude":37.805065,"book-rating":9.0,"title":"A Prayer for Owen Meany","user-id":232131.0,"longitude":-122.273024,"id":"a63uygow9jyi","state":"California"},"type":"Feature","geometry":{"type":"Point","coordinates":[-122.273024,37.805065]}},{"properties":{"city":"Littleton","isbn":345361792.0,"latitude":42.538175,"book-rating":10.0,"title":"A Prayer for Owen Meany","user-id":23280.0,"longitude":-71.484071,"id":"a63uygkuz3gh","state":"Massachusetts"},"type":"Feature","geometry":{"type":"Point","coordinates":[-71.484071,42.538175]}},{"properties":{"city":"Evergreen","isbn":345361792.0,"latitude":39.632848,"book-rating":9.0,"title":"A Prayer for Owen Meany","user-id":237308.0,"longitude":-105.319435,"id":"a63uygc7lf4l","state":"Colorado"},"type":"Feature","geometry":{"type":"Point","coordinates":[-105.319435,39.632848]}},{"properties":{"city":"Forest Hills","isbn":345361792.0,"latitude":40.722736,"book-rating":10.0,"title":"A Prayer for Owen Meany","user-id":237535.0,"longitude":-73.847969,"id":"a63uygboov6h","state":"New York"},"type":"Feature","geometry":{"type":"Point","coordinates":[-73.847969,40.722736]}},{"properties":{"city":"Allendale","isbn":345361792.0,"latitude":42.972425,"book-rating":7.0,"title":"A Prayer for Owen Meany","user-id":237559.0,"longitude":-85.951239,"id":"a63uygo56w75","state":"Michigan"},"type":"Feature","geometry":{"type":"Point","coordinates":[-85.951239,42.972425]}},{"properties":{"city":"Thousand Palms","isbn":345361792.0,"latitude":33.8164,"book-rating":7.0,"title":"A Prayer for Owen Meany","user-id":237868.0,"longitude":-116.386874,"id":"a63uygf9z2c7","state":"California"},"type":"Feature","geometry":{"type":"Point","coordinates":[-116.386874,33.8164]}},{"properties":{"city":"Warminster","isbn":345417976.0,"latitude":40.205459,"book-rating":9.0,"title":"A Prayer for Owen Meany (Ballantine Reader's Circle)","user-id":238015.0,"longitude":-75.100077,"id":"a63uygjqmbr8","state":"Pennsylvania"},"type":"Feature","geometry":{"type":"Point","coordinates":[-75.100077,40.205459]}},{"properties":{"city":"Toronto","isbn":345361792.0,"latitude":43.648565,"book-rating":9.0,"title":"A Prayer for Owen Meany","user-id":238456.0,"longitude":-79.385329,"id":"a63uygigevsn","state":"Ontario"},"type":"Feature","geometry":{"type":"Point","coordinates":[-79.385329,43.648565]}},{"properties":{"city":"Bakersfield","isbn":345361792.0,"latitude":35.36697,"book-rating":8.0,"title":"A Prayer for Owen Meany","user-id":238639.0,"longitude":-119.018863,"id":"a63uyggbbirz","state":"California"},"type":"Feature","geometry":{"type":"Point","coordinates":[-119.018863,35.36697]}},{"properties":{"city":"Tulsa","isbn":345361792.0,"latitude":36.149745,"book-rating":6.0,"title":"A Prayer for Owen Meany","user-id":23872.0,"longitude":-95.993334,"id":"a63uygbsfx0p","state":"Oklahoma"},"type":"Feature","geometry":{"type":"Point","coordinates":[-95.993334,36.149745]}},{"properties":{"city":"London","isbn":345361792.0,"latitude":51.506325,"book-rating":10.0,"title":"A Prayer for Owen Meany","user-id":23902.0,"longitude":-0.127144,"id":"a63uygi3hky6","state":"England"},"type":"Feature","geometry":{"type":"Point","coordinates":[-0.127144,51.506325]}},{"properties":{"city":"Gilroy","isbn":345361792.0,"latitude":37.004385,"book-rating":10.0,"title":"A Prayer for Owen Meany","user-id":239584.0,"longitude":-121.571669,"id":"a63uygnwym8b","state":"California"},"type":"Feature","geometry":{"type":"Point","coordinates":[-121.571669,37.004385]}},{"properties":{"city":"Leuven","isbn":345361792.0,"latitude":50.879379,"book-rating":8.0,"title":"A Prayer for Owen Meany","user-id":239594.0,"longitude":4.70367,"id":"a63uygm6aixh","state":"Vlaams-Brabant"},"type":"Feature","geometry":{"type":"Point","coordinates":[4.70367,50.879379]}},{"properties":{"city":"Deventer","isbn":345361792.0,"latitude":52.25103,"book-rating":9.0,"title":"A Prayer for Owen Meany","user-id":24433.0,"longitude":6.15989,"id":"a63uyggtcq87","state":"Overijssel"},"type":"Feature","geometry":{"type":"Point","coordinates":[6.15989,52.25103]}},{"properties":{"city":"Puchong","isbn":345361792.0,"latitude":3.04953,"book-rating":5.0,"title":"A Prayer for Owen Meany","user-id":245295.0,"longitude":101.624542,"id":"a63uygdbptu3","state":"Selangor"},"type":"Feature","geometry":{"type":"Point","coordinates":[101.624542,3.04953]}},{"properties":{"city":"Kuching","isbn":345361792.0,"latitude":1.520195,"book-rating":8.0,"title":"A Prayer for Owen Meany","user-id":247129.0,"longitude":110.35366,"id":"a63uygajvbnc","state":"Sarawak"},"type":"Feature","geometry":{"type":"Point","coordinates":[110.35366,1.520195]}},{"properties":{"city":"Hartford","isbn":345361792.0,"latitude":41.763325,"book-rating":9.0,"title":"A Prayer for Owen Meany","user-id":248280.0,"longitude":-72.674069,"id":"a63uygicy3ha","state":"Connecticut"},"type":"Feature","geometry":{"type":"Point","coordinates":[-72.674069,41.763325]}},{"properties":{"city":"Portland","isbn":345361792.0,"latitude":45.511795,"book-rating":6.0,"title":"A Prayer for Owen Meany","user-id":248464.0,"longitude":-122.675629,"id":"a63uygfi9qao","state":"Oregon"},"type":"Feature","geometry":{"type":"Point","coordinates":[-122.675629,45.511795]}},{"properties":{"city":"East Boston","isbn":345361792.0,"latitude":42.37846,"book-rating":10.0,"title":"A Prayer for Owen Meany","user-id":250249.0,"longitude":-71.028814,"id":"a63uygh585nk","state":"Massachusetts"},"type":"Feature","geometry":{"type":"Point","coordinates":[-71.028814,42.37846]}},{"properties":{"city":"Ashland","isbn":345361792.0,"latitude":38.480685,"book-rating":10.0,"title":"A Prayer for Owen Meany","user-id":26374.0,"longitude":-82.643574,"id":"a63uygic5umb","state":"Kentucky"},"type":"Feature","geometry":{"type":"Point","coordinates":[-82.643574,38.480685]}},{"properties":{"city":"Milan","isbn":345361792.0,"latitude":45.468941,"book-rating":8.0,"title":"A Prayer for Owen Meany","user-id":2996.0,"longitude":9.18103,"id":"a63uygjdpd3p","state":"Lombardia"},"type":"Feature","geometry":{"type":"Point","coordinates":[9.18103,45.468941]}},{"properties":{"city":"Downingtown","isbn":345361792.0,"latitude":40.004545,"book-rating":9.0,"title":"A Prayer for Owen Meany","user-id":30414.0,"longitude":-75.707144,"id":"a63uygl6xh8z","state":"Pennsylvania"},"type":"Feature","geometry":{"type":"Point","coordinates":[-75.707144,40.004545]}},{"properties":{"city":"Lima","isbn":345361792.0,"latitude":40.742695,"book-rating":7.0,"title":"A Prayer for Owen Meany","user-id":30925.0,"longitude":-84.107294,"id":"a63uygdf7r73","state":"Ohio"},"type":"Feature","geometry":{"type":"Point","coordinates":[-84.107294,40.742695]}},{"properties":{"city":"Portland","isbn":345361792.0,"latitude":45.511795,"book-rating":10.0,"title":"A Prayer for Owen Meany","user-id":31393.0,"longitude":-122.675629,"id":"a63uyg9qqzgx","state":"Oregon"},"type":"Feature","geometry":{"type":"Point","coordinates":[-122.675629,45.511795]}},{"properties":{"city":"Mesa","isbn":345361792.0,"latitude":33.417045,"book-rating":10.0,"title":"A Prayer for Owen Meany","user-id":31688.0,"longitude":-111.831459,"id":"a63uygodilc6","state":"Arizona"},"type":"Feature","geometry":{"type":"Point","coordinates":[-111.831459,33.417045]}},{"properties":{"city":"West Linn","isbn":345361792.0,"latitude":45.365991,"book-rating":10.0,"title":"A Prayer for Owen Meany","user-id":34588.0,"longitude":-122.647893,"id":"a63uyghin7ht","state":"Oregon"},"type":"Feature","geometry":{"type":"Point","coordinates":[-122.647893,45.365991]}},{"properties":{"city":"New York","isbn":345361792.0,"latitude":40.71455,"book-rating":10.0,"title":"A Prayer for Owen Meany","user-id":34592.0,"longitude":-74.007124,"id":"a63uyge0iepn","state":"New York"},"type":"Feature","geometry":{"type":"Point","coordinates":[-74.007124,40.71455]}},{"properties":{"city":"Dunnville","isbn":345417976.0,"latitude":42.904362,"book-rating":10.0,"title":"A Prayer for Owen Meany (Ballantine Reader's Circle)","user-id":36907.0,"longitude":-79.619873,"id":"a63uygejo0hs","state":"Ontario"},"type":"Feature","geometry":{"type":"Point","coordinates":[-79.619873,42.904362]}},{"properties":{"city":"Hamilton","isbn":345361792.0,"latitude":39.40008,"book-rating":10.0,"title":"A Prayer for Owen Meany","user-id":37227.0,"longitude":-84.562644,"id":"a63uygppa7pb","state":"Ohio"},"type":"Feature","geometry":{"type":"Point","coordinates":[-84.562644,39.40008]}},{"properties":{"city":"Americus","isbn":345361792.0,"latitude":32.07274,"book-rating":9.0,"title":"A Prayer for Owen Meany","user-id":37310.0,"longitude":-84.232564,"id":"a63uygftwrx3","state":"Georgia"},"type":"Feature","geometry":{"type":"Point","coordinates":[-84.232564,32.07274]}},{"properties":{"city":"Tulsa","isbn":345361792.0,"latitude":36.149745,"book-rating":9.0,"title":"A Prayer for Owen Meany","user-id":37512.0,"longitude":-95.993334,"id":"a63uygadpcir","state":"Oklahoma"},"type":"Feature","geometry":{"type":"Point","coordinates":[-95.993334,36.149745]}},{"properties":{"city":"Niskayuna","isbn":345361792.0,"latitude":42.779259,"book-rating":10.0,"title":"A Prayer for Owen Meany","user-id":39116.0,"longitude":-73.846191,"id":"a63uygk18s7i","state":"New York"},"type":"Feature","geometry":{"type":"Point","coordinates":[-73.846191,42.779259]}},{"properties":{"city":"Fennville","isbn":345361792.0,"latitude":42.594295,"book-rating":10.0,"title":"A Prayer for Owen Meany","user-id":42574.0,"longitude":-86.098059,"id":"a63uygllar5z","state":"Michigan"},"type":"Feature","geometry":{"type":"Point","coordinates":[-86.098059,42.594295]}},{"properties":{"city":"Tucson","isbn":345361792.0,"latitude":32.221553,"book-rating":10.0,"title":"A Prayer for Owen Meany","user-id":43842.0,"longitude":-110.969754,"id":"a63uygcg1esd","state":null},"type":"Feature","geometry":{"type":"Point","coordinates":[-110.969754,32.221553]}},{"properties":{"city":"Cayce","isbn":345361792.0,"latitude":33.9702,"book-rating":9.0,"title":"A Prayer for Owen Meany","user-id":45704.0,"longitude":-81.064194,"id":"a63uyg9svd7w","state":"South Carolina"},"type":"Feature","geometry":{"type":"Point","coordinates":[-81.064194,33.9702]}},{"properties":{"city":"Selden","isbn":345361792.0,"latitude":40.86663,"book-rating":9.0,"title":"A Prayer for Owen Meany","user-id":46291.0,"longitude":-73.034744,"id":"a63uyggp2f58","state":"New York"},"type":"Feature","geometry":{"type":"Point","coordinates":[-73.034744,40.86663]}},{"properties":{"city":"San Antonio","isbn":345361792.0,"latitude":29.42449,"book-rating":10.0,"title":"A Prayer for Owen Meany","user-id":46398.0,"longitude":-98.494624,"id":"a63uyg9i84of","state":"Texas"},"type":"Feature","geometry":{"type":"Point","coordinates":[-98.494624,29.42449]}},{"properties":{"city":"Seattle","isbn":345361792.0,"latitude":47.60356,"book-rating":5.0,"title":"A Prayer for Owen Meany","user-id":46472.0,"longitude":-122.329439,"id":"a63uygftfe93","state":"Washington"},"type":"Feature","geometry":{"type":"Point","coordinates":[-122.329439,47.60356]}},{"properties":{"city":"Point Clear","isbn":345363523.0,"latitude":30.473009,"book-rating":10.0,"title":"A Prayer for Owen Meany","user-id":47250.0,"longitude":-87.918457,"id":"a63uyggnvlu7","state":"Alabama"},"type":"Feature","geometry":{"type":"Point","coordinates":[-87.918457,30.473009]}},{"properties":{"city":"Boston","isbn":345361792.0,"latitude":42.358635,"book-rating":10.0,"title":"A Prayer for Owen Meany","user-id":49392.0,"longitude":-71.056699,"id":"a63uyg9oegy7","state":"Massachusetts"},"type":"Feature","geometry":{"type":"Point","coordinates":[-71.056699,42.358635]}},{"properties":{"city":"Milton","isbn":345361792.0,"latitude":43.511035,"book-rating":7.0,"title":"A Prayer for Owen Meany","user-id":51094.0,"longitude":-79.883889,"id":"a63uygl9794r","state":"Ontario"},"type":"Feature","geometry":{"type":"Point","coordinates":[-79.883889,43.511035]}},{"properties":{"city":"Buffalo","isbn":345361792.0,"latitude":42.88544,"book-rating":8.0,"title":"A Prayer for Owen Meany","user-id":52189.0,"longitude":-78.878464,"id":"a63uyg9p8qdt","state":"New York"},"type":"Feature","geometry":{"type":"Point","coordinates":[-78.878464,42.88544]}},{"properties":{"city":"Thalwil","isbn":345361792.0,"latitude":47.294731,"book-rating":9.0,"title":"A Prayer for Owen Meany","user-id":53590.0,"longitude":8.5647,"id":"a63uygndzgb6","state":"Zurich"},"type":"Feature","geometry":{"type":"Point","coordinates":[8.5647,47.294731]}},{"properties":{"city":"Erie","isbn":345361792.0,"latitude":42.129445,"book-rating":10.0,"title":"A Prayer for Owen Meany","user-id":55757.0,"longitude":-80.085239,"id":"a63uygm4k1id","state":"Pennsylvania"},"type":"Feature","geometry":{"type":"Point","coordinates":[-80.085239,42.129445]}},{"properties":{"city":"Scarborough","isbn":345361792.0,"latitude":43.772228,"book-rating":10.0,"title":"A Prayer for Owen Meany","user-id":55799.0,"longitude":-79.25666,"id":"a63uygjejgp1","state":"Ontario"},"type":"Feature","geometry":{"type":"Point","coordinates":[-79.25666,43.772228]}},{"properties":{"city":"N/A","isbn":345361792.0,"latitude":48.231575,"book-rating":9.0,"title":"A Prayer for Owen Meany","user-id":56399.0,"longitude":-101.134114,"id":"a63uygj2b7wt","state":"Surrey"},"type":"Feature","geometry":{"type":"Point","coordinates":[-101.134114,48.231575]}},{"properties":{"city":"Southbridge","isbn":345361792.0,"latitude":-43.81152,"book-rating":10.0,"title":"A Prayer for Owen Meany","user-id":56804.0,"longitude":172.252686,"id":"a63uygp4n293","state":"Canterbury"},"type":"Feature","geometry":{"type":"Point","coordinates":[172.252686,-43.81152]}},{"properties":{"city":"Littleton","isbn":345361792.0,"latitude":39.616905,"book-rating":10.0,"title":"A Prayer for Owen Meany","user-id":61571.0,"longitude":-105.014519,"id":"a63uyglq3c08","state":"Colorado"},"type":"Feature","geometry":{"type":"Point","coordinates":[-105.014519,39.616905]}},{"properties":{"city":"Silsden","isbn":345361792.0,"latitude":37.664295,"book-rating":8.0,"title":"A Prayer for Owen Meany","user-id":6238.0,"longitude":-96.638864,"id":"a63uygjxdl54","state":"Keighley"},"type":"Feature","geometry":{"type":"Point","coordinates":[-96.638864,37.664295]}},{"properties":{"city":"Chesterfield","isbn":345417976.0,"latitude":53.24288,"book-rating":9.0,"title":"A Prayer for Owen Meany (Ballantine Reader's Circle)","user-id":62895.0,"longitude":-1.435319,"id":"a63uygk2jbyc","state":"Derbyshire"},"type":"Feature","geometry":{"type":"Point","coordinates":[-1.435319,53.24288]}},{"properties":{"city":"San Ramon","isbn":345361792.0,"latitude":37.776864,"book-rating":8.0,"title":"A Prayer for Owen Meany","user-id":64436.0,"longitude":-121.967299,"id":"a63uygm8j9hf","state":"California"},"type":"Feature","geometry":{"type":"Point","coordinates":[-121.967299,37.776864]}},{"properties":{"city":"Bodega Bay","isbn":345361792.0,"latitude":38.336324,"book-rating":6.0,"title":"A Prayer for Owen Meany","user-id":65218.0,"longitude":-123.04642,"id":"a63uygjacq4j","state":"California"},"type":"Feature","geometry":{"type":"Point","coordinates":[-123.04642,38.336324]}},{"properties":{"city":"White Bear Lake","isbn":345361792.0,"latitude":45.082699,"book-rating":7.0,"title":"A Prayer for Owen Meany","user-id":66455.0,"longitude":-93.012316,"id":"a63uygp27tkf","state":"Minnesota"},"type":"Feature","geometry":{"type":"Point","coordinates":[-93.012316,45.082699]}},{"properties":{"city":"Brooklyn","isbn":345361792.0,"latitude":40.692455,"book-rating":8.0,"title":"A Prayer for Owen Meany","user-id":68156.0,"longitude":-73.990364,"id":"a63uygbci6c0","state":"New York"},"type":"Feature","geometry":{"type":"Point","coordinates":[-73.990364,40.692455]}},{"properties":{"city":"Philadelphia","isbn":345361792.0,"latitude":39.95227,"book-rating":9.0,"title":"A Prayer for Owen Meany","user-id":69684.0,"longitude":-75.162369,"id":"a63uyg9y9j3f","state":"Pennsylvania"},"type":"Feature","geometry":{"type":"Point","coordinates":[-75.162369,39.95227]}},{"properties":{"city":"Lawrenceville","isbn":345361792.0,"latitude":40.298431,"book-rating":5.0,"title":"A Prayer for Owen Meany","user-id":70318.0,"longitude":-74.728897,"id":"a63uyg9hhl5n","state":"New Jersey"},"type":"Feature","geometry":{"type":"Point","coordinates":[-74.728897,40.298431]}},{"properties":{"city":"New York","isbn":345417976.0,"latitude":40.71455,"book-rating":8.0,"title":"A Prayer for Owen Meany (Ballantine Reader's Circle)","user-id":72100.0,"longitude":-74.007124,"id":"a63uygk4iv10","state":"New York"},"type":"Feature","geometry":{"type":"Point","coordinates":[-74.007124,40.71455]}},{"properties":{"city":"Sudbury","isbn":345361792.0,"latitude":46.490002,"book-rating":8.0,"title":"A Prayer for Owen Meany","user-id":73044.0,"longitude":-80.990013,"id":"a63uygcib1it","state":"Ontario"},"type":"Feature","geometry":{"type":"Point","coordinates":[-80.990013,46.490002]}},{"properties":{"city":"Sunnyvale","isbn":345361792.0,"latitude":37.371612,"book-rating":9.0,"title":"A Prayer for Owen Meany","user-id":7346.0,"longitude":-122.038258,"id":"a63uygokpus8","state":"California"},"type":"Feature","geometry":{"type":"Point","coordinates":[-122.038258,37.371612]}},{"properties":{"city":"Occidental","isbn":345361792.0,"latitude":38.40711,"book-rating":10.0,"title":"A Prayer for Owen Meany","user-id":74235.0,"longitude":-122.947529,"id":"a63uygmhgdan","state":"California"},"type":"Feature","geometry":{"type":"Point","coordinates":[-122.947529,38.40711]}},{"properties":{"city":"Cordova","isbn":345361792.0,"latitude":35.155885,"book-rating":8.0,"title":"A Prayer for Owen Meany","user-id":74595.0,"longitude":-89.776917,"id":"a63uyg9az6sb","state":"Tennessee"},"type":"Feature","geometry":{"type":"Point","coordinates":[-89.776917,35.155885]}},{"properties":{"city":"Gig Harbor","isbn":345361792.0,"latitude":47.328,"book-rating":8.0,"title":"A Prayer for Owen Meany","user-id":77480.0,"longitude":-122.580369,"id":"a63uyggrusxj","state":"Washington"},"type":"Feature","geometry":{"type":"Point","coordinates":[-122.580369,47.328]}},{"properties":{"city":"Washington","isbn":345361792.0,"latitude":38.89037,"book-rating":10.0,"title":"A Prayer for Owen Meany","user-id":77491.0,"longitude":-77.031959,"id":"a63uygmkw4z1","state":"Dc"},"type":"Feature","geometry":{"type":"Point","coordinates":[-77.031959,38.89037]}},{"properties":{"city":"Enfield","isbn":345361792.0,"latitude":41.999747,"book-rating":10.0,"title":"A Prayer for Owen Meany","user-id":78015.0,"longitude":-72.594185,"id":"a63uyghxegfn","state":"Connecticut"},"type":"Feature","geometry":{"type":"Point","coordinates":[-72.594185,41.999747]}},{"properties":{"city":"Klang","isbn":345361792.0,"latitude":2.99042,"book-rating":7.0,"title":"A Prayer for Owen Meany","user-id":7864.0,"longitude":101.48481,"id":"a63uygn79s2n","state":"Selangor"},"type":"Feature","geometry":{"type":"Point","coordinates":[101.48481,2.99042]}},{"properties":{"city":"Olympia","isbn":345361792.0,"latitude":47.039225,"book-rating":10.0,"title":"A Prayer for Owen Meany","user-id":80203.0,"longitude":-122.891429,"id":"a63uygpba7ar","state":"Wa"},"type":"Feature","geometry":{"type":"Point","coordinates":[-122.891429,47.039225]}},{"properties":{"city":"Portland","isbn":345361792.0,"latitude":45.511795,"book-rating":7.0,"title":"A Prayer for Owen Meany","user-id":80621.0,"longitude":-122.675629,"id":"a63uyggbfe0a","state":"Oregon"},"type":"Feature","geometry":{"type":"Point","coordinates":[-122.675629,45.511795]}},{"properties":{"city":"Middleburg","isbn":345361792.0,"latitude":38.9695,"book-rating":10.0,"title":"A Prayer for Owen Meany","user-id":80826.0,"longitude":-77.736574,"id":"a63uygby6brf","state":"Virginia"},"type":"Feature","geometry":{"type":"Point","coordinates":[-77.736574,38.9695]}},{"properties":{"city":"Easley","isbn":345361792.0,"latitude":34.83089,"book-rating":10.0,"title":"A Prayer for Owen Meany","user-id":85865.0,"longitude":-82.600394,"id":"a63uygi8su7d","state":"South Carolina"},"type":"Feature","geometry":{"type":"Point","coordinates":[-82.600394,34.83089]}},{"properties":{"city":"Hoboken","isbn":345361792.0,"latitude":40.737165,"book-rating":8.0,"title":"A Prayer for Owen Meany","user-id":87351.0,"longitude":-74.030969,"id":"a63uygbqp2fc","state":"New Jersey"},"type":"Feature","geometry":{"type":"Point","coordinates":[-74.030969,40.737165]}},{"properties":{"city":"Toronto","isbn":345361792.0,"latitude":43.648565,"book-rating":10.0,"title":"A Prayer for Owen Meany","user-id":88412.0,"longitude":-79.385329,"id":"a63uyg9lnbp1","state":"Ontario"},"type":"Feature","geometry":{"type":"Point","coordinates":[-79.385329,43.648565]}},{"properties":{"city":"Honolulu","isbn":345361792.0,"latitude":21.30477,"book-rating":8.0,"title":"A Prayer for Owen Meany","user-id":89602.0,"longitude":-157.857614,"id":"a63uygd989hh","state":"Hawaii"},"type":"Feature","geometry":{"type":"Point","coordinates":[-157.857614,21.30477]}},{"properties":{"city":"Victoria","isbn":345361792.0,"latitude":48.428315,"book-rating":1.0,"title":"A Prayer for Owen Meany","user-id":90049.0,"longitude":-123.364514,"id":"a63uyggrpk6w","state":"British Columbia"},"type":"Feature","geometry":{"type":"Point","coordinates":[-123.364514,48.428315]}},{"properties":{"city":"Chicago","isbn":345361792.0,"latitude":41.88415,"book-rating":10.0,"title":"A Prayer for Owen Meany","user-id":91113.0,"longitude":-87.632409,"id":"a63uygdtf7o6","state":"Illinois"},"type":"Feature","geometry":{"type":"Point","coordinates":[-87.632409,41.88415]}},{"properties":{"city":"Sydney","isbn":345361792.0,"latitude":-33.869629,"book-rating":8.0,"title":"A Prayer for Owen Meany","user-id":92498.0,"longitude":151.206955,"id":"a63uyggj2hwl","state":"New South Wales"},"type":"Feature","geometry":{"type":"Point","coordinates":[151.206955,-33.869629]}},{"properties":{"city":"Halfmoon Bay","isbn":345361792.0,"latitude":49.51392,"book-rating":7.0,"title":"A Prayer for Owen Meany","user-id":93698.0,"longitude":-123.907211,"id":"a63uygciv4mx","state":"British Columbia"},"type":"Feature","geometry":{"type":"Point","coordinates":[-123.907211,49.51392]}},{"properties":{"city":"Charleston","isbn":345361792.0,"latitude":38.350195,"book-rating":10.0,"title":"A Prayer for Owen Meany","user-id":95359.0,"longitude":-81.638989,"id":"a63uyg9g13rg","state":"West Virginia"},"type":"Feature","geometry":{"type":"Point","coordinates":[-81.638989,38.350195]}},{"properties":{"city":"N/A","isbn":345361792.0,"latitude":54.498871,"book-rating":10.0,"title":"A Prayer for Owen Meany","user-id":97874.0,"longitude":-126.550713,"id":"a63uygo6qy3h","state":"British Columbia"},"type":"Feature","geometry":{"type":"Point","coordinates":[-126.550713,54.498871]}},{"properties":{"city":"Glendale","isbn":345361792.0,"latitude":39.699295,"book-rating":10.0,"title":"A Prayer for Owen Meany","user-id":9856.0,"longitude":-104.936449,"id":"a63uygi0kk24","state":"Colorado"},"type":"Feature","geometry":{"type":"Point","coordinates":[-104.936449,39.699295]}}],"is_temporal":false,"author":{"url":"http://www.informatik.uni-freiburg.de/~cziegler/BX/","metadata":"http://www.informatik.uni-freiburg.de/~cziegler/BX/","contact_name":"","contact_address":"","source":"Institut fr Informatik, Universitt Freiburg","contact_phone":""},"source":"http://www.informatik.uni-freiburg.de/~cziegler/BX/","pagination":{"sort":null,"start":0,"total":177,"limit":1000000},"state":"complete","tags":"bookcrossing,books,global,reviews","published":"2005-01-01T17:00:00Z","id":19862}