{"type":"FeatureCollection","data_type":"Dataset","url_type":null,"permissions":[{"permissions":{"download":true,"view":true},"group_id":"everyone"}],"classification":null,"title":"test","count":1825,"stream_id":19902,"contributor":{"url":"http://geocommons.com/users/9780","name":"elijah"},"data_attributes":null,"calculation_params":null,"icon_link":null,"link":"http://geocommons.com/overlays/19902.json","extent":[-74.0181,40.7022,-73.9166,40.8709],"geometry_types":["point"],"unique_name":null,"name":"test","feature_count":1825,"description":"test","next_feature":null,"is_raster":false,"short_classification":"Y","stats":{"latitude":{"max":40.870942,"mean":40.7672004936987,"variance":0.000896515352865228,"stdev":0.0299418662221517,"min":40.702235,"median":40.772136},"y coordinate":{"max":40.870942,"mean":40.7672004936987,"variance":0.000896515352865228,"stdev":0.0299418662221517,"min":40.702235,"median":40.772136},"donor's zipcode":{"max":10280.0,"mean":10026.1468493151,"variance":820.296405912045,"stdev":28.6408171306624,"min":10001.0,"median":10023.0},"x coordinate":{"max":-73.916562,"mean":-73.9762705731509,"variance":0.000339465568353338,"stdev":0.0184245914026156,"min":-74.018086,"median":-73.978129},"geocoding score":{"max":100.0,"mean":99.8695890410959,"variance":0.929255587599159,"stdev":0.963979038983296,"min":90.0,"median":100.0},"donation amount":{"max":65208.0,"mean":2079.26575342466,"variance":19018128.3980864,"stdev":4360.97791763343,"min":0.0,"median":810.0},"longitude":{"max":-73.916562,"mean":-73.9762705731509,"variance":0.000339465568353338,"stdev":0.0184245914026156,"min":-74.018086,"median":-73.978129}},"features":[{"properties":{"donor's last name":null,"latitude":40.813413,"donor's first name":null,"y coordinate":40.813413,"donor's state":"NY","donor's city":"New York","donor's zipcode":10027.0,"x coordinate":-73.958723,"donor's street address":"70 LaSalle St 19G","geocoding score":96.0,"donation amount":0.0,"longitude":-73.958723,"id":"a6dn0e19iyhi","donor's profession":null},"type":"Feature","geometry":{"type":"Point","coordinates":[-73.958723,40.813413]}},{"properties":{"donor's last name":null,"latitude":40.702235,"donor's first name":null,"y coordinate":40.702235,"donor's state":"NY","donor's city":"New York","donor's zipcode":10004.0,"x coordinate":-74.010581,"donor's street address":"125 Broad Street.","geocoding score":100.0,"donation amount":0.0,"longitude":-74.010581,"id":"a6dn0e7w5u0e","donor's profession":null},"type":"Feature","geometry":{"type":"Point","coordinates":[-74.010581,40.702235]}},{"properties":{"donor's last name":null,"latitude":40.745084,"donor's first name":null,"y coordinate":40.745084,"donor's state":"NY","donor's city":"New York","donor's zipcode":10016.0,"x coordinate":-73.981936,"donor's street address":"111 E. 31st St","geocoding score":100.0,"donation amount":0.0,"longitude":-73.981936,"id":"a6dn0e0h4pty","donor's profession":null},"type":"Feature","geometry":{"type":"Point","coordinates":[-73.981936,40.745084]}},{"properties":{"donor's last name":null,"latitude":40.781003,"donor's first name":null,"y coordinate":40.781003,"donor's state":"NY","donor's city":"New York","donor's zipcode":10023.0,"x coordinate":-73.982639,"donor's street address":"245 W. 74th Street #2C","geocoding score":100.0,"donation amount":0.0,"longitude":-73.982639,"id":"a6dn0e5yz1rz","donor's profession":null},"type":"Feature","geometry":{"type":"Point","coordinates":[-73.982639,40.781003]}},{"properties":{"donor's last name":null,"latitude":40.723283,"donor's first name":null,"y coordinate":40.723283,"donor's state":"NY","donor's city":"New York","donor's zipcode":10009.0,"x coordinate":-73.983162,"donor's street address":"234 E. 4th St. #15","geocoding score":100.0,"donation amount":0.0,"longitude":-73.983162,"id":"a6dn0dzl096q","donor's profession":null},"type":"Feature","geometry":{"type":"Point","coordinates":[-73.983162,40.723283]}},{"properties":{"donor's last name":null,"latitude":40.740441,"donor's first name":null,"y coordinate":40.740441,"donor's state":"NY","donor's city":"New York","donor's zipcode":10011.0,"x coordinate":-73.993376,"donor's street address":"40 W. 20th St.","geocoding score":100.0,"donation amount":0.0,"longitude":-73.993376,"id":"a6dn0dxmi97e","donor's profession":null},"type":"Feature","geometry":{"type":"Point","coordinates":[-73.993376,40.740441]}},{"properties":{"donor's last name":null,"latitude":40.813413,"donor's first name":null,"y coordinate":40.813413,"donor's state":"NY","donor's city":"NEW YORK","donor's zipcode":10027.0,"x coordinate":-73.958723,"donor's street address":"70 LASALLE ST. 19G","geocoding score":96.0,"donation amount":0.0,"longitude":-73.958723,"id":"a6dn0e353b1p","donor's profession":null},"type":"Feature","geometry":{"type":"Point","coordinates":[-73.958723,40.813413]}},{"properties":{"donor's last name":null,"latitude":40.760671,"donor's first name":null,"y coordinate":40.760671,"donor's state":"NY","donor's city":"New York","donor's zipcode":10020.0,"x coordinate":-73.980994,"donor's street address":"1271 6th Avenue","geocoding score":100.0,"donation amount":0.0,"longitude":-73.980994,"id":"a6dn0e13cixd","donor's profession":null},"type":"Feature","geometry":{"type":"Point","coordinates":[-73.980994,40.760671]}},{"properties":{"donor's last name":null,"latitude":40.76028,"donor's first name":null,"y coordinate":40.76028,"donor's state":"NY","donor's city":"New York","donor's zipcode":10020.0,"x coordinate":-73.980115,"donor's street address":"1271 Avenue of the Americas","geocoding score":100.0,"donation amount":0.0,"longitude":-73.980115,"id":"a6dn0dz802or","donor's profession":null},"type":"Feature","geometry":{"type":"Point","coordinates":[-73.980115,40.76028]}},{"properties":{"donor's last name":null,"latitude":40.757632,"donor's first name":null,"y coordinate":40.757632,"donor's state":"NY","donor's city":"New York","donor's zipcode":10036.0,"x coordinate":-73.99158,"donor's street address":"330 W. 42 Street","geocoding score":100.0,"donation amount":0.0,"longitude":-73.99158,"id":"a6dn0dvkcufl","donor's profession":null},"type":"Feature","geometry":{"type":"Point","coordinates":[-73.99158,40.757632]}},{"properties":{"donor's last name":null,"latitude":40.782957,"donor's first name":null,"y coordinate":40.782957,"donor's state":"NY","donor's city":"New York","donor's zipcode":10023.0,"x coordinate":-73.983364,"donor's street address":"319 West 76th Street Apt 8","geocoding score":100.0,"donation amount":0.0,"longitude":-73.983364,"id":"a6dn0e3le8u8","donor's profession":null},"type":"Feature","geometry":{"type":"Point","coordinates":[-73.983364,40.782957]}},{"properties":{"donor's last name":null,"latitude":40.769208,"donor's first name":null,"y coordinate":40.769208,"donor's state":"NY","donor's city":"New York","donor's zipcode":10019.0,"x coordinate":-73.989639,"donor's street address":"524 W. 57th Street","geocoding score":100.0,"donation amount":0.0,"longitude":-73.989639,"id":"a6dn0dsewovp","donor's profession":null},"type":"Feature","geometry":{"type":"Point","coordinates":[-73.989639,40.769208]}},{"properties":{"donor's last name":null,"latitude":40.758379,"donor's first name":null,"y coordinate":40.758379,"donor's state":"NY","donor's city":"New York","donor's zipcode":10020.0,"x coordinate":-73.97896,"donor's street address":"30 Rockefeller Plaza","geocoding score":100.0,"donation amount":0.0,"longitude":-73.97896,"id":"a6dn0dtgrt5m","donor's profession":null},"type":"Feature","geometry":{"type":"Point","coordinates":[-73.97896,40.758379]}},{"properties":{"donor's last name":null,"latitude":40.761577,"donor's first name":null,"y coordinate":40.761577,"donor's state":"NY","donor's city":"New York","donor's zipcode":10022.0,"x coordinate":-73.967631,"donor's street address":"731 Lexington Ave","geocoding score":100.0,"donation amount":0.0,"longitude":-73.967631,"id":"a6dn0e3mudhd","donor's profession":null},"type":"Feature","geometry":{"type":"Point","coordinates":[-73.967631,40.761577]}},{"properties":{"donor's last name":null,"latitude":40.752995,"donor's first name":null,"y coordinate":40.752995,"donor's state":"NY","donor's city":"NEW YORK","donor's zipcode":10017.0,"x coordinate":-73.971269,"donor's street address":"225 E. 46TH ST. 3J","geocoding score":100.0,"donation amount":0.0,"longitude":-73.971269,"id":"a6dn0ds1x4rm","donor's profession":null},"type":"Feature","geometry":{"type":"Point","coordinates":[-73.971269,40.752995]}},{"properties":{"donor's last name":null,"latitude":40.74632,"donor's first name":null,"y coordinate":40.74632,"donor's state":"NY","donor's city":"New York","donor's zipcode":10016.0,"x coordinate":-73.982607,"donor's street address":"2 Park Avenue","geocoding score":100.0,"donation amount":0.0,"longitude":-73.982607,"id":"a6dn0e4de511","donor's profession":null},"type":"Feature","geometry":{"type":"Point","coordinates":[-73.982607,40.74632]}},{"properties":{"donor's last name":null,"latitude":40.752995,"donor's first name":null,"y coordinate":40.752995,"donor's state":"NY","donor's city":"New York","donor's zipcode":10017.0,"x coordinate":-73.971269,"donor's street address":"225 E. 46th St 3J","geocoding score":100.0,"donation amount":0.0,"longitude":-73.971269,"id":"a6dn0dscx45k","donor's profession":null},"type":"Feature","geometry":{"type":"Point","coordinates":[-73.971269,40.752995]}},{"properties":{"donor's last name":null,"latitude":40.780205,"donor's first name":null,"y coordinate":40.780205,"donor's state":"NY","donor's city":"New York","donor's zipcode":10023.0,"x coordinate":-73.983794,"donor's street address":"270 W. End Ave.","geocoding score":100.0,"donation amount":0.0,"longitude":-73.983794,"id":"a6dn0dvy1q5d","donor's profession":null},"type":"Feature","geometry":{"type":"Point","coordinates":[-73.983794,40.780205]}},{"properties":{"donor's last name":null,"latitude":40.774624,"donor's first name":null,"y coordinate":40.774624,"donor's state":"NY","donor's city":"New York","donor's zipcode":10023.0,"x coordinate":-73.977778,"donor's street address":"91 Central Park West","geocoding score":100.0,"donation amount":0.0,"longitude":-73.977778,"id":"a6dn0dzz3ddl","donor's profession":null},"type":"Feature","geometry":{"type":"Point","coordinates":[-73.977778,40.774624]}},{"properties":{"donor's last name":null,"latitude":40.74632,"donor's first name":null,"y coordinate":40.74632,"donor's state":"NY","donor's city":"New York","donor's zipcode":10016.0,"x coordinate":-73.982607,"donor's street address":"2 Park Ave","geocoding score":100.0,"donation amount":0.0,"longitude":-73.982607,"id":"a6dn0e3rmcjk","donor's profession":null},"type":"Feature","geometry":{"type":"Point","coordinates":[-73.982607,40.74632]}},{"properties":{"donor's last name":"Abebe","latitude":40.768157,"donor's first name":null,"y coordinate":40.768157,"donor's state":"NY","donor's city":"New York","donor's zipcode":10021.0,"x coordinate":-73.955094,"donor's street address":"402 East 73rd Street","geocoding score":100.0,"donation amount":660.0,"longitude":-73.955094,"id":"a6dn0dt0obel","donor's profession":"Financial Analyst"},"type":"Feature","geometry":{"type":"Point","coordinates":[-73.955094,40.768157]}},{"properties":{"donor's last name":"Abenante","latitude":40.782974,"donor's first name":"Anthony","y coordinate":40.782974,"donor's state":"NY","donor's city":"New York","donor's zipcode":10024.0,"x coordinate":-73.979414,"donor's street address":"215 West 78th St.","geocoding score":100.0,"donation amount":4500.0,"longitude":-73.979414,"id":"a6dn0dzjlcd8","donor's profession":"Finance"},"type":"Feature","geometry":{"type":"Point","coordinates":[-73.979414,40.782974]}},{"properties":{"donor's last name":"Abrahamson","latitude":40.746435,"donor's first name":"Shaun","y coordinate":40.746435,"donor's state":"NY","donor's city":"New York","donor's zipcode":10001.0,"x coordinate":-73.987218,"donor's street address":"11 West 30 Street","geocoding score":100.0,"donation amount":500.0,"longitude":-73.987218,"id":"a6dn0dsvriz4","donor's profession":"Mechanic"},"type":"Feature","geometry":{"type":"Point","coordinates":[-73.987218,40.746435]}},{"properties":{"donor's last name":"Abrams","latitude":40.804363,"donor's first name":null,"y coordinate":40.804363,"donor's state":"NY","donor's city":"New York","donor's zipcode":10027.0,"x coordinate":-73.946827,"donor's street address":"13 W 120th Street","geocoding score":100.0,"donation amount":3208.0,"longitude":-73.946827,"id":"a6dn0e3aql29","donor's profession":"Account Manager"},"type":"Feature","geometry":{"type":"Point","coordinates":[-73.946827,40.804363]}},{"properties":{"donor's last name":"Abufaraj","latitude":40.745337,"donor's first name":"Ramzi","y coordinate":40.745337,"donor's state":"NY","donor's city":"new york","donor's zipcode":10001.0,"x coordinate":-73.993406,"donor's street address":"150 west 26th street # 502","geocoding score":100.0,"donation amount":1000.0,"longitude":-73.993406,"id":"a6dn0e0p0cjj","donor's profession":"Architect"},"type":"Feature","geometry":{"type":"Point","coordinates":[-73.993406,40.745337]}},{"properties":{"donor's last name":"Acker","latitude":40.764367,"donor's first name":"Kerry","y coordinate":40.764367,"donor's state":"NY","donor's city":"New York City","donor's zipcode":10019.0,"x coordinate":-73.983264,"donor's street address":"260 W. 54th St. #35B","geocoding score":91.0,"donation amount":3900.0,"longitude":-73.983264,"id":"a6dn0dwe1nje","donor's profession":"Consultant"},"type":"Feature","geometry":{"type":"Point","coordinates":[-73.983264,40.764367]}},{"properties":{"donor's last name":"Acker","latitude":40.764367,"donor's first name":null,"y coordinate":40.764367,"donor's state":"NY","donor's city":"New York City","donor's zipcode":10019.0,"x coordinate":-73.983264,"donor's street address":"260 W. 54th St. #35B","geocoding score":91.0,"donation amount":2000.0,"longitude":-73.983264,"id":"a6dn0e0z33rr","donor's profession":"Consultant"},"type":"Feature","geometry":{"type":"Point","coordinates":[-73.983264,40.764367]}},{"properties":{"donor's last name":"Ackler","latitude":40.78131,"donor's first name":"Stephanie","y coordinate":40.78131,"donor's state":"NY","donor's city":"New York","donor's zipcode":10024.0,"x coordinate":-73.978672,"donor's street address":"160 West 77th Street","geocoding score":100.0,"donation amount":8400.0,"longitude":-73.978672,"id":"a6dn0dtsvi21","donor's profession":"Financial Advisor"},"type":"Feature","geometry":{"type":"Point","coordinates":[-73.978672,40.78131]}},{"properties":{"donor's last name":"Acriche","latitude":40.725818,"donor's first name":null,"y coordinate":40.725818,"donor's state":"NY","donor's city":"New York","donor's zipcode":10009.0,"x coordinate":-73.984296,"donor's street address":"443 East Sixth Street Apt. 3","geocoding score":100.0,"donation amount":500.0,"longitude":-73.984296,"id":"a6dn0e425kek","donor's profession":"Lawyer"},"type":"Feature","geometry":{"type":"Point","coordinates":[-73.984296,40.725818]}},{"properties":{"donor's last name":"Adams","latitude":40.738033,"donor's first name":null,"y coordinate":40.738033,"donor's state":"NY","donor's city":"New York","donor's zipcode":10011.0,"x coordinate":-73.997799,"donor's street address":"130 West 15th St. Apt. 12J","geocoding score":100.0,"donation amount":1350.0,"longitude":-73.997799,"id":"a6dn0e7wysfc","donor's profession":"Writer-In-Residence"},"type":"Feature","geometry":{"type":"Point","coordinates":[-73.997799,40.738033]}},{"properties":{"donor's last name":"Adams","latitude":40.738033,"donor's first name":"Lorraine","y coordinate":40.738033,"donor's state":"NY","donor's city":"New York","donor's zipcode":10011.0,"x coordinate":-73.997799,"donor's street address":"130 West 15th St. Apt. 12J","geocoding score":100.0,"donation amount":550.0,"longitude":-73.997799,"id":"a6dn0e2m8z52","donor's profession":"Writer-In-Residence"},"type":"Feature","geometry":{"type":"Point","coordinates":[-73.997799,40.738033]}},{"properties":{"donor's last name":"Adams","latitude":40.73222,"donor's first name":null,"y coordinate":40.73222,"donor's state":"NY","donor's city":"New York","donor's zipcode":10014.0,"x coordinate":-74.008899,"donor's street address":"634 washington streett","geocoding score":100.0,"donation amount":1636.0,"longitude":-74.008899,"id":"a6dn0dwg37vn","donor's profession":"Dancer/Educator"},"type":"Feature","geometry":{"type":"Point","coordinates":[-74.008899,40.73222]}},{"properties":{"donor's last name":"Adefris","latitude":40.805384,"donor's first name":null,"y coordinate":40.805384,"donor's state":"NY","donor's city":"New York","donor's zipcode":10026.0,"x coordinate":-73.956267,"donor's street address":"392 Manhattan Avenue","geocoding score":100.0,"donation amount":450.0,"longitude":-73.956267,"id":"a6dn0e3ioylf","donor's profession":"Lawyer"},"type":"Feature","geometry":{"type":"Point","coordinates":[-73.956267,40.805384]}},{"properties":{"donor's last name":"Ainsworth","latitude":40.726489,"donor's first name":"Susan","y coordinate":40.726489,"donor's state":"NY","donor's city":"New York","donor's zipcode":10012.0,"x coordinate":-73.995424,"donor's street address":"644 Broadway","geocoding score":100.0,"donation amount":19400.0,"longitude":-73.995424,"id":"a6dn0dwwqnoa","donor's profession":"Business Consultant"},"type":"Feature","geometry":{"type":"Point","coordinates":[-73.995424,40.726489]}},{"properties":{"donor's last name":"Akiyama","latitude":40.815537,"donor's first name":null,"y coordinate":40.815537,"donor's state":"NY","donor's city":"New York","donor's zipcode":10037.0,"x coordinate":-73.939896,"donor's street address":"539 Malcolm X Blvd #4A","geocoding score":100.0,"donation amount":1086.0,"longitude":-73.939896,"id":"a6dn0e3gpvz6","donor's profession":"Editor"},"type":"Feature","geometry":{"type":"Point","coordinates":[-73.939896,40.815537]}},{"properties":{"donor's last name":"Albrecht","latitude":40.730709,"donor's first name":"Jennifer","y coordinate":40.730709,"donor's state":"NY","donor's city":"New York","donor's zipcode":10014.0,"x coordinate":-74.004857,"donor's street address":"34 Morton Street","geocoding score":100.0,"donation amount":2300.0,"longitude":-74.004857,"id":"a6dn0e5k5unb","donor's profession":"Vice-President"},"type":"Feature","geometry":{"type":"Point","coordinates":[-74.004857,40.730709]}},{"properties":{"donor's last name":"Alexakos","latitude":40.73152,"donor's first name":null,"y coordinate":40.73152,"donor's state":"NY","donor's city":"New York","donor's zipcode":10014.0,"x coordinate":-74.003584,"donor's street address":"7 Morton Street","geocoding score":100.0,"donation amount":3540.0,"longitude":-74.003584,"id":"a6dn0e4rrg6g","donor's profession":"Real Estate Broker"},"type":"Feature","geometry":{"type":"Point","coordinates":[-74.003584,40.73152]}},{"properties":{"donor's last name":"Alexander","latitude":40.747006,"donor's first name":null,"y coordinate":40.747006,"donor's state":"NY","donor's city":"New York","donor's zipcode":10011.0,"x coordinate":-74.001448,"donor's street address":"465 West 23rd Street, Apt 9A","geocoding score":100.0,"donation amount":8700.0,"longitude":-74.001448,"id":"a6dn0dyv0e5g","donor's profession":"Gallerist"},"type":"Feature","geometry":{"type":"Point","coordinates":[-74.001448,40.747006]}},{"properties":{"donor's last name":"Alfano","latitude":40.784758,"donor's first name":"Justin","y coordinate":40.784758,"donor's state":"NY","donor's city":"New York","donor's zipcode":10024.0,"x coordinate":-73.981219,"donor's street address":"401 W. End Ave","geocoding score":100.0,"donation amount":900.0,"longitude":-73.981219,"id":"a6dn0dsij0ds","donor's profession":"Associate"},"type":"Feature","geometry":{"type":"Point","coordinates":[-73.981219,40.784758]}},{"properties":{"donor's last name":"Alfano","latitude":40.784758,"donor's first name":null,"y coordinate":40.784758,"donor's state":"NY","donor's city":"New York","donor's zipcode":10024.0,"x coordinate":-73.981219,"donor's street address":"401 W. End Ave","geocoding score":100.0,"donation amount":350.0,"longitude":-73.981219,"id":"a6dn0dsfm4r7","donor's profession":"Associate"},"type":"Feature","geometry":{"type":"Point","coordinates":[-73.981219,40.784758]}},{"properties":{"donor's last name":"Allen","latitude":40.799372,"donor's first name":"Elizabeth","y coordinate":40.799372,"donor's state":"NY","donor's city":"New York","donor's zipcode":10025.0,"x coordinate":-73.970574,"donor's street address":"865 West End Avenue","geocoding score":100.0,"donation amount":250.0,"longitude":-73.970574,"id":"a6dn0dszvzg3","donor's profession":"Designer"},"type":"Feature","geometry":{"type":"Point","coordinates":[-73.970574,40.799372]}},{"properties":{"donor's last name":"Allen","latitude":40.821992,"donor's first name":"Zita","y coordinate":40.821992,"donor's state":"NY","donor's city":"New York","donor's zipcode":10031.0,"x coordinate":-73.948522,"donor's street address":"270 Convent Ave. #9F","geocoding score":100.0,"donation amount":400.0,"longitude":-73.948522,"id":"a6dn0dspkbdk","donor's profession":"Director of Communications"},"type":"Feature","geometry":{"type":"Point","coordinates":[-73.948522,40.821992]}},{"properties":{"donor's last name":"Alvarez","latitude":40.728937,"donor's first name":null,"y coordinate":40.728937,"donor's state":"NY","donor's city":"New York","donor's zipcode":10009.0,"x coordinate":-73.980498,"donor's street address":"513 East 12th Street, #6","geocoding score":100.0,"donation amount":300.0,"longitude":-73.980498,"id":"a6dn0dujwrux","donor's profession":"Project Manager"},"type":"Feature","geometry":{"type":"Point","coordinates":[-73.980498,40.728937]}},{"properties":{"donor's last name":"Amsterdam","latitude":40.785908,"donor's first name":"Valerie","y coordinate":40.785908,"donor's state":"NY","donor's city":"New York","donor's zipcode":10128.0,"x coordinate":-73.952445,"donor's street address":"1225 Park AvenueApt 16 B","geocoding score":100.0,"donation amount":8300.0,"longitude":-73.952445,"id":"a6dn0dz07jtf","donor's profession":"Retired"},"type":"Feature","geometry":{"type":"Point","coordinates":[-73.952445,40.785908]}},{"properties":{"donor's last name":"Amy","latitude":40.755522,"donor's first name":"Carlos","y coordinate":40.755522,"donor's state":"NY","donor's city":"New York","donor's zipcode":10022.0,"x coordinate":-73.966808,"donor's street address":"320 East 52nd Street, Apt 8E","geocoding score":100.0,"donation amount":750.0,"longitude":-73.966808,"id":"a6dn0dyl5el5","donor's profession":"Attorney"},"type":"Feature","geometry":{"type":"Point","coordinates":[-73.966808,40.755522]}},{"properties":{"donor's last name":"Anderson","latitude":40.812684,"donor's first name":"Sibyl","y coordinate":40.812684,"donor's state":"NY","donor's city":"New York","donor's zipcode":10037.0,"x coordinate":-73.938758,"donor's street address":"10 West 135 Street","geocoding score":100.0,"donation amount":250.0,"longitude":-73.938758,"id":"a6dn0dstikt5","donor's profession":"Physician"},"type":"Feature","geometry":{"type":"Point","coordinates":[-73.938758,40.812684]}},{"properties":{"donor's last name":"Anderson","latitude":40.744696,"donor's first name":"David","y coordinate":40.744696,"donor's state":"NY","donor's city":"New York","donor's zipcode":10011.0,"x coordinate":-74.000433,"donor's street address":"321 West 21st St. #2A","geocoding score":100.0,"donation amount":1525.0,"longitude":-74.000433,"id":"a6dn0dzifd5q","donor's profession":"Not employed"},"type":"Feature","geometry":{"type":"Point","coordinates":[-74.000433,40.744696]}},{"properties":{"donor's last name":"Andreasian","latitude":40.799984,"donor's first name":null,"y coordinate":40.799984,"donor's state":"NY","donor's city":"New York","donor's zipcode":10025.0,"x coordinate":-73.970119,"donor's street address":"885 West End avenue","geocoding score":100.0,"donation amount":300.0,"longitude":-73.970119,"id":"a6dn0dvjhmu3","donor's profession":"Real Estate Broker"},"type":"Feature","geometry":{"type":"Point","coordinates":[-73.970119,40.799984]}},{"properties":{"donor's last name":"Andreasian","latitude":40.799984,"donor's first name":null,"y coordinate":40.799984,"donor's state":"NY","donor's city":"New York","donor's zipcode":10025.0,"x coordinate":-73.970119,"donor's street address":"885 West End avenue","geocoding score":100.0,"donation amount":250.0,"longitude":-73.970119,"id":"a6dn0e1lbfk8","donor's profession":"Real Estate Broker"},"type":"Feature","geometry":{"type":"Point","coordinates":[-73.970119,40.799984]}},{"properties":{"donor's last name":"Andrews","latitude":40.741742,"donor's first name":null,"y coordinate":40.741742,"donor's state":"NY","donor's city":"New York","donor's zipcode":10011.0,"x coordinate":-73.996784,"donor's street address":"180 W. 20th St.","geocoding score":100.0,"donation amount":250.0,"longitude":-73.996784,"id":"a6dn0dvcmmh3","donor's profession":"Investment Analyst"},"type":"Feature","geometry":{"type":"Point","coordinates":[-73.996784,40.741742]}},{"properties":{"donor's last name":"Appelbaum","latitude":40.77661,"donor's first name":"Paul","y coordinate":40.77661,"donor's state":"NY","donor's city":"New York","donor's zipcode":10023.0,"x coordinate":-73.984556,"donor's street address":"170 West End Avenue","geocoding score":100.0,"donation amount":3900.0,"longitude":-73.984556,"id":"a6dn0e71qbyy","donor's profession":"Education Management"},"type":"Feature","geometry":{"type":"Point","coordinates":[-73.984556,40.77661]}},{"properties":{"donor's last name":"Armstrong","latitude":40.794523,"donor's first name":"Janet","y coordinate":40.794523,"donor's state":"NY","donor's city":"New York","donor's zipcode":10025.0,"x coordinate":-73.964981,"donor's street address":"392 Central Park W Apt 18n","geocoding score":100.0,"donation amount":700.0,"longitude":-73.964981,"id":"a6dn0dyj0y6j","donor's profession":"Information Requested"},"type":"Feature","geometry":{"type":"Point","coordinates":[-73.964981,40.794523]}},{"properties":{"donor's last name":"Arsala","latitude":40.761072,"donor's first name":null,"y coordinate":40.761072,"donor's state":"NY","donor's city":"New York","donor's zipcode":10022.0,"x coordinate":-73.97024,"donor's street address":"110 East 57th Strret","geocoding score":100.0,"donation amount":993.0,"longitude":-73.97024,"id":"a6dn0e2l1p9s","donor's profession":"International Relations"},"type":"Feature","geometry":{"type":"Point","coordinates":[-73.97024,40.761072]}},{"properties":{"donor's last name":"Arteaga","latitude":40.800131,"donor's first name":null,"y coordinate":40.800131,"donor's state":"NY","donor's city":"New York","donor's zipcode":10025.0,"x coordinate":-73.959322,"donor's street address":"4 W. 109th St. #3A","geocoding score":100.0,"donation amount":9424.0,"longitude":-73.959322,"id":"a6dn0e5izprp","donor's profession":"Attorney"},"type":"Feature","geometry":{"type":"Point","coordinates":[-73.959322,40.800131]}},{"properties":{"donor's last name":"Arteaga","latitude":40.800131,"donor's first name":"Juan","y coordinate":40.800131,"donor's state":"NY","donor's city":"New York","donor's zipcode":10025.0,"x coordinate":-73.959322,"donor's street address":"4 W. 109th St. #3A","geocoding score":100.0,"donation amount":23784.0,"longitude":-73.959322,"id":"a6dn0e3z05pq","donor's profession":"Attorney"},"type":"Feature","geometry":{"type":"Point","coordinates":[-73.959322,40.800131]}},{"properties":{"donor's last name":"Asgedom","latitude":40.787342,"donor's first name":null,"y coordinate":40.787342,"donor's state":"NY","donor's city":"New York","donor's zipcode":10029.0,"x coordinate":-73.951554,"donor's street address":"1261 Park Ave #12","geocoding score":100.0,"donation amount":500.0,"longitude":-73.951554,"id":"a6dn0e1y3eqb","donor's profession":"Administrative Director"},"type":"Feature","geometry":{"type":"Point","coordinates":[-73.951554,40.787342]}},{"properties":{"donor's last name":"Asher","latitude":40.778697,"donor's first name":"Scott","y coordinate":40.778697,"donor's state":"NY","donor's city":"New York","donor's zipcode":10023.0,"x coordinate":-73.977133,"donor's street address":"55 W 74th St.","geocoding score":100.0,"donation amount":250.0,"longitude":-73.977133,"id":"a6dn0e54v349","donor's profession":"Financial Analyst"},"type":"Feature","geometry":{"type":"Point","coordinates":[-73.977133,40.778697]}},{"properties":{"donor's last name":"Ashkar","latitude":40.795776,"donor's first name":null,"y coordinate":40.795776,"donor's state":"NY","donor's city":"New York","donor's zipcode":10025.0,"x coordinate":-73.969833,"donor's street address":"203 West 98th Street #5A","geocoding score":100.0,"donation amount":2100.0,"longitude":-73.969833,"id":"a6dn0dthd46i","donor's profession":"Designer"},"type":"Feature","geometry":{"type":"Point","coordinates":[-73.969833,40.795776]}},{"properties":{"donor's last name":"Asmundsson","latitude":40.754356,"donor's first name":"Eric","y coordinate":40.754356,"donor's state":"NY","donor's city":"New York","donor's zipcode":10022.0,"x coordinate":-73.96474,"donor's street address":"425 East 51st Street, 9F","geocoding score":100.0,"donation amount":250.0,"longitude":-73.96474,"id":"a6dn0e48y9v1","donor's profession":"Not employed"},"type":"Feature","geometry":{"type":"Point","coordinates":[-73.96474,40.754356]}},{"properties":{"donor's last name":"Asthalter","latitude":40.702235,"donor's first name":null,"y coordinate":40.702235,"donor's state":"NY","donor's city":"New York","donor's zipcode":10004.0,"x coordinate":-74.010581,"donor's street address":"125 Broad St.","geocoding score":100.0,"donation amount":1100.0,"longitude":-74.010581,"id":"a6dn0dry347q","donor's profession":"Professsor"},"type":"Feature","geometry":{"type":"Point","coordinates":[-74.010581,40.702235]}},{"properties":{"donor's last name":"Asthalter","latitude":40.702235,"donor's first name":"Nancy","y coordinate":40.702235,"donor's state":"NY","donor's city":"New York","donor's zipcode":10004.0,"x coordinate":-74.010581,"donor's street address":"125 Broad St.","geocoding score":100.0,"donation amount":1200.0,"longitude":-74.010581,"id":"a6dn0e7h10ju","donor's profession":"Professsor"},"type":"Feature","geometry":{"type":"Point","coordinates":[-74.010581,40.702235]}},{"properties":{"donor's last name":"Attie","latitude":40.805585,"donor's first name":null,"y coordinate":40.805585,"donor's state":"NY","donor's city":"New York","donor's zipcode":10025.0,"x coordinate":-73.967274,"donor's street address":"390 Riverside Drive 5F","geocoding score":100.0,"donation amount":855.0,"longitude":-73.967274,"id":"a6dn0ds56tdg","donor's profession":"Professor of History"},"type":"Feature","geometry":{"type":"Point","coordinates":[-73.967274,40.805585]}},{"properties":{"donor's last name":"Auran","latitude":40.781551,"donor's first name":"Liz","y coordinate":40.781551,"donor's state":"NY","donor's city":"New york","donor's zipcode":10128.0,"x coordinate":-73.956929,"donor's street address":"1070 Park avenue Apt 15D","geocoding score":100.0,"donation amount":500.0,"longitude":-73.956929,"id":"a6dn0e2rmk03","donor's profession":"English Instructor"},"type":"Feature","geometry":{"type":"Point","coordinates":[-73.956929,40.781551]}},{"properties":{"donor's last name":"Auran","latitude":40.781551,"donor's first name":"James","y coordinate":40.781551,"donor's state":"NY","donor's city":"New York","donor's zipcode":10128.0,"x coordinate":-73.956929,"donor's street address":"1070 Park Avenue","geocoding score":100.0,"donation amount":1000.0,"longitude":-73.956929,"id":"a6dn0e5f9axs","donor's profession":"Physician"},"type":"Feature","geometry":{"type":"Point","coordinates":[-73.956929,40.781551]}},{"properties":{"donor's last name":"Auran","latitude":40.781551,"donor's first name":"Elizabeth","y coordinate":40.781551,"donor's state":"NY","donor's city":"new york","donor's zipcode":10128.0,"x coordinate":-73.956929,"donor's street address":"1070 park avenue Apt 15D","geocoding score":100.0,"donation amount":500.0,"longitude":-73.956929,"id":"a6dn0dw1hc0d","donor's profession":"English Instructor"},"type":"Feature","geometry":{"type":"Point","coordinates":[-73.956929,40.781551]}},{"properties":{"donor's last name":"Auricchio","latitude":40.788752,"donor's first name":"Laura","y coordinate":40.788752,"donor's state":"NY","donor's city":"New York","donor's zipcode":10024.0,"x coordinate":-73.980726,"donor's street address":"125 Riverside Dr Apt 10-D","geocoding score":100.0,"donation amount":300.0,"longitude":-73.980726,"id":"a6dn0dsk9ilj","donor's profession":"Assistant Professor of Art History"},"type":"Feature","geometry":{"type":"Point","coordinates":[-73.980726,40.788752]}},{"properties":{"donor's last name":"Auricchio","latitude":40.788752,"donor's first name":null,"y coordinate":40.788752,"donor's state":"NY","donor's city":"New York","donor's zipcode":10024.0,"x coordinate":-73.980726,"donor's street address":"125 Riverside Drive, 10-D","geocoding score":100.0,"donation amount":400.0,"longitude":-73.980726,"id":"a6dn0e6e9ll4","donor's profession":"Assistant Professor of art History"},"type":"Feature","geometry":{"type":"Point","coordinates":[-73.980726,40.788752]}},{"properties":{"donor's last name":"Autry","latitude":40.743479,"donor's first name":"Lee","y coordinate":40.743479,"donor's state":"NY","donor's city":"New York","donor's zipcode":10011.0,"x coordinate":-73.998739,"donor's street address":"252 West 21st Street","geocoding score":100.0,"donation amount":20700.0,"longitude":-73.998739,"id":"a6dn0e5k89f0","donor's profession":"Training"},"type":"Feature","geometry":{"type":"Point","coordinates":[-73.998739,40.743479]}},{"properties":{"donor's last name":"Avidon","latitude":40.79999,"donor's first name":null,"y coordinate":40.79999,"donor's state":"NY","donor's city":"New York","donor's zipcode":10025.0,"x coordinate":-73.97127,"donor's street address":"305 Riverside Drive","geocoding score":100.0,"donation amount":1025.0,"longitude":-73.97127,"id":"a6dn0ds2qdk5","donor's profession":"Faculty"},"type":"Feature","geometry":{"type":"Point","coordinates":[-73.97127,40.79999]}},{"properties":{"donor's last name":"Ayyappan","latitude":40.768947,"donor's first name":null,"y coordinate":40.768947,"donor's state":"NY","donor's city":"New York","donor's zipcode":10019.0,"x coordinate":-73.987489,"donor's street address":"457 West 57th Street","geocoding score":100.0,"donation amount":492.0,"longitude":-73.987489,"id":"a6dn0duj91ag","donor's profession":"Lawyer"},"type":"Feature","geometry":{"type":"Point","coordinates":[-73.987489,40.768947]}},{"properties":{"donor's last name":"Babb","latitude":40.734276,"donor's first name":null,"y coordinate":40.734276,"donor's state":"NY","donor's city":"New York","donor's zipcode":10014.0,"x coordinate":-74.004079,"donor's street address":"207 West 10th St.","geocoding score":100.0,"donation amount":1700.0,"longitude":-74.004079,"id":"a6dn0dtosio9","donor's profession":"Public Relations"},"type":"Feature","geometry":{"type":"Point","coordinates":[-74.004079,40.734276]}},{"properties":{"donor's last name":"Babb","latitude":40.734276,"donor's first name":null,"y coordinate":40.734276,"donor's state":"NY","donor's city":"New York","donor's zipcode":10014.0,"x coordinate":-74.004079,"donor's street address":"207 West 10th St.","geocoding score":100.0,"donation amount":600.0,"longitude":-74.004079,"id":"a6dn0du4onlf","donor's profession":"Public Relations"},"type":"Feature","geometry":{"type":"Point","coordinates":[-74.004079,40.734276]}},{"properties":{"donor's last name":"Bacon","latitude":40.748723,"donor's first name":"Roy","y coordinate":40.748723,"donor's state":"NY","donor's city":"New York","donor's zipcode":10016.0,"x coordinate":-73.980734,"donor's street address":"40 Park Avenue (2E)","geocoding score":100.0,"donation amount":250.0,"longitude":-73.980734,"id":"a6dn0duvv085","donor's profession":"Retired"},"type":"Feature","geometry":{"type":"Point","coordinates":[-73.980734,40.748723]}},{"properties":{"donor's last name":"Badger","latitude":40.758759,"donor's first name":null,"y coordinate":40.758759,"donor's state":"NY","donor's city":"New York","donor's zipcode":10022.0,"x coordinate":-73.96475,"donor's street address":"320 East 57th Street","geocoding score":100.0,"donation amount":300.0,"longitude":-73.96475,"id":"a6dn0dyyr7t4","donor's profession":"Professor"},"type":"Feature","geometry":{"type":"Point","coordinates":[-73.96475,40.758759]}},{"properties":{"donor's last name":"Baer","latitude":40.784758,"donor's first name":"Alexandria","y coordinate":40.784758,"donor's state":"NY","donor's city":"New York","donor's zipcode":10024.0,"x coordinate":-73.981219,"donor's street address":"401 West End Ave.","geocoding score":100.0,"donation amount":250.0,"longitude":-73.981219,"id":"a6dn0dwqwm2g","donor's profession":"Not employed"},"type":"Feature","geometry":{"type":"Point","coordinates":[-73.981219,40.784758]}},{"properties":{"donor's last name":"Bafford","latitude":40.77917,"donor's first name":"Beth","y coordinate":40.77917,"donor's state":"NY","donor's city":"New York","donor's zipcode":10023.0,"x coordinate":-73.980341,"donor's street address":"163 W. 73rd St. Apt. 9E","geocoding score":100.0,"donation amount":11160.0,"longitude":-73.980341,"id":"a6dn0dto4xwy","donor's profession":"Sr. Associate"},"type":"Feature","geometry":{"type":"Point","coordinates":[-73.980341,40.77917]}},{"properties":{"donor's last name":"Bafford","latitude":40.77917,"donor's first name":null,"y coordinate":40.77917,"donor's state":"NY","donor's city":"New York","donor's zipcode":10023.0,"x coordinate":-73.980341,"donor's street address":"163 W. 73rd St. Apt. 9E","geocoding score":100.0,"donation amount":1600.0,"longitude":-73.980341,"id":"a6dn0dzf9aok","donor's profession":"Sr. Associate"},"type":"Feature","geometry":{"type":"Point","coordinates":[-73.980341,40.77917]}},{"properties":{"donor's last name":"Bagchi","latitude":40.706679,"donor's first name":"Toopan","y coordinate":40.706679,"donor's state":"NY","donor's city":"New York","donor's zipcode":10038.0,"x coordinate":-74.007246,"donor's street address":"100 Maiden Lane","geocoding score":100.0,"donation amount":1000.0,"longitude":-74.007246,"id":"a6dn0dtudvo5","donor's profession":"Management Consultant"},"type":"Feature","geometry":{"type":"Point","coordinates":[-74.007246,40.706679]}},{"properties":{"donor's last name":"Bailey","latitude":40.742113,"donor's first name":"Kent","y coordinate":40.742113,"donor's state":"NY","donor's city":"New York","donor's zipcode":10011.0,"x coordinate":-74.001576,"donor's street address":"313 W. 17th St., Apt. 2E","geocoding score":100.0,"donation amount":3540.0,"longitude":-74.001576,"id":"a6dn0e12lyrk","donor's profession":"Analyst"},"type":"Feature","geometry":{"type":"Point","coordinates":[-74.001576,40.742113]}},{"properties":{"donor's last name":"Baker","latitude":40.729649,"donor's first name":null,"y coordinate":40.729649,"donor's state":"NY","donor's city":"New York","donor's zipcode":10012.0,"x coordinate":-73.999412,"donor's street address":"229 Sullivan Street, apt 4A","geocoding score":100.0,"donation amount":6510.0,"longitude":-73.999412,"id":"a6dn0dwpjwjl","donor's profession":"Writer"},"type":"Feature","geometry":{"type":"Point","coordinates":[-73.999412,40.729649]}},{"properties":{"donor's last name":"Baker","latitude":40.800701,"donor's first name":null,"y coordinate":40.800701,"donor's state":"NY","donor's city":"New York","donor's zipcode":10026.0,"x coordinate":-73.958486,"donor's street address":"300 W. 110th St.","geocoding score":100.0,"donation amount":1140.0,"longitude":-73.958486,"id":"a6dn0e3s30vf","donor's profession":"Manager"},"type":"Feature","geometry":{"type":"Point","coordinates":[-73.958486,40.800701]}},{"properties":{"donor's last name":"Baker","latitude":40.795788,"donor's first name":null,"y coordinate":40.795788,"donor's state":"NY","donor's city":"New York","donor's zipcode":10025.0,"x coordinate":-73.96951,"donor's street address":"786 Amsterdam Ave #5N","geocoding score":100.0,"donation amount":515.0,"longitude":-73.96951,"id":"a6dn0dv06shn","donor's profession":"Student"},"type":"Feature","geometry":{"type":"Point","coordinates":[-73.96951,40.795788]}},{"properties":{"donor's last name":"Baker","latitude":40.800701,"donor's first name":null,"y coordinate":40.800701,"donor's state":"NY","donor's city":"New York","donor's zipcode":10026.0,"x coordinate":-73.958486,"donor's street address":"300 W. 110th St.","geocoding score":100.0,"donation amount":460.0,"longitude":-73.958486,"id":"a6dn0e0lsz5o","donor's profession":"Manager"},"type":"Feature","geometry":{"type":"Point","coordinates":[-73.958486,40.800701]}},{"properties":{"donor's last name":"Ballard","latitude":40.763183,"donor's first name":null,"y coordinate":40.763183,"donor's state":"NY","donor's city":"new york","donor's zipcode":10036.0,"x coordinate":-73.994623,"donor's street address":"530 west 47th st, apt 6D","geocoding score":100.0,"donation amount":1060.0,"longitude":-73.994623,"id":"a6dn0e215nsq","donor's profession":"Vice President"},"type":"Feature","geometry":{"type":"Point","coordinates":[-73.994623,40.763183]}},{"properties":{"donor's last name":"Ballard","latitude":40.763183,"donor's first name":"Mark","y coordinate":40.763183,"donor's state":"NY","donor's city":"new york","donor's zipcode":10036.0,"x coordinate":-73.994623,"donor's street address":"530 west 47th st","geocoding score":100.0,"donation amount":1300.0,"longitude":-73.994623,"id":"a6dn0dz8iem1","donor's profession":"Vice President"},"type":"Feature","geometry":{"type":"Point","coordinates":[-73.994623,40.763183]}},{"properties":{"donor's last name":"Ballard","latitude":40.763183,"donor's first name":null,"y coordinate":40.763183,"donor's state":"NY","donor's city":"new york","donor's zipcode":10036.0,"x coordinate":-73.994623,"donor's street address":"530 west 47th st","geocoding score":100.0,"donation amount":1360.0,"longitude":-73.994623,"id":"a6dn0e2o23cm","donor's profession":"Vice President"},"type":"Feature","geometry":{"type":"Point","coordinates":[-73.994623,40.763183]}},{"properties":{"donor's last name":"Barbieri","latitude":40.733958,"donor's first name":"Maureen","y coordinate":40.733958,"donor's state":"NY","donor's city":"New York","donor's zipcode":10014.0,"x coordinate":-74.001827,"donor's street address":"45 Christopher Street","geocoding score":100.0,"donation amount":2700.0,"longitude":-74.001827,"id":"a6dn0e6oelf2","donor's profession":"Professor"},"type":"Feature","geometry":{"type":"Point","coordinates":[-74.001827,40.733958]}},{"properties":{"donor's last name":"Bardige","latitude":40.745475,"donor's first name":null,"y coordinate":40.745475,"donor's state":"NY","donor's city":"New York","donor's zipcode":10001.0,"x coordinate":-73.99048,"donor's street address":"800 6th Ave., 4N","geocoding score":100.0,"donation amount":250.0,"longitude":-73.99048,"id":"a6dn0e27z1za","donor's profession":"Research Assistant"},"type":"Feature","geometry":{"type":"Point","coordinates":[-73.99048,40.745475]}},{"properties":{"donor's last name":"Baribeau","latitude":40.742639,"donor's first name":"Jay","y coordinate":40.742639,"donor's state":"NY","donor's city":"New York","donor's zipcode":10016.0,"x coordinate":-73.979944,"donor's street address":"417 Third Ave., Apt 3C","geocoding score":100.0,"donation amount":750.0,"longitude":-73.979944,"id":"a6dn0dw7opor","donor's profession":"Attorney"},"type":"Feature","geometry":{"type":"Point","coordinates":[-73.979944,40.742639]}},{"properties":{"donor's last name":"Barlow Durocher","latitude":40.747973,"donor's first name":null,"y coordinate":40.747973,"donor's state":"NY","donor's city":"new york","donor's zipcode":10016.0,"x coordinate":-73.982379,"donor's street address":"20 e. 35th street","geocoding score":100.0,"donation amount":912.0,"longitude":-73.982379,"id":"a6dn0e3mrfk0","donor's profession":"Advertising Copywriter"},"type":"Feature","geometry":{"type":"Point","coordinates":[-73.982379,40.747973]}},{"properties":{"donor's last name":"Barlow Durocher","latitude":40.747973,"donor's first name":null,"y coordinate":40.747973,"donor's state":"NY","donor's city":"new york","donor's zipcode":10016.0,"x coordinate":-73.982379,"donor's street address":"20 e. 35th street","geocoding score":100.0,"donation amount":758.0,"longitude":-73.982379,"id":"a6dn0e7jkkp9","donor's profession":"Advertising Copywriter"},"type":"Feature","geometry":{"type":"Point","coordinates":[-73.982379,40.747973]}},{"properties":{"donor's last name":"Barnard","latitude":40.767208,"donor's first name":null,"y coordinate":40.767208,"donor's state":"NY","donor's city":"New York","donor's zipcode":10021.0,"x coordinate":-73.955312,"donor's street address":"420 East 72nd Street","geocoding score":100.0,"donation amount":225.0,"longitude":-73.955312,"id":"a6dn0dusyn26","donor's profession":"Writer/Photographer"},"type":"Feature","geometry":{"type":"Point","coordinates":[-73.955312,40.767208]}},{"properties":{"donor's last name":"Barnes","latitude":40.809535,"donor's first name":"Paula","y coordinate":40.809535,"donor's state":"NY","donor's city":"New York","donor's zipcode":10027.0,"x coordinate":-73.942352,"donor's street address":"38 W. 129th Street","geocoding score":100.0,"donation amount":1030.0,"longitude":-73.942352,"id":"a6dn0dxn9bnq","donor's profession":"Attorney"},"type":"Feature","geometry":{"type":"Point","coordinates":[-73.942352,40.809535]}},{"properties":{"donor's last name":"Barnes","latitude":40.809535,"donor's first name":null,"y coordinate":40.809535,"donor's state":"NY","donor's city":"New York","donor's zipcode":10027.0,"x coordinate":-73.942352,"donor's street address":"38 W. 129th Street","geocoding score":100.0,"donation amount":306.0,"longitude":-73.942352,"id":"a6dn0dtic6ak","donor's profession":"Attorney"},"type":"Feature","geometry":{"type":"Point","coordinates":[-73.942352,40.809535]}},{"properties":{"donor's last name":"Barness","latitude":40.772954,"donor's first name":"Lisa","y coordinate":40.772954,"donor's state":"NY","donor's city":"New York","donor's zipcode":10021.0,"x coordinate":-73.961565,"donor's street address":"103 east 75th street","geocoding score":100.0,"donation amount":300.0,"longitude":-73.961565,"id":"a6dn0dts1m4s","donor's profession":"Mom"},"type":"Feature","geometry":{"type":"Point","coordinates":[-73.961565,40.772954]}},{"properties":{"donor's last name":"Barnet","latitude":40.782127,"donor's first name":null,"y coordinate":40.782127,"donor's state":"NY","donor's city":"New York","donor's zipcode":10128.0,"x coordinate":-73.956366,"donor's street address":"1088 Park Avenue 8B","geocoding score":100.0,"donation amount":250.0,"longitude":-73.956366,"id":"a6dn0e4al5hs","donor's profession":"Lawyer"},"type":"Feature","geometry":{"type":"Point","coordinates":[-73.956366,40.782127]}},{"properties":{"donor's last name":"Barrie","latitude":40.779214,"donor's first name":null,"y coordinate":40.779214,"donor's state":"NY","donor's city":"New York","donor's zipcode":10023.0,"x coordinate":-73.976388,"donor's street address":"45 West 75th Street Apt. B","geocoding score":100.0,"donation amount":482.0,"longitude":-73.976388,"id":"a6dn0e04orxi","donor's profession":"Community Coordinator"},"type":"Feature","geometry":{"type":"Point","coordinates":[-73.976388,40.779214]}},{"properties":{"donor's last name":"Barth","latitude":40.791899,"donor's first name":"Jennifer","y coordinate":40.791899,"donor's state":"NY","donor's city":"New York","donor's zipcode":10024.0,"x coordinate":-73.977813,"donor's street address":"173 Riverside Drive #5A","geocoding score":100.0,"donation amount":2200.0,"longitude":-73.977813,"id":"a6dn0e7egmy4","donor's profession":"Book Editor"},"type":"Feature","geometry":{"type":"Point","coordinates":[-73.977813,40.791899]}},{"properties":{"donor's last name":"Bartnett","latitude":40.790912,"donor's first name":null,"y coordinate":40.790912,"donor's state":"NY","donor's city":"New York","donor's zipcode":10024.0,"x coordinate":-73.975159,"donor's street address":"250 West 90th Street","geocoding score":100.0,"donation amount":500.0,"longitude":-73.975159,"id":"a6dn0e0iftio","donor's profession":"Psychologist"},"type":"Feature","geometry":{"type":"Point","coordinates":[-73.975159,40.790912]}},{"properties":{"donor's last name":"Barton","latitude":40.773552,"donor's first name":"Mary-Claire","y coordinate":40.773552,"donor's state":"NY","donor's city":"New York","donor's zipcode":10023.0,"x coordinate":-73.980125,"donor's street address":"50 W. 67 StreetM","geocoding score":100.0,"donation amount":1968.0,"longitude":-73.980125,"id":"a6dn0dv95jxi","donor's profession":"Art Gallery Owner"},"type":"Feature","geometry":{"type":"Point","coordinates":[-73.980125,40.773552]}},{"properties":{"donor's last name":"Bassin","latitude":40.77965,"donor's first name":"Ian","y coordinate":40.77965,"donor's state":"NY","donor's city":"New York","donor's zipcode":10028.0,"x coordinate":-73.960999,"donor's street address":"1025 Fifth Ave.","geocoding score":100.0,"donation amount":0.0,"longitude":-73.960999,"id":"a6dn0dvrkzjp","donor's profession":null},"type":"Feature","geometry":{"type":"Point","coordinates":[-73.960999,40.77965]}},{"properties":{"donor's last name":"Bassman","latitude":40.791382,"donor's first name":"Sheila","y coordinate":40.791382,"donor's state":"NY","donor's city":"New york","donor's zipcode":10025.0,"x coordinate":-73.969344,"donor's street address":"123 West 93rd Street","geocoding score":100.0,"donation amount":600.0,"longitude":-73.969344,"id":"a6dn0dt1y7my","donor's profession":"Computer Programmer"},"type":"Feature","geometry":{"type":"Point","coordinates":[-73.969344,40.791382]}},{"properties":{"donor's last name":"Bauer","latitude":40.755245,"donor's first name":"Alexandra","y coordinate":40.755245,"donor's state":"NY","donor's city":"New York","donor's zipcode":10022.0,"x coordinate":-73.966138,"donor's street address":"340 E. 52nd St.","geocoding score":100.0,"donation amount":2750.0,"longitude":-73.966138,"id":"a6dn0e0tmrjr","donor's profession":"Investment Banker"},"type":"Feature","geometry":{"type":"Point","coordinates":[-73.966138,40.755245]}},{"properties":{"donor's last name":"Baum","latitude":40.73226,"donor's first name":null,"y coordinate":40.73226,"donor's state":"NY","donor's city":"New York","donor's zipcode":10003.0,"x coordinate":-73.993325,"donor's street address":"28 East 10th Street","geocoding score":100.0,"donation amount":250.0,"longitude":-73.993325,"id":"a6dn0e36ouew","donor's profession":"Writer"},"type":"Feature","geometry":{"type":"Point","coordinates":[-73.993325,40.73226]}},{"properties":{"donor's last name":"Baxi","latitude":40.789685,"donor's first name":"Shrujal","y coordinate":40.789685,"donor's state":"NY","donor's city":"New York","donor's zipcode":10024.0,"x coordinate":-73.974403,"donor's street address":"210 west 89th Street","geocoding score":100.0,"donation amount":750.0,"longitude":-73.974403,"id":"a6dn0dvsn0ah","donor's profession":"Physician"},"type":"Feature","geometry":{"type":"Point","coordinates":[-73.974403,40.789685]}},{"properties":{"donor's last name":"Beal","latitude":40.72379,"donor's first name":"Daphne","y coordinate":40.72379,"donor's state":"NY","donor's city":"New York","donor's zipcode":10012.0,"x coordinate":-73.99428,"donor's street address":"262 Mott Street Apt. 205","geocoding score":100.0,"donation amount":44522.0,"longitude":-73.99428,"id":"a6dn0e6d4f2h","donor's profession":"Writer/Professor"},"type":"Feature","geometry":{"type":"Point","coordinates":[-73.99428,40.72379]}},{"properties":{"donor's last name":"Beard","latitude":40.765258,"donor's first name":null,"y coordinate":40.765258,"donor's state":"NY","donor's city":"New York","donor's zipcode":10019.0,"x coordinate":-73.986857,"donor's street address":"353 W. 53rd St. #1E","geocoding score":100.0,"donation amount":520.0,"longitude":-73.986857,"id":"a6dn0du5mphn","donor's profession":"Asst. Dir. of Procurement"},"type":"Feature","geometry":{"type":"Point","coordinates":[-73.986857,40.765258]}},{"properties":{"donor's last name":"Beatty","latitude":40.772757,"donor's first name":null,"y coordinate":40.772757,"donor's state":"NY","donor's city":"New York","donor's zipcode":10021.0,"x coordinate":-73.962987,"donor's street address":"800 Park Avenue","geocoding score":100.0,"donation amount":6981.0,"longitude":-73.962987,"id":"a6dn0dunisgx","donor's profession":"Art Dealer"},"type":"Feature","geometry":{"type":"Point","coordinates":[-73.962987,40.772757]}},{"properties":{"donor's last name":"Beavers","latitude":40.726897,"donor's first name":null,"y coordinate":40.726897,"donor's state":"NY","donor's city":"New York","donor's zipcode":10013.0,"x coordinate":-74.008594,"donor's street address":"535 Greenwich St.","geocoding score":100.0,"donation amount":275.0,"longitude":-74.008594,"id":"a6dn0e7s8k5o","donor's profession":"Education"},"type":"Feature","geometry":{"type":"Point","coordinates":[-74.008594,40.726897]}},{"properties":{"donor's last name":"Beckerman","latitude":40.735167,"donor's first name":"Stuart","y coordinate":40.735167,"donor's state":"NY","donor's city":"New York","donor's zipcode":10011.0,"x coordinate":-73.997177,"donor's street address":"55 West 11th Street","geocoding score":100.0,"donation amount":1550.0,"longitude":-73.997177,"id":"a6dn0e4u64dy","donor's profession":"Attorney"},"type":"Feature","geometry":{"type":"Point","coordinates":[-73.997177,40.735167]}},{"properties":{"donor's last name":"Bedouet","latitude":40.791542,"donor's first name":"Yvan","y coordinate":40.791542,"donor's state":"NY","donor's city":"new york","donor's zipcode":10025.0,"x coordinate":-73.967103,"donor's street address":"46 west 95th street","geocoding score":100.0,"donation amount":284.0,"longitude":-73.967103,"id":"a6dn0e2f7lsx","donor's profession":"Trader"},"type":"Feature","geometry":{"type":"Point","coordinates":[-73.967103,40.791542]}},{"properties":{"donor's last name":"Beers","latitude":40.742985,"donor's first name":null,"y coordinate":40.742985,"donor's state":"NY","donor's city":"New York","donor's zipcode":10011.0,"x coordinate":-73.995542,"donor's street address":"160 W. 22nd St. #1001","geocoding score":100.0,"donation amount":1100.0,"longitude":-73.995542,"id":"a6dn0e5l5n9n","donor's profession":"Marketing"},"type":"Feature","geometry":{"type":"Point","coordinates":[-73.995542,40.742985]}},{"properties":{"donor's last name":"Begley","latitude":40.776356,"donor's first name":null,"y coordinate":40.776356,"donor's state":"NY","donor's city":"New York","donor's zipcode":10028.0,"x coordinate":-73.959487,"donor's street address":"925 Park Avenue","geocoding score":100.0,"donation amount":2516.0,"longitude":-73.959487,"id":"a6dn0dzytvux","donor's profession":"Artist"},"type":"Feature","geometry":{"type":"Point","coordinates":[-73.959487,40.776356]}},{"properties":{"donor's last name":"Begley","latitude":40.776356,"donor's first name":"Peter","y coordinate":40.776356,"donor's state":"NY","donor's city":"New York","donor's zipcode":10028.0,"x coordinate":-73.959487,"donor's street address":"925 Park Avenue","geocoding score":100.0,"donation amount":2450.0,"longitude":-73.959487,"id":"a6dn0dsmlq2y","donor's profession":"Artist"},"type":"Feature","geometry":{"type":"Point","coordinates":[-73.959487,40.776356]}},{"properties":{"donor's last name":"Beirne","latitude":40.786541,"donor's first name":null,"y coordinate":40.786541,"donor's state":"NY","donor's city":"New York","donor's zipcode":10024.0,"x coordinate":-73.974951,"donor's street address":"160 W. 85th St., Apt. 5B","geocoding score":100.0,"donation amount":520.0,"longitude":-73.974951,"id":"a6dn0e7shhe0","donor's profession":"Vice President"},"type":"Feature","geometry":{"type":"Point","coordinates":[-73.974951,40.786541]}},{"properties":{"donor's last name":"Beirne","latitude":40.786541,"donor's first name":null,"y coordinate":40.786541,"donor's state":"NY","donor's city":"New York","donor's zipcode":10024.0,"x coordinate":-73.974951,"donor's street address":"160 W. 85th St., Apt. 5B","geocoding score":100.0,"donation amount":210.0,"longitude":-73.974951,"id":"a6dn0e6hiigy","donor's profession":"Vice President"},"type":"Feature","geometry":{"type":"Point","coordinates":[-73.974951,40.786541]}},{"properties":{"donor's last name":"Bekins","latitude":40.794496,"donor's first name":"Richard","y coordinate":40.794496,"donor's state":"NY","donor's city":"New York","donor's zipcode":10025.0,"x coordinate":-73.975948,"donor's street address":"214 Riverside DR.  #609","geocoding score":100.0,"donation amount":385.0,"longitude":-73.975948,"id":"a6dn0dvepgjp","donor's profession":"Actor"},"type":"Feature","geometry":{"type":"Point","coordinates":[-73.975948,40.794496]}},{"properties":{"donor's last name":"Bender","latitude":40.78168,"donor's first name":"Ellen","y coordinate":40.78168,"donor's state":"NY","donor's city":"New York","donor's zipcode":10128.0,"x coordinate":-73.953515,"donor's street address":"1349 Lexington Avenue, Apt. 5C","geocoding score":100.0,"donation amount":19836.0,"longitude":-73.953515,"id":"a6dn0dudy9pf","donor's profession":"Homemaker"},"type":"Feature","geometry":{"type":"Point","coordinates":[-73.953515,40.78168]}},{"properties":{"donor's last name":"Bender","latitude":40.78168,"donor's first name":null,"y coordinate":40.78168,"donor's state":"NY","donor's city":"New York","donor's zipcode":10128.0,"x coordinate":-73.953515,"donor's street address":"1349 Lexington Avenue","geocoding score":100.0,"donation amount":2290.0,"longitude":-73.953515,"id":"a6dn0dtb42ox","donor's profession":"Homemaker"},"type":"Feature","geometry":{"type":"Point","coordinates":[-73.953515,40.78168]}},{"properties":{"donor's last name":"Benenson","latitude":40.731712,"donor's first name":"Fred","y coordinate":40.731712,"donor's state":"NY","donor's city":"New York","donor's zipcode":10003.0,"x coordinate":-73.986958,"donor's street address":"219 E. 12th St","geocoding score":100.0,"donation amount":2300.0,"longitude":-73.986958,"id":"a6dn0dubnezl","donor's profession":"Associate"},"type":"Feature","geometry":{"type":"Point","coordinates":[-73.986958,40.731712]}},{"properties":{"donor's last name":"Berendt","latitude":40.787806,"donor's first name":null,"y coordinate":40.787806,"donor's state":"NY","donor's city":"New York","donor's zipcode":10024.0,"x coordinate":-73.972645,"donor's street address":"135 West 87 Street","geocoding score":100.0,"donation amount":2300.0,"longitude":-73.972645,"id":"a6dn0e2vjzt8","donor's profession":"Writer"},"type":"Feature","geometry":{"type":"Point","coordinates":[-73.972645,40.787806]}},{"properties":{"donor's last name":"Bergman","latitude":40.74687,"donor's first name":"Eddie","y coordinate":40.74687,"donor's state":"NY","donor's city":"New York","donor's zipcode":10016.0,"x coordinate":-73.979702,"donor's street address":"132 East 35 Street, 2F","geocoding score":100.0,"donation amount":250.0,"longitude":-73.979702,"id":"a6dn0e5edfm4","donor's profession":"Executive Director"},"type":"Feature","geometry":{"type":"Point","coordinates":[-73.979702,40.74687]}},{"properties":{"donor's last name":"Berlin","latitude":40.790171,"donor's first name":"Lorraine","y coordinate":40.790171,"donor's state":"NY","donor's city":"New York","donor's zipcode":10024.0,"x coordinate":-73.979756,"donor's street address":"140 Riverside Drive","geocoding score":100.0,"donation amount":850.0,"longitude":-73.979756,"id":"a6dn0e2a4lch","donor's profession":"Antiques Dealer"},"type":"Feature","geometry":{"type":"Point","coordinates":[-73.979756,40.790171]}},{"properties":{"donor's last name":"Berne","latitude":40.719431,"donor's first name":null,"y coordinate":40.719431,"donor's state":"NY","donor's city":"New York","donor's zipcode":10013.0,"x coordinate":-74.005712,"donor's street address":"4 White St. Apt. 3B","geocoding score":100.0,"donation amount":3564.0,"longitude":-74.005712,"id":"a6dn0e7ix760","donor's profession":"Writer"},"type":"Feature","geometry":{"type":"Point","coordinates":[-74.005712,40.719431]}},{"properties":{"donor's last name":"Bernett","latitude":40.731767,"donor's first name":null,"y coordinate":40.731767,"donor's state":"NY","donor's city":"New York","donor's zipcode":10014.0,"x coordinate":-74.001678,"donor's street address":"7 Cornelia Street","geocoding score":100.0,"donation amount":410.0,"longitude":-74.001678,"id":"a6dn0duy288s","donor's profession":"Designer"},"type":"Feature","geometry":{"type":"Point","coordinates":[-74.001678,40.731767]}},{"properties":{"donor's last name":"Bernstein","latitude":40.77135,"donor's first name":"Peter","y coordinate":40.77135,"donor's state":"NY","donor's city":"New York","donor's zipcode":10021.0,"x coordinate":-73.96521,"donor's street address":"30 East 72nd Street","geocoding score":100.0,"donation amount":500.0,"longitude":-73.96521,"id":"a6dn0e10fk6g","donor's profession":"Editor"},"type":"Feature","geometry":{"type":"Point","coordinates":[-73.96521,40.77135]}},{"properties":{"donor's last name":"Bernstein","latitude":40.743763,"donor's first name":null,"y coordinate":40.743763,"donor's state":"NY","donor's city":"New York","donor's zipcode":10011.0,"x coordinate":-73.996488,"donor's street address":"209 West 22nd Street","geocoding score":100.0,"donation amount":5250.0,"longitude":-73.996488,"id":"a6dn0e0e5um4","donor's profession":"Owner/VP"},"type":"Feature","geometry":{"type":"Point","coordinates":[-73.996488,40.743763]}},{"properties":{"donor's last name":"Bernstein","latitude":40.792219,"donor's first name":"Roger","y coordinate":40.792219,"donor's state":"NY","donor's city":"New York","donor's zipcode":10025.0,"x coordinate":-73.966765,"donor's street address":"50 West 96th Street","geocoding score":100.0,"donation amount":14694.0,"longitude":-73.966765,"id":"a6dn0dyn77hc","donor's profession":"Attorney"},"type":"Feature","geometry":{"type":"Point","coordinates":[-73.966765,40.792219]}},{"properties":{"donor's last name":"Berry","latitude":40.782404,"donor's first name":"Nathan","y coordinate":40.782404,"donor's state":"NY","donor's city":"New York","donor's zipcode":10024.0,"x coordinate":-73.979285,"donor's street address":"202 W. 78th St. #4E","geocoding score":100.0,"donation amount":2200.0,"longitude":-73.979285,"id":"a6dn0dw07dvn","donor's profession":"Conservationist"},"type":"Feature","geometry":{"type":"Point","coordinates":[-73.979285,40.782404]}},{"properties":{"donor's last name":"Best","latitude":40.726673,"donor's first name":null,"y coordinate":40.726673,"donor's state":"NY","donor's city":"New York","donor's zipcode":10014.0,"x coordinate":-74.003876,"donor's street address":"2 Charlton St","geocoding score":100.0,"donation amount":2073.0,"longitude":-74.003876,"id":"a6dn0dvwi29e","donor's profession":"Account Manager"},"type":"Feature","geometry":{"type":"Point","coordinates":[-74.003876,40.726673]}},{"properties":{"donor's last name":"Best","latitude":40.726673,"donor's first name":"Alan","y coordinate":40.726673,"donor's state":"NY","donor's city":"New York","donor's zipcode":10014.0,"x coordinate":-74.003876,"donor's street address":"2 Charlton St.","geocoding score":100.0,"donation amount":1599.0,"longitude":-74.003876,"id":"a6dn0e6x2ip2","donor's profession":"Account Manager"},"type":"Feature","geometry":{"type":"Point","coordinates":[-74.003876,40.726673]}},{"properties":{"donor's last name":"Bhagwati","latitude":40.809464,"donor's first name":"Jagdish","y coordinate":40.809464,"donor's state":"NY","donor's city":"New York","donor's zipcode":10027.0,"x coordinate":-73.964481,"donor's street address":"25 Claremont Avenue","geocoding score":100.0,"donation amount":5300.0,"longitude":-73.964481,"id":"a6dn0e3oh001","donor's profession":"Professor"},"type":"Feature","geometry":{"type":"Point","coordinates":[-73.964481,40.809464]}},{"properties":{"donor's last name":"Bhalla","latitude":40.76778,"donor's first name":"Mona","y coordinate":40.76778,"donor's state":"NY","donor's city":"New York","donor's zipcode":10019.0,"x coordinate":-73.984294,"donor's street address":"333 West 57th Street","geocoding score":100.0,"donation amount":500.0,"longitude":-73.984294,"id":"a6dn0dv450sk","donor's profession":"Attorney"},"type":"Feature","geometry":{"type":"Point","coordinates":[-73.984294,40.76778]}},{"properties":{"donor's last name":"Bhatt","latitude":40.744122,"donor's first name":"Kartikeya","y coordinate":40.744122,"donor's state":"NY","donor's city":"New York","donor's zipcode":10016.0,"x coordinate":-73.977638,"donor's street address":"233 E. 32nd St Apt 5G","geocoding score":100.0,"donation amount":1000.0,"longitude":-73.977638,"id":"a6dn0e033phf","donor's profession":"Research Analyst"},"type":"Feature","geometry":{"type":"Point","coordinates":[-73.977638,40.744122]}},{"properties":{"donor's last name":"Biddelman","latitude":40.782693,"donor's first name":"Paul","y coordinate":40.782693,"donor's state":"NY","donor's city":"New York","donor's zipcode":10024.0,"x coordinate":-73.972675,"donor's street address":"15 West 81 Street","geocoding score":100.0,"donation amount":7100.0,"longitude":-73.972675,"id":"a6dn0du1hf6z","donor's profession":"Investment Manager"},"type":"Feature","geometry":{"type":"Point","coordinates":[-73.972675,40.782693]}},{"properties":{"donor's last name":"Biggs","latitude":40.752897,"donor's first name":"John","y coordinate":40.752897,"donor's state":"NY","donor's city":"New York","donor's zipcode":10017.0,"x coordinate":-73.970367,"donor's street address":"240 East 47th St, Apt. 23-D","geocoding score":100.0,"donation amount":2300.0,"longitude":-73.970367,"id":"a6dn0e6j7scw","donor's profession":"Not employed"},"type":"Feature","geometry":{"type":"Point","coordinates":[-73.970367,40.752897]}},{"properties":{"donor's last name":"Biggs","latitude":40.752897,"donor's first name":"Penelope","y coordinate":40.752897,"donor's state":"NY","donor's city":"New York","donor's zipcode":10017.0,"x coordinate":-73.970367,"donor's street address":"240 East 47th Street","geocoding score":100.0,"donation amount":2300.0,"longitude":-73.970367,"id":"a6dn0e0v1m37","donor's profession":"Retired"},"type":"Feature","geometry":{"type":"Point","coordinates":[-73.970367,40.752897]}},{"properties":{"donor's last name":"Binstock","latitude":40.780805,"donor's first name":"Ann","y coordinate":40.780805,"donor's state":"NY","donor's city":"New York","donor's zipcode":10023.0,"x coordinate":-73.985177,"donor's street address":"5 Riverside Drive #6E","geocoding score":100.0,"donation amount":250.0,"longitude":-73.985177,"id":"a6dn0dx98hz3","donor's profession":"Editor"},"type":"Feature","geometry":{"type":"Point","coordinates":[-73.985177,40.780805]}},{"properties":{"donor's last name":"Biondolillo","latitude":40.740783,"donor's first name":null,"y coordinate":40.740783,"donor's state":"NY","donor's city":"New York","donor's zipcode":10011.0,"x coordinate":-73.999625,"donor's street address":"226 W 17th st","geocoding score":100.0,"donation amount":225.0,"longitude":-73.999625,"id":"a6dn0dvq0769","donor's profession":"GM"},"type":"Feature","geometry":{"type":"Point","coordinates":[-73.999625,40.740783]}},{"properties":{"donor's last name":"Bisat","latitude":40.790109,"donor's first name":"Amer","y coordinate":40.790109,"donor's state":"NY","donor's city":"New York","donor's zipcode":10025.0,"x coordinate":-73.966397,"donor's street address":"333 Central Park West","geocoding score":100.0,"donation amount":500.0,"longitude":-73.966397,"id":"a6dn0dsdjec5","donor's profession":"Partner"},"type":"Feature","geometry":{"type":"Point","coordinates":[-73.966397,40.790109]}},{"properties":{"donor's last name":"Bishop","latitude":40.707267,"donor's first name":"Lloyd","y coordinate":40.707267,"donor's state":"NY","donor's city":"New York","donor's zipcode":10280.0,"x coordinate":-74.017639,"donor's street address":"70 Battery Place, Apt. 210","geocoding score":100.0,"donation amount":250.0,"longitude":-74.017639,"id":"a6dn0dy6ksce","donor's profession":"Vice President, Community Health Initi"},"type":"Feature","geometry":{"type":"Point","coordinates":[-74.017639,40.707267]}},{"properties":{"donor's last name":"Bittman","latitude":40.748676,"donor's first name":"Betsy","y coordinate":40.748676,"donor's state":"NY","donor's city":"New York","donor's zipcode":10017.0,"x coordinate":-73.970561,"donor's street address":"25 Tudor City Place","geocoding score":100.0,"donation amount":208.0,"longitude":-73.970561,"id":"a6dn0dx74djq","donor's profession":"Physician"},"type":"Feature","geometry":{"type":"Point","coordinates":[-73.970561,40.748676]}},{"properties":{"donor's last name":"Blair","latitude":40.737372,"donor's first name":"Francis","y coordinate":40.737372,"donor's state":"NY","donor's city":"New York","donor's zipcode":10011.0,"x coordinate":-74.000182,"donor's street address":"175 W. 12th Street","geocoding score":100.0,"donation amount":1000.0,"longitude":-74.000182,"id":"a6dn0e85kf41","donor's profession":"Investment Analyst"},"type":"Feature","geometry":{"type":"Point","coordinates":[-74.000182,40.737372]}},{"properties":{"donor's last name":"Block","latitude":40.783793,"donor's first name":"Nancy","y coordinate":40.783793,"donor's state":"NY","donor's city":"New York","donor's zipcode":10128.0,"x coordinate":-73.95342,"donor's street address":"115 East 92nd Street","geocoding score":100.0,"donation amount":2160.0,"longitude":-73.95342,"id":"a6dn0e4bsbzj","donor's profession":"Associate"},"type":"Feature","geometry":{"type":"Point","coordinates":[-73.95342,40.783793]}},{"properties":{"donor's last name":"Bluestone","latitude":40.769711,"donor's first name":null,"y coordinate":40.769711,"donor's state":"NY","donor's city":"new york","donor's zipcode":10021.0,"x coordinate":-73.959044,"donor's street address":"220 east 73 street, apt 12b","geocoding score":100.0,"donation amount":275.0,"longitude":-73.959044,"id":"a6dn0dwlqtsv","donor's profession":"Not employed"},"type":"Feature","geometry":{"type":"Point","coordinates":[-73.959044,40.769711]}},{"properties":{"donor's last name":"Bluestone","latitude":40.769711,"donor's first name":null,"y coordinate":40.769711,"donor's state":"NY","donor's city":"new york","donor's zipcode":10021.0,"x coordinate":-73.959044,"donor's street address":"220 east 73 street, apt 12b","geocoding score":100.0,"donation amount":750.0,"longitude":-73.959044,"id":"a6dn0dxnccfb","donor's profession":"Not employed"},"type":"Feature","geometry":{"type":"Point","coordinates":[-73.959044,40.769711]}},{"properties":{"donor's last name":"Blum","latitude":40.737699,"donor's first name":"Carolyn","y coordinate":40.737699,"donor's state":"NY","donor's city":"New York","donor's zipcode":10014.0,"x coordinate":-74.004254,"donor's street address":"291 w. 12th st.","geocoding score":100.0,"donation amount":4800.0,"longitude":-74.004254,"id":"a6dn0dvnhwy0","donor's profession":"Consultant"},"type":"Feature","geometry":{"type":"Point","coordinates":[-74.004254,40.737699]}},{"properties":{"donor's last name":"Bodnar","latitude":40.779657,"donor's first name":null,"y coordinate":40.779657,"donor's state":"NY","donor's city":"New York","donor's zipcode":10128.0,"x coordinate":-73.952919,"donor's street address":"201 E 87th St","geocoding score":100.0,"donation amount":933.0,"longitude":-73.952919,"id":"a6dn0dtylhmy","donor's profession":"Court Reporter"},"type":"Feature","geometry":{"type":"Point","coordinates":[-73.952919,40.779657]}},{"properties":{"donor's last name":"Bogner","latitude":40.76879,"donor's first name":"Michael","y coordinate":40.76879,"donor's state":"NY","donor's city":"New York","donor's zipcode":10021.0,"x coordinate":-73.956858,"donor's street address":"320 E. 73 Street, Apt. 1RW","geocoding score":100.0,"donation amount":1150.0,"longitude":-73.956858,"id":"a6dn0dz6uorp","donor's profession":"Attorney"},"type":"Feature","geometry":{"type":"Point","coordinates":[-73.956858,40.76879]}},{"properties":{"donor's last name":"Bokhour","latitude":40.7924,"donor's first name":"Raymond","y coordinate":40.7924,"donor's state":"NY","donor's city":"New York","donor's zipcode":10024.0,"x coordinate":-73.976809,"donor's street address":"186 Riverside Drive #2A","geocoding score":100.0,"donation amount":2200.0,"longitude":-73.976809,"id":"a6dn0e19kutt","donor's profession":"Actor"},"type":"Feature","geometry":{"type":"Point","coordinates":[-73.976809,40.7924]}},{"properties":{"donor's last name":"Bol","latitude":40.727545,"donor's first name":"Jennifer","y coordinate":40.727545,"donor's state":"NY","donor's city":"new york","donor's zipcode":10012.0,"x coordinate":-73.994523,"donor's street address":"682 broadway #9b","geocoding score":100.0,"donation amount":500.0,"longitude":-73.994523,"id":"a6dn0dufxifn","donor's profession":"Executive Recruiter"},"type":"Feature","geometry":{"type":"Point","coordinates":[-73.994523,40.727545]}},{"properties":{"donor's last name":"Bonetti Marcus","latitude":40.780868,"donor's first name":"Claudina","y coordinate":40.780868,"donor's state":"NY","donor's city":"New York","donor's zipcode":10028.0,"x coordinate":-73.957269,"donor's street address":"1050 Park Avenue","geocoding score":100.0,"donation amount":250.0,"longitude":-73.957269,"id":"a6dn0e6qfyb9","donor's profession":"Not employed"},"type":"Feature","geometry":{"type":"Point","coordinates":[-73.957269,40.780868]}},{"properties":{"donor's last name":"Bonita","latitude":40.778215,"donor's first name":null,"y coordinate":40.778215,"donor's state":"NY","donor's city":"New York","donor's zipcode":10023.0,"x coordinate":-73.977963,"donor's street address":"67 West 73rd St","geocoding score":100.0,"donation amount":2150.0,"longitude":-73.977963,"id":"a6dn0dzzykzj","donor's profession":"Financial Services"},"type":"Feature","geometry":{"type":"Point","coordinates":[-73.977963,40.778215]}},{"properties":{"donor's last name":"Bonita","latitude":40.778215,"donor's first name":"David","y coordinate":40.778215,"donor's state":"NY","donor's city":"New York","donor's zipcode":10023.0,"x coordinate":-73.977963,"donor's street address":"67 West 73rd St","geocoding score":100.0,"donation amount":7100.0,"longitude":-73.977963,"id":"a6dn0drqjd0i","donor's profession":"Financial Services"},"type":"Feature","geometry":{"type":"Point","coordinates":[-73.977963,40.778215]}},{"properties":{"donor's last name":"Boothroyd","latitude":40.745442,"donor's first name":null,"y coordinate":40.745442,"donor's state":"NY","donor's city":"New York","donor's zipcode":10011.0,"x coordinate":-74.001476,"donor's street address":"360 West 22nd Street Apt 7F","geocoding score":100.0,"donation amount":556.0,"longitude":-74.001476,"id":"a6dn0e5bto0p","donor's profession":"Actor/Admin"},"type":"Feature","geometry":{"type":"Point","coordinates":[-74.001476,40.745442]}},{"properties":{"donor's last name":"Boothroyd","latitude":40.745442,"donor's first name":null,"y coordinate":40.745442,"donor's state":"NY","donor's city":"New York","donor's zipcode":10011.0,"x coordinate":-74.001476,"donor's street address":"360 West 22nd Street Apt 7F","geocoding score":100.0,"donation amount":207.0,"longitude":-74.001476,"id":"a6dn0e1pwiph","donor's profession":"Actor/Admin"},"type":"Feature","geometry":{"type":"Point","coordinates":[-74.001476,40.745442]}},{"properties":{"donor's last name":"Bot-Miller","latitude":40.734617,"donor's first name":null,"y coordinate":40.734617,"donor's state":"NY","donor's city":"New York","donor's zipcode":10014.0,"x coordinate":-74.006385,"donor's street address":"535 Hudson Street","geocoding score":100.0,"donation amount":900.0,"longitude":-74.006385,"id":"a6dn0dyukook","donor's profession":"Real Estate Private Equity"},"type":"Feature","geometry":{"type":"Point","coordinates":[-74.006385,40.734617]}},{"properties":{"donor's last name":"Boutris","latitude":40.775537,"donor's first name":null,"y coordinate":40.775537,"donor's state":"NY","donor's city":"New York","donor's zipcode":10023.0,"x coordinate":-73.981709,"donor's street address":"2000 Broadway","geocoding score":100.0,"donation amount":2300.0,"longitude":-73.981709,"id":"a6dn0e5p88ds","donor's profession":"Business Executive, Attorney"},"type":"Feature","geometry":{"type":"Point","coordinates":[-73.981709,40.775537]}},{"properties":{"donor's last name":"Boyajy","latitude":40.78164,"donor's first name":"Evan","y coordinate":40.78164,"donor's state":"NY","donor's city":"New York","donor's zipcode":10128.0,"x coordinate":-73.948316,"donor's street address":"305 East 92nd Street","geocoding score":100.0,"donation amount":1850.0,"longitude":-73.948316,"id":"a6dn0e5tc70n","donor's profession":"Filmmaker"},"type":"Feature","geometry":{"type":"Point","coordinates":[-73.948316,40.78164]}},{"properties":{"donor's last name":"Brackman","latitude":40.736959,"donor's first name":"Jessica","y coordinate":40.736959,"donor's state":"NY","donor's city":"New York","donor's zipcode":10011.0,"x coordinate":-73.998652,"donor's street address":"124 West 13th St.","geocoding score":100.0,"donation amount":8400.0,"longitude":-73.998652,"id":"a6dn0dygq54g","donor's profession":"Consultant"},"type":"Feature","geometry":{"type":"Point","coordinates":[-73.998652,40.736959]}},{"properties":{"donor's last name":"Bradbury","latitude":40.742495,"donor's first name":"Kate","y coordinate":40.742495,"donor's state":"NY","donor's city":"new york","donor's zipcode":10010.0,"x coordinate":-73.992859,"donor's street address":"60 w 23rd st","geocoding score":100.0,"donation amount":500.0,"longitude":-73.992859,"id":"a6dn0e6akybt","donor's profession":"Creative Director"},"type":"Feature","geometry":{"type":"Point","coordinates":[-73.992859,40.742495]}},{"properties":{"donor's last name":"Bradley","latitude":40.811854,"donor's first name":null,"y coordinate":40.811854,"donor's state":"NY","donor's city":"New York","donor's zipcode":10027.0,"x coordinate":-73.952082,"donor's street address":"327 St. Nicholas Avenue","geocoding score":100.0,"donation amount":460.0,"longitude":-73.952082,"id":"a6dn0drvtgyb","donor's profession":"Not employed"},"type":"Feature","geometry":{"type":"Point","coordinates":[-73.952082,40.811854]}},{"properties":{"donor's last name":"Bratt","latitude":40.728165,"donor's first name":"Joanna","y coordinate":40.728165,"donor's state":"NY","donor's city":"NEW YORK","donor's zipcode":10003.0,"x coordinate":-73.989092,"donor's street address":"36 E. 7th Street","geocoding score":100.0,"donation amount":1500.0,"longitude":-73.989092,"id":"a6dn0e3t6y9y","donor's profession":"Lawyer"},"type":"Feature","geometry":{"type":"Point","coordinates":[-73.989092,40.728165]}},{"properties":{"donor's last name":"Brennan","latitude":40.783663,"donor's first name":null,"y coordinate":40.783663,"donor's state":"NY","donor's city":"New York","donor's zipcode":10024.0,"x coordinate":-73.973013,"donor's street address":"41 W 82nd St","geocoding score":100.0,"donation amount":1500.0,"longitude":-73.973013,"id":"a6dn0e6xvnxg","donor's profession":"Attorney"},"type":"Feature","geometry":{"type":"Point","coordinates":[-73.973013,40.783663]}},{"properties":{"donor's last name":"Brey","latitude":40.782478,"donor's first name":null,"y coordinate":40.782478,"donor's state":"NY","donor's city":"NEW YORK","donor's zipcode":10024.0,"x coordinate":-73.97751,"donor's street address":"150 West 79th Street #9E","geocoding score":100.0,"donation amount":500.0,"longitude":-73.97751,"id":"a6dn0e7yr108","donor's profession":"Musician"},"type":"Feature","geometry":{"type":"Point","coordinates":[-73.97751,40.782478]}},{"properties":{"donor's last name":"Brill","latitude":40.727421,"donor's first name":"Sophia","y coordinate":40.727421,"donor's state":"NY","donor's city":"New York","donor's zipcode":10003.0,"x coordinate":-73.988148,"donor's street address":"104 Second Ave Apt 6","geocoding score":100.0,"donation amount":2198.0,"longitude":-73.988148,"id":"a6dn0dty1wyr","donor's profession":"Paralegal"},"type":"Feature","geometry":{"type":"Point","coordinates":[-73.988148,40.727421]}},{"properties":{"donor's last name":"Brill","latitude":40.727421,"donor's first name":null,"y coordinate":40.727421,"donor's state":"NY","donor's city":"New York","donor's zipcode":10003.0,"x coordinate":-73.988148,"donor's street address":"104 Second Ave","geocoding score":100.0,"donation amount":3398.0,"longitude":-73.988148,"id":"a6dn0dy7q818","donor's profession":"Paralegal"},"type":"Feature","geometry":{"type":"Point","coordinates":[-73.988148,40.727421]}},{"properties":{"donor's last name":"Brill","latitude":40.727421,"donor's first name":null,"y coordinate":40.727421,"donor's state":"NY","donor's city":"New York","donor's zipcode":10003.0,"x coordinate":-73.988148,"donor's street address":"104 Second Ave","geocoding score":100.0,"donation amount":1349.0,"longitude":-73.988148,"id":"a6dn0dt79l62","donor's profession":"Paralegal"},"type":"Feature","geometry":{"type":"Point","coordinates":[-73.988148,40.727421]}},{"properties":{"donor's last name":"Broderick","latitude":40.760193,"donor's first name":null,"y coordinate":40.760193,"donor's state":"NY","donor's city":"New York","donor's zipcode":10036.0,"x coordinate":-73.990257,"donor's street address":"349 W. 45 St. Apt. 5RW","geocoding score":100.0,"donation amount":1600.0,"longitude":-73.990257,"id":"a6dn0e366ljx","donor's profession":"Temp"},"type":"Feature","geometry":{"type":"Point","coordinates":[-73.990257,40.760193]}},{"properties":{"donor's last name":"Brodie","latitude":40.77053,"donor's first name":"Thomas","y coordinate":40.77053,"donor's state":"NY","donor's city":"New York","donor's zipcode":10021.0,"x coordinate":-73.963237,"donor's street address":"114 East 72nd Street","geocoding score":100.0,"donation amount":2550.0,"longitude":-73.963237,"id":"a6dn0e3e57yw","donor's profession":"Real Estate"},"type":"Feature","geometry":{"type":"Point","coordinates":[-73.963237,40.77053]}},{"properties":{"donor's last name":"Brodie","latitude":40.736778,"donor's first name":"Tyler","y coordinate":40.736778,"donor's state":"NY","donor's city":"New York","donor's zipcode":10011.0,"x coordinate":-73.99823,"donor's street address":"112 W 13th St","geocoding score":100.0,"donation amount":13800.0,"longitude":-73.99823,"id":"a6dn0e4t5phh","donor's profession":"Information Requested"},"type":"Feature","geometry":{"type":"Point","coordinates":[-73.99823,40.736778]}},{"properties":{"donor's last name":"Brokaw","latitude":40.776974,"donor's first name":null,"y coordinate":40.776974,"donor's state":"NY","donor's city":"new york","donor's zipcode":10028.0,"x coordinate":-73.959003,"donor's street address":"941 park Av","geocoding score":100.0,"donation amount":600.0,"longitude":-73.959003,"id":"a6dn0e6z0uxm","donor's profession":"Not employed"},"type":"Feature","geometry":{"type":"Point","coordinates":[-73.959003,40.776974]}},{"properties":{"donor's last name":"Broudy","latitude":40.742261,"donor's first name":"Norman","y coordinate":40.742261,"donor's state":"NY","donor's city":"New Yrork","donor's zipcode":10011.0,"x coordinate":-73.997087,"donor's street address":"200 W 20th St","geocoding score":94.0,"donation amount":250.0,"longitude":-73.997087,"id":"a6dn0e5s924n","donor's profession":"Not employed"},"type":"Feature","geometry":{"type":"Point","coordinates":[-73.997087,40.742261]}},{"properties":{"donor's last name":"Brown","latitude":40.769664,"donor's first name":null,"y coordinate":40.769664,"donor's state":"NY","donor's city":"New York","donor's zipcode":10021.0,"x coordinate":-73.959687,"donor's street address":"215 E. 72nd St 10W","geocoding score":100.0,"donation amount":2775.0,"longitude":-73.959687,"id":"a6dn0e5delva","donor's profession":"Academic"},"type":"Feature","geometry":{"type":"Point","coordinates":[-73.959687,40.769664]}},{"properties":{"donor's last name":"Brown","latitude":40.769664,"donor's first name":"Abigail","y coordinate":40.769664,"donor's state":"NY","donor's city":"New York","donor's zipcode":10021.0,"x coordinate":-73.959687,"donor's street address":"215 E. 72nd St 10W","geocoding score":100.0,"donation amount":1900.0,"longitude":-73.959687,"id":"a6dn0dv8zxef","donor's profession":"Academic"},"type":"Feature","geometry":{"type":"Point","coordinates":[-73.959687,40.769664]}},{"properties":{"donor's last name":"Brown","latitude":40.737476,"donor's first name":null,"y coordinate":40.737476,"donor's state":"NY","donor's city":"New York","donor's zipcode":10003.0,"x coordinate":-73.988908,"donor's street address":"222 Park Aveneue South # 11-B","geocoding score":100.0,"donation amount":250.0,"longitude":-73.988908,"id":"a6dn0dzxt2k0","donor's profession":"Architect"},"type":"Feature","geometry":{"type":"Point","coordinates":[-73.988908,40.737476]}},{"properties":{"donor's last name":"Brown","latitude":40.80416,"donor's first name":null,"y coordinate":40.80416,"donor's state":"NY","donor's city":"New York","donor's zipcode":10025.0,"x coordinate":-73.963945,"donor's street address":"507 West 111th Street #22","geocoding score":100.0,"donation amount":520.0,"longitude":-73.963945,"id":"a6dn0e5b9ydr","donor's profession":"Alumni Relations"},"type":"Feature","geometry":{"type":"Point","coordinates":[-73.963945,40.80416]}},{"properties":{"donor's last name":"Brown","latitude":40.71607,"donor's first name":"Philip","y coordinate":40.71607,"donor's state":"NY","donor's city":"New York","donor's zipcode":10007.0,"x coordinate":-74.009949,"donor's street address":"155 Chambers Street","geocoding score":100.0,"donation amount":500.0,"longitude":-74.009949,"id":"a6dn0e0i8vps","donor's profession":"Analyst"},"type":"Feature","geometry":{"type":"Point","coordinates":[-74.009949,40.71607]}},{"properties":{"donor's last name":"Brown","latitude":40.734988,"donor's first name":null,"y coordinate":40.734988,"donor's state":"NY","donor's city":"New York","donor's zipcode":10003.0,"x coordinate":-73.982175,"donor's street address":"314 East 19th Street","geocoding score":100.0,"donation amount":225.0,"longitude":-73.982175,"id":"a6dn0dyh16oo","donor's profession":"Non-Profit Manager"},"type":"Feature","geometry":{"type":"Point","coordinates":[-73.982175,40.734988]}},{"properties":{"donor's last name":"Bryan","latitude":40.8025,"donor's first name":"Craigh","y coordinate":40.8025,"donor's state":"NY","donor's city":"New York","donor's zipcode":10026.0,"x coordinate":-73.95224,"donor's street address":"100 saint nicholas avenue, apartme","geocoding score":100.0,"donation amount":6575.0,"longitude":-73.95224,"id":"a6dn0e4hlx8g","donor's profession":"Physician"},"type":"Feature","geometry":{"type":"Point","coordinates":[-73.95224,40.8025]}},{"properties":{"donor's last name":"Bryan","latitude":40.768393,"donor's first name":null,"y coordinate":40.768393,"donor's state":"NY","donor's city":"New York","donor's zipcode":10021.0,"x coordinate":-73.960501,"donor's street address":"211 East 70th Street","geocoding score":100.0,"donation amount":1800.0,"longitude":-73.960501,"id":"a6dn0dwy9dkc","donor's profession":"Consultant"},"type":"Feature","geometry":{"type":"Point","coordinates":[-73.960501,40.768393]}},{"properties":{"donor's last name":"Bryan","latitude":40.768393,"donor's first name":"Wilhelmus","y coordinate":40.768393,"donor's state":"NY","donor's city":"New York","donor's zipcode":10021.0,"x coordinate":-73.960501,"donor's street address":"211 East 70th Street","geocoding score":100.0,"donation amount":2300.0,"longitude":-73.960501,"id":"a6dn0dsfz23i","donor's profession":"Consultant"},"type":"Feature","geometry":{"type":"Point","coordinates":[-73.960501,40.768393]}},{"properties":{"donor's last name":"Buckner","latitude":40.781184,"donor's first name":"Elizabeth","y coordinate":40.781184,"donor's state":"NY","donor's city":"new york","donor's zipcode":10023.0,"x coordinate":-73.983085,"donor's street address":"300 west end ave","geocoding score":100.0,"donation amount":2300.0,"longitude":-73.983085,"id":"a6dn0dyn489p","donor's profession":"Psychotherapist"},"type":"Feature","geometry":{"type":"Point","coordinates":[-73.983085,40.781184]}},{"properties":{"donor's last name":"Buckner","latitude":40.781184,"donor's first name":null,"y coordinate":40.781184,"donor's state":"NY","donor's city":"new york","donor's zipcode":10023.0,"x coordinate":-73.983085,"donor's street address":"300 west end ave","geocoding score":100.0,"donation amount":13800.0,"longitude":-73.983085,"id":"a6dn0e77ypgp","donor's profession":"Psychotherapist"},"type":"Feature","geometry":{"type":"Point","coordinates":[-73.983085,40.781184]}},{"properties":{"donor's last name":"Buckworth","latitude":40.807874,"donor's first name":null,"y coordinate":40.807874,"donor's state":"NY","donor's city":"new york","donor's zipcode":10025.0,"x coordinate":-73.966264,"donor's street address":"425 riverside drive","geocoding score":100.0,"donation amount":780.0,"longitude":-73.966264,"id":"a6dn0dw92j5e","donor's profession":"Broker"},"type":"Feature","geometry":{"type":"Point","coordinates":[-73.966264,40.807874]}},{"properties":{"donor's last name":"Bukszpan","latitude":40.785359,"donor's first name":"Albert","y coordinate":40.785359,"donor's state":"NY","donor's city":"New York","donor's zipcode":10024.0,"x coordinate":-73.970373,"donor's street address":"10 W 86th St","geocoding score":100.0,"donation amount":600.0,"longitude":-73.970373,"id":"a6dn0e41bmdi","donor's profession":null},"type":"Feature","geometry":{"type":"Point","coordinates":[-73.970373,40.785359]}},{"properties":{"donor's last name":"Bulgarella","latitude":40.787388,"donor's first name":null,"y coordinate":40.787388,"donor's state":"NY","donor's city":"New York","donor's zipcode":10024.0,"x coordinate":-73.969726,"donor's street address":"39 West 88th Street #4","geocoding score":100.0,"donation amount":4136.0,"longitude":-73.969726,"id":"a6dn0dyzxw0m","donor's profession":"Consultant"},"type":"Feature","geometry":{"type":"Point","coordinates":[-73.969726,40.787388]}},{"properties":{"donor's last name":"Bulgarella","latitude":40.787388,"donor's first name":null,"y coordinate":40.787388,"donor's state":"NY","donor's city":"New York","donor's zipcode":10024.0,"x coordinate":-73.969726,"donor's street address":"39 West 88th Street #4","geocoding score":100.0,"donation amount":2517.0,"longitude":-73.969726,"id":"a6dn0dyqbkro","donor's profession":"Consultant"},"type":"Feature","geometry":{"type":"Point","coordinates":[-73.969726,40.787388]}},{"properties":{"donor's last name":"Bullock","latitude":40.782328,"donor's first name":null,"y coordinate":40.782328,"donor's state":"NY","donor's city":"New York","donor's zipcode":10024.0,"x coordinate":-73.977157,"donor's street address":"140 West 79th Street","geocoding score":100.0,"donation amount":350.0,"longitude":-73.977157,"id":"a6dn0dxc0v63","donor's profession":"Project Manager"},"type":"Feature","geometry":{"type":"Point","coordinates":[-73.977157,40.782328]}},{"properties":{"donor's last name":"Burke","latitude":40.774886,"donor's first name":"Linda","y coordinate":40.774886,"donor's state":"NY","donor's city":"New York","donor's zipcode":10028.0,"x coordinate":-73.955187,"donor's street address":"230 East 81st Street, #4D","geocoding score":100.0,"donation amount":2356.0,"longitude":-73.955187,"id":"a6dn0e0kqgte","donor's profession":"Student"},"type":"Feature","geometry":{"type":"Point","coordinates":[-73.955187,40.774886]}},{"properties":{"donor's last name":"Burkett","latitude":40.747738,"donor's first name":null,"y coordinate":40.747738,"donor's state":"NY","donor's city":"New York","donor's zipcode":10016.0,"x coordinate":-73.979538,"donor's street address":"120 East 36th Street, #2H","geocoding score":100.0,"donation amount":250.0,"longitude":-73.979538,"id":"a6dn0e01ahzr","donor's profession":"Not employed"},"type":"Feature","geometry":{"type":"Point","coordinates":[-73.979538,40.747738]}},{"properties":{"donor's last name":"Burnett","latitude":40.732562,"donor's first name":"Kimberley","y coordinate":40.732562,"donor's state":"NY","donor's city":"New York","donor's zipcode":10003.0,"x coordinate":-73.988632,"donor's street address":"125 E 12th Street #3D","geocoding score":100.0,"donation amount":2500.0,"longitude":-73.988632,"id":"a6dn0dsrv21h","donor's profession":"Program Officer"},"type":"Feature","geometry":{"type":"Point","coordinates":[-73.988632,40.732562]}},{"properties":{"donor's last name":"Burnham","latitude":40.761989,"donor's first name":"Jon","y coordinate":40.761989,"donor's state":"NY","donor's city":"New York","donor's zipcode":10019.0,"x coordinate":-73.978861,"donor's street address":"1325 Ave. of the Americas","geocoding score":100.0,"donation amount":4600.0,"longitude":-73.978861,"id":"a6dn0dz4h6cj","donor's profession":"Money Manager"},"type":"Feature","geometry":{"type":"Point","coordinates":[-73.978861,40.761989]}},{"properties":{"donor's last name":"Burnham","latitude":40.733968,"donor's first name":null,"y coordinate":40.733968,"donor's state":"NY","donor's city":"New York","donor's zipcode":10011.0,"x coordinate":-73.995522,"donor's street address":"40 Fifth Ave","geocoding score":100.0,"donation amount":2300.0,"longitude":-73.995522,"id":"a6dn0dwzshk8","donor's profession":"Venture Capital"},"type":"Feature","geometry":{"type":"Point","coordinates":[-73.995522,40.733968]}},{"properties":{"donor's last name":"Burrell","latitude":40.707633,"donor's first name":"David","y coordinate":40.707633,"donor's state":"NY","donor's city":"new york","donor's zipcode":10280.0,"x coordinate":-74.016581,"donor's street address":"99 battery pl","geocoding score":100.0,"donation amount":2300.0,"longitude":-74.016581,"id":"a6dn0dtsv8qj","donor's profession":"Broker"},"type":"Feature","geometry":{"type":"Point","coordinates":[-74.016581,40.707633]}},{"properties":{"donor's last name":"Burstein","latitude":40.777319,"donor's first name":"Mark","y coordinate":40.777319,"donor's state":"NY","donor's city":"New York","donor's zipcode":10128.0,"x coordinate":-73.947054,"donor's street address":"440 East 88th Street PHA","geocoding score":100.0,"donation amount":9450.0,"longitude":-73.947054,"id":"a6dn0e70oti0","donor's profession":"Compliance"},"type":"Feature","geometry":{"type":"Point","coordinates":[-73.947054,40.777319]}},{"properties":{"donor's last name":"Burton","latitude":40.774913,"donor's first name":"Jeremy","y coordinate":40.774913,"donor's state":"NY","donor's city":"New York","donor's zipcode":10023.0,"x coordinate":-73.979541,"donor's street address":"52 W. 69th St. Apt. C","geocoding score":100.0,"donation amount":500.0,"longitude":-73.979541,"id":"a6dn0e7k2ekv","donor's profession":"Not employed"},"type":"Feature","geometry":{"type":"Point","coordinates":[-73.979541,40.774913]}},{"properties":{"donor's last name":"Burton","latitude":40.721531,"donor's first name":null,"y coordinate":40.721531,"donor's state":"NY","donor's city":"new York","donor's zipcode":10013.0,"x coordinate":-74.00407,"donor's street address":"307 West Broadway","geocoding score":100.0,"donation amount":3250.0,"longitude":-74.00407,"id":"a6dn0dskwwsd","donor's profession":"Artist"},"type":"Feature","geometry":{"type":"Point","coordinates":[-74.00407,40.721531]}},{"properties":{"donor's last name":"Butzel","latitude":40.782701,"donor's first name":"Albert","y coordinate":40.782701,"donor's state":"NY","donor's city":"New York","donor's zipcode":10128.0,"x coordinate":-73.954811,"donor's street address":"1125 Park Ave, Apt 9E","geocoding score":100.0,"donation amount":1250.0,"longitude":-73.954811,"id":"a6dn0e5dpj0z","donor's profession":"Attorney"},"type":"Feature","geometry":{"type":"Point","coordinates":[-73.954811,40.782701]}},{"properties":{"donor's last name":"Byington","latitude":40.724153,"donor's first name":null,"y coordinate":40.724153,"donor's state":"NY","donor's city":"New York","donor's zipcode":10009.0,"x coordinate":-73.977702,"donor's street address":"368 East 8th Street, #6A","geocoding score":100.0,"donation amount":385.0,"longitude":-73.977702,"id":"a6dn0dx4jbhy","donor's profession":"Fundraiser"},"type":"Feature","geometry":{"type":"Point","coordinates":[-73.977702,40.724153]}},{"properties":{"donor's last name":"Byington","latitude":40.724153,"donor's first name":"Maryanne","y coordinate":40.724153,"donor's state":"NY","donor's city":"New York","donor's zipcode":10009.0,"x coordinate":-73.977702,"donor's street address":"368 East 8th Street, #6A","geocoding score":100.0,"donation amount":1245.0,"longitude":-73.977702,"id":"a6dn0e0opxld","donor's profession":"Fundraiser"},"type":"Feature","geometry":{"type":"Point","coordinates":[-73.977702,40.724153]}},{"properties":{"donor's last name":"Cabaniss","latitude":40.801387,"donor's first name":null,"y coordinate":40.801387,"donor's state":"NY","donor's city":"New York City","donor's zipcode":10025.0,"x coordinate":-73.96801,"donor's street address":"225 W 106 Street Apt. #2K","geocoding score":91.0,"donation amount":340.0,"longitude":-73.96801,"id":"a6dn0ds1m22f","donor's profession":"Composer"},"type":"Feature","geometry":{"type":"Point","coordinates":[-73.96801,40.801387]}},{"properties":{"donor's last name":"Cabaniss","latitude":40.801387,"donor's first name":null,"y coordinate":40.801387,"donor's state":"NY","donor's city":"New York City","donor's zipcode":10025.0,"x coordinate":-73.96801,"donor's street address":"225 W 106 Street Apt. #2K","geocoding score":91.0,"donation amount":240.0,"longitude":-73.96801,"id":"a6dn0e7cdf42","donor's profession":"Composer"},"type":"Feature","geometry":{"type":"Point","coordinates":[-73.96801,40.801387]}},{"properties":{"donor's last name":"Cabat","latitude":40.731928,"donor's first name":null,"y coordinate":40.731928,"donor's state":"NY","donor's city":"New York","donor's zipcode":10003.0,"x coordinate":-73.983187,"donor's street address":"333 East 14th Street","geocoding score":100.0,"donation amount":276.0,"longitude":-73.983187,"id":"a6dn0e1fy50r","donor's profession":"Teacher"},"type":"Feature","geometry":{"type":"Point","coordinates":[-73.983187,40.731928]}},{"properties":{"donor's last name":"Cabell","latitude":40.746316,"donor's first name":null,"y coordinate":40.746316,"donor's state":"NY","donor's city":"New York","donor's zipcode":10011.0,"x coordinate":-74.004258,"donor's street address":"457 West 21st Street","geocoding score":100.0,"donation amount":600.0,"longitude":-74.004258,"id":"a6dn0dsvpbt1","donor's profession":"Retired"},"type":"Feature","geometry":{"type":"Point","coordinates":[-74.004258,40.746316]}},{"properties":{"donor's last name":"Cabell","latitude":40.746316,"donor's first name":null,"y coordinate":40.746316,"donor's state":"NY","donor's city":"New York","donor's zipcode":10011.0,"x coordinate":-74.004258,"donor's street address":"457 West 21st Street","geocoding score":100.0,"donation amount":1200.0,"longitude":-74.004258,"id":"a6dn0e2w010c","donor's profession":"Retired"},"type":"Feature","geometry":{"type":"Point","coordinates":[-74.004258,40.746316]}},{"properties":{"donor's last name":"Cabot","latitude":40.803524,"donor's first name":"Edward","y coordinate":40.803524,"donor's state":"NY","donor's city":"New York","donor's zipcode":10026.0,"x coordinate":-73.952187,"donor's street address":"1925 7th Avenue","geocoding score":100.0,"donation amount":2300.0,"longitude":-73.952187,"id":"a6dn0e45bt00","donor's profession":"Design"},"type":"Feature","geometry":{"type":"Point","coordinates":[-73.952187,40.803524]}},