{"type":"FeatureCollection","data_type":"Dataset","url_type":null,"permissions":[{"permissions":{"download":true,"view":true},"group_id":"everyone"}],"classification":null,"title":"today_torn_6","count":31,"stream_id":211161,"contributor":{"url":"http://geocommons.com/users/28467","name":"bheberto"},"data_attributes":null,"calculation_params":null,"icon_link":null,"link":"http://geocommons.com/overlays/211161.json","extent":[-89.68,34.78,-84.64,38.61],"geometry_types":["point"],"unique_name":null,"name":"today_torn_6","feature_count":31,"description":"","next_feature":null,"is_raster":false,"short_classification":"Y","stats":{"lon":{"max":-84.64,"mean":-86.4696774193548,"variance":0.851483225806452,"stdev":0.922758487257881,"min":-89.68,"median":-86.48},"time":{"max":"2025/01/01 00:00:00 -0500","mean":"1804/11/03 04:40:26 -0456","variance":3.96893821991441e+19,"stdev":6299950967.99524,"min":"1542/12/31 23:59:56 -0456","median":"1829/12/31 23:59:56 -0456"},"lat":{"max":38.61,"mean":36.6490322580645,"variance":3.0353223655914,"stdev":1.74221765735266,"min":34.78,"median":37.48}},"features":[{"properties":{"lon":-86.57,"comments":"50 MPH WINDS WITH POWER LINES SPARKING...ROTATION REPORTED. TORNADO REPORTED ON GROUND (HUN)","time":{"end_time":"1544/01/01 00:00:00 -0456","original":"1543","granularity":"year","time":"1543/01/01 00:00:00 -0456"},"county":"MADISON","f-scale":"UNK","id":"a6gyex7q2gff","lat":34.86,"state":"AL","location":"5 S HAZEL GREEN"},"type":"Feature","geometry":{"type":"Point","coordinates":[-86.57,34.86]}},{"properties":{"lon":-86.57,"comments":"POWER LINES DOWN ON CAR (HUN)","time":{"end_time":"1548/01/01 00:00:00 -0456","original":"1547","granularity":"year","time":"1547/01/01 00:00:00 -0456"},"county":"MADISON","f-scale":"UNK","id":"a6gyex1hf91n","lat":34.89,"state":"AL","location":"3 N MERIDIANVILLE"},"type":"Feature","geometry":{"type":"Point","coordinates":[-86.57,34.89]}},{"properties":{"lon":-86.67,"comments":"RESEARCH PARK BLVD AND DAN TIBBS...FUNNEL CLOUD (HUN)","time":{"end_time":"1550/01/01 00:00:00 -0456","original":"1549","granularity":"year","time":"1549/01/01 00:00:00 -0456"},"county":"MADISON","f-scale":"UNK","id":"a6gyex9hn5v7","lat":34.78,"state":"AL","location":"6 NW HUNTSVILLE"},"type":"Feature","geometry":{"type":"Point","coordinates":[-86.67,34.78]}},{"properties":{"lon":-86.71,"comments":"RAIN WRAPPED TORNADO REPORTED ON THE GROUND AT NICK DAVID AND JEFF RD. (HUN)","time":{"end_time":"1557/01/01 00:00:00 -0456","original":"1556","granularity":"year","time":"1556/01/01 00:00:00 -0456"},"county":"MADISON","f-scale":"UNK","id":"a6gyex47urc9","lat":34.81,"state":"AL","location":"4 SSE HARVEST"},"type":"Feature","geometry":{"type":"Point","coordinates":[-86.71,34.81]}},{"properties":{"lon":-86.66,"comments":"RAIN WRAP TORNADO (HUN)","time":{"end_time":"1602/01/01 00:00:00 -0456","original":"1601","granularity":"year","time":"1601/01/01 00:00:00 -0456"},"county":"MADISON","f-scale":"UNK","id":"a6gyexa9ab54","lat":34.82,"state":"AL","location":"5 WSW MERIDIANVILLE"},"type":"Feature","geometry":{"type":"Point","coordinates":[-86.66,34.82]}},{"properties":{"lon":-86.55,"comments":"RAIN WRAP TORNADO (HUN)","time":{"end_time":"1608/01/01 00:00:00 -0456","original":"1607","granularity":"year","time":"1607/01/01 00:00:00 -0456"},"county":"MADISON","f-scale":"UNK","id":"a6gyex88ozm8","lat":34.85,"state":"AL","location":"1 E MERIDIANVILLE"},"type":"Feature","geometry":{"type":"Point","coordinates":[-86.55,34.85]}},{"properties":{"lon":-86.52,"comments":"TORNADO ON GROUND (HUN)","time":{"end_time":"1609/01/01 00:00:00 -0456","original":"1608","granularity":"year","time":"1608/01/01 00:00:00 -0456"},"county":"MADISON","f-scale":"UNK","id":"a6gyexeha4qs","lat":34.86,"state":"AL","location":"3 E MERIDIANVILLE"},"type":"Feature","geometry":{"type":"Point","coordinates":[-86.52,34.86]}},{"properties":{"lon":-89.68,"comments":"TORNADO OBSERVED FUNNEL CLOUD 50FT OFF THE GROUND WITH DEBRIS UNDER IT...MINOR DAMAGE...FENCES KNOCKED DOWN (LSX)","time":{"end_time":"1611/01/01 00:00:00 -0456","original":"1610","granularity":"year","time":"1610/01/01 00:00:00 -0456"},"county":"CLINTON","f-scale":"UNK","id":"a6gyexe16zgb","lat":38.55,"state":"IL","location":"4 S TRENTON"},"type":"Feature","geometry":{"type":"Point","coordinates":[-89.68,38.55]}},{"properties":{"lon":-86.46,"comments":"TORNADO ON GROUND (HUN)","time":{"end_time":"1616/01/01 00:00:00 -0456","original":"1615","granularity":"year","time":"1615/01/01 00:00:00 -0456"},"county":"MADISON","f-scale":"UNK","id":"a6gyex0zfqnm","lat":34.87,"state":"AL","location":"4 ENE MOORES MILL"},"type":"Feature","geometry":{"type":"Point","coordinates":[-86.46,34.87]}},{"properties":{"lon":-86.46,"comments":"PEOPLE TRAPPED IN RUBBLE WITH INJURIES (HUN)","time":{"end_time":"1620/01/01 00:00:00 -0456","original":"1619","granularity":"year","time":"1619/01/01 00:00:00 -0456"},"county":"MADISON","f-scale":"UNK","id":"a6gyewzw5bbw","lat":34.87,"state":"AL","location":"4 ENE MOORES MILL"},"type":"Feature","geometry":{"type":"Point","coordinates":[-86.46,34.87]}},{"properties":{"lon":-86.51,"comments":"HOUSE DESTROYED (HUN)","time":{"end_time":"1620/01/01 00:00:00 -0456","original":"1619","granularity":"year","time":"1619/01/01 00:00:00 -0456"},"county":"MADISON","f-scale":"UNK","id":"a6gyewzo8yma","lat":34.91,"state":"AL","location":"5 NE MERIDIANVILLE"},"type":"Feature","geometry":{"type":"Point","coordinates":[-86.51,34.91]}},{"properties":{"lon":-86.46,"comments":"TREES DOWN...CARS DAMAGED AND FARM HOUSE DESTROYED NEAR BUCKHORN HIGH SCHOOL (HUN)","time":{"end_time":"1633/01/01 00:00:00 -0456","original":"1632","granularity":"year","time":"1632/01/01 00:00:00 -0456"},"county":"MADISON","f-scale":"UNK","id":"a6gyex9o94z2","lat":34.87,"state":"AL","location":"4 ENE MOORES MILL"},"type":"Feature","geometry":{"type":"Point","coordinates":[-86.46,34.87]}},{"properties":{"lon":-86.48,"comments":"POWERLINES DOWN AT BETH AND BUTLER ROADS (HUN)","time":{"end_time":"1644/01/01 00:00:00 -0456","original":"1643","granularity":"year","time":"1643/01/01 00:00:00 -0456"},"county":"MADISON","f-scale":"UNK","id":"a6gyex8xyeye","lat":34.91,"state":"AL","location":"5 NNE MOORES MILL"},"type":"Feature","geometry":{"type":"Point","coordinates":[-86.48,34.91]}},{"properties":{"lon":-86.52,"comments":"POWER LINES DOWN ON ROADS AND DAMAGE TO FARM BUILDING (HUN)","time":{"end_time":"1655/01/01 00:00:00 -0456","original":"1654","granularity":"year","time":"1654/01/01 00:00:00 -0456"},"county":"MADISON","f-scale":"UNK","id":"a6gyexeqgvpy","lat":34.86,"state":"AL","location":"3 E MERIDIANVILLE"},"type":"Feature","geometry":{"type":"Point","coordinates":[-86.52,34.86]}},{"properties":{"lon":-85.09,"comments":"POSSIBLE TORNADO. TORNADO SPOTTED JUST WEST OF INTERSTATE 75 ON HUNTER RD. (MRX)","time":{"end_time":"1751/01/01 00:00:00 -0456","original":"1750","granularity":"year","time":"1750/01/01 00:00:00 -0456"},"county":"HAMILTON","f-scale":"UNK","id":"a6gyex77eb15","lat":35.06,"state":"TN","location":"OOLTEWAH"},"type":"Feature","geometry":{"type":"Point","coordinates":[-85.09,35.06]}},{"properties":{"lon":-84.64,"comments":"POSSIBLE TORNADO. TORNADO SPOTTED NEAR DELANO. (MRX)","time":{"end_time":"1831/01/01 00:00:00 -0456","original":"1830","granularity":"year","time":"1830/01/01 00:00:00 -0456"},"county":"MCMINN","f-scale":"UNK","id":"a6gyex5nveln","lat":35.3,"state":"TN","location":"7 WSW ETOWAH"},"type":"Feature","geometry":{"type":"Point","coordinates":[-84.64,35.3]}},{"properties":{"lon":-87.84,"comments":"TORNADO REPORTED BY TRAINED SPOTTERS. TORNADO IS ESTIMATED TO BE 300 YARDS WIND. (PAH)","time":{"end_time":"1844/01/01 00:00:00 -0456","original":"1843","granularity":"year","time":"1843/01/01 00:00:00 -0456"},"county":"POSEY","f-scale":"UNK","id":"a6gyex63zjpx","lat":38.08,"state":"IN","location":"2 WNW HEPBURN"},"type":"Feature","geometry":{"type":"Point","coordinates":[-87.84,38.08]}},{"properties":{"lon":-86.11,"comments":"REPORTED ON THE GROUND AND MOVING NORTHEAST. (LMK)","time":{"end_time":"1955/01/01 00:00:00 -0500","original":"1954","granularity":"year","time":"1954/01/01 00:00:00 -0500"},"county":"WASHINGTON","f-scale":"UNK","id":"a6gyex6xrrmy","lat":38.44,"state":"IN","location":"2 N PALMYRA"},"type":"Feature","geometry":{"type":"Point","coordinates":[-86.11,38.44]}},{"properties":{"lon":-86.02,"comments":"JUST NORTH OF NEW PEKIN. (LMK)","time":{"end_time":"2001/01/01 00:00:00 -0500","original":"2000","granularity":"year","time":"2000/01/01 00:00:00 -0500"},"county":"WASHINGTON","f-scale":"UNK","id":"a6gyexcfsk8w","lat":38.52,"state":"IN","location":"1 N NEW PEKIN"},"type":"Feature","geometry":{"type":"Point","coordinates":[-86.02,38.52]}},{"properties":{"lon":-86.02,"comments":"INJURIES IN TOWN (LMK)","time":{"end_time":"2004/01/01 00:00:00 -0500","original":"2003","granularity":"year","time":"2003/01/01 00:00:00 -0500"},"county":"WASHINGTON","f-scale":"UNK","id":"a6gyex67qoax","lat":38.5,"state":"IN","location":"NEW PEKIN"},"type":"Feature","geometry":{"type":"Point","coordinates":[-86.02,38.5]}},{"properties":{"lon":-87.58,"comments":"TORNADO SPOTTED BY TRAINED SPOTTER ON EAST SIDE OF COMMUNITY. NUMEROUS POWER FLASHES AND LOUD ROAR. (PAH)","time":{"end_time":"2006/01/01 00:00:00 -0500","original":"2005","granularity":"year","time":"2005/01/01 00:00:00 -0500"},"county":"HENDERSON","f-scale":"UNK","id":"a6gyex66hc4y","lat":37.84,"state":"KY","location":"HENDERSON"},"type":"Feature","geometry":{"type":"Point","coordinates":[-87.58,37.84]}},{"properties":{"lon":-85.93,"comments":"REPORTED ON THE GROUND. (LMK)","time":{"end_time":"2007/01/01 00:00:00 -0500","original":"2006","granularity":"year","time":"2006/01/01 00:00:00 -0500"},"county":"WASHINGTON","f-scale":"UNK","id":"a6gyex4ndksn","lat":38.5,"state":"IN","location":"DAISY HILL"},"type":"Feature","geometry":{"type":"Point","coordinates":[-85.93,38.5]}},{"properties":{"lon":-87.82,"comments":"VERY LARGE TORNADO REPORTED BY STORM CHASER JUST OUTSIDE OF THE COMMUNITY OF CLAY. (PAH)","time":{"end_time":"2011/01/01 00:00:00 -0500","original":"2010","granularity":"year","time":"2010/01/01 00:00:00 -0500"},"county":"WEBSTER","f-scale":"UNK","id":"a6gyex1d4zzj","lat":37.48,"state":"KY","location":"CLAY"},"type":"Feature","geometry":{"type":"Point","coordinates":[-87.82,37.48]}},{"properties":{"lon":-85.79,"comments":"TORNADO ON THE GROUND WEST OF SELLERSBURG. (LMK)","time":{"end_time":"2012/01/01 00:00:00 -0500","original":"2011","granularity":"year","time":"2011/01/01 00:00:00 -0500"},"county":"CLARK","f-scale":"UNK","id":"a6gyexbrw5oq","lat":38.39,"state":"IN","location":"2 W SELLERSBURG"},"type":"Feature","geometry":{"type":"Point","coordinates":[-85.79,38.39]}},{"properties":{"lon":-85.84,"comments":"(LMK)","time":{"end_time":"2012/01/01 00:00:00 -0500","original":"2011","granularity":"year","time":"2011/01/01 00:00:00 -0500"},"county":"CLARK","f-scale":"UNK","id":"a6gyex66pjlw","lat":38.53,"state":"IN","location":"4 W HENRYVILLE"},"type":"Feature","geometry":{"type":"Point","coordinates":[-85.84,38.53]}},{"properties":{"lon":-85.77,"comments":"SIGNIFICANT DAMAGE (LMK)","time":{"end_time":"2015/01/01 00:00:00 -0500","original":"2014","granularity":"year","time":"2014/01/01 00:00:00 -0500"},"county":"CLARK","f-scale":"UNK","id":"a6gyex1mqaki","lat":38.53,"state":"IN","location":"HENRYVILLE"},"type":"Feature","geometry":{"type":"Point","coordinates":[-85.77,38.53]}},{"properties":{"lon":-85.77,"comments":"(LMK)","time":{"end_time":"2019/01/01 00:00:00 -0500","original":"2018","granularity":"year","time":"2018/01/01 00:00:00 -0500"},"county":"CLARK","f-scale":"UNK","id":"a6gyex54v5s1","lat":38.53,"state":"IN","location":"HENRYVILLE"},"type":"Feature","geometry":{"type":"Point","coordinates":[-85.77,38.53]}},{"properties":{"lon":-85.63,"comments":"(LMK)","time":{"end_time":"2021/01/01 00:00:00 -0500","original":"2020","granularity":"year","time":"2020/01/01 00:00:00 -0500"},"county":"SCOTT","f-scale":"UNK","id":"a6gyex8a63h7","lat":38.61,"state":"IN","location":"NABB"},"type":"Feature","geometry":{"type":"Point","coordinates":[-85.63,38.61]}},{"properties":{"lon":-87.12,"comments":"TORNADO REPORTED NEAR 25TH STREET IN OWENSBORO PROPER. (PAH)","time":{"end_time":"2023/01/01 00:00:00 -0500","original":"2022","granularity":"year","time":"2022/01/01 00:00:00 -0500"},"county":"DAVIESS","f-scale":"UNK","id":"a6gyex4rrn1a","lat":37.76,"state":"KY","location":"OWENSBORO"},"type":"Feature","geometry":{"type":"Point","coordinates":[-87.12,37.76]}},{"properties":{"lon":-87.12,"comments":"REPORTED NEAR EASTVIEW ELEMENTARY SCHOOL OFF HWY 405. (PAH)","time":{"end_time":"2026/01/01 00:00:00 -0500","original":"2025","granularity":"year","time":"2025/01/01 00:00:00 -0500"},"county":"DAVIESS","f-scale":"UNK","id":"a6gyex2nuo6k","lat":37.76,"state":"KY","location":"OWENSBORO"},"type":"Feature","geometry":{"type":"Point","coordinates":[-87.12,37.76]}},{"properties":{"lon":-85.65,"comments":"REPORTED ON THE GROUND. (LMK)","time":{"end_time":"2026/01/01 00:00:00 -0500","original":"2025","granularity":"year","time":"2025/01/01 00:00:00 -0500"},"county":"CLARK","f-scale":"UNK","id":"a6gyexakc5a0","lat":38.58,"state":"IN","location":"MARYSVILLE"},"type":"Feature","geometry":{"type":"Point","coordinates":[-85.65,38.58]}}],"is_temporal":true,"author":{"url":"","metadata":null,"contact_name":null,"contact_address":null,"source":null,"contact_phone":null},"source":"","pagination":{"sort":null,"start":0,"total":31,"limit":1000000},"state":"complete","tags":"","published":"2014-08-14T16:40:40-04:00","id":211161}