{"type":"FeatureCollection","data_type":"Dataset Analysis","url_type":null,"permissions":[{"permissions":{"download":true,"edit":true,"view":true},"group_id":35229},{"permissions":{"download":true,"view":true},"group_id":"everyone"}],"classification":null,"title":"Merge of 'Japan homeless population 2007 by cities' into 'Japan Population 2010 (Statistics Bureau)'","count":1684,"stream_id":216125,"contributor":{"url":"http://geocommons.com/users/41602","name":"vdestrano"},"data_attributes":null,"calculation_params":[{"calculation":"union","input":{"merge":"none","ds1":"174607","ds2":"10482"}}],"icon_link":null,"link":"http://geocommons.com/overlays/216125.json","extent":[122.988,24.3468,145.273,45.3691],"geometry_types":["point"],"unique_name":null,"name":"Merge of 'Japan homeless population 2007 by cities' into 'Japan Population 2010 (Statistics Bureau)'","feature_count":1684,"description":"Dataset derived by merging the features of 'Japan homeless population 2007 by cities' into 'Japan Population 2010 (Statistics Bureau)'","next_feature":null,"is_raster":false,"short_classification":"Y","stats":{"homeless2007":{"max":4213,"variance":1764086.93333333,"mean":810.5,"stdev":1328.18934393155,"min":87,"median":249},"density":{"max":21881.5,"variance":6175738.74781207,"mean":1078.21726618705,"stdev":2485.10336763123,"min":1.6,"median":216.4},"latitude":{"max":45.36908,"variance":11.4763780448095,"mean":36.0446643684053,"stdev":3.38768033391723,"min":24.3468055,"median":35.5069845},"code":{"max":47382,"variance":199977883.45161,"mean":20848.3633093525,"stdev":14141.3536640454,"min":1203,"median":20362},"population":{"max":3688773,"variance":33566567693.2174,"mean":73447.4532374101,"stdev":183211.811009054,"min":366,"median":25607},"area":{"max":2177.67,"variance":59981.9436763723,"mean":211.57559352518,"stdev":244.912114188687,"min":3.47,"median":120.48},"longitude":{"max":145.272985514,"variance":15.3941881567269,"mean":137.031612468622,"stdev":3.92354280679171,"min":122.9874995,"median":137.901497341},"lat":{"max":42.985321,"variance":4.9279568602655,"mean":35.6697338125,"stdev":2.21990019150986,"min":33.568699,"median":35.14986},"long":{"max":141.248062,"variance":12.2810686307829,"mean":136.958037375,"stdev":3.50443556522058,"min":130.346359,"median":138.311462}},"features":[{"properties":{"city":"Maebashi","homeless2007":null,"density":1091.9,"latitude":36.4221905,"city_2":null,"code":10201,"prefecture":"Gunma","type":"shi","country":null,"japanese":"前橋市","population":340291,"area":311.64,"town":"Maebashi","longitude":139.16538687,"id":"0","lat":null,"long":null},"type":"Feature","geometry":{"type":"Point","coordinates":[139.16538687,36.4221905]}},{"properties":{"city":"Takasaki","homeless2007":null,"density":808.2,"latitude":36.378338,"city_2":null,"code":10202,"prefecture":"Gunma","type":"shi","country":null,"japanese":"高崎市","population":371302,"area":459.41,"town":"Takasaki","longitude":138.925000804,"id":"1","lat":null,"long":null},"type":"Feature","geometry":{"type":"Point","coordinates":[138.925000804,36.378338]}},{"properties":{"city":"Kiryu","homeless2007":null,"density":443.3,"latitude":36.4538065,"city_2":null,"code":10203,"prefecture":"Gunma","type":"shi","country":null,"japanese":"桐生市","population":121704,"area":274.57,"town":"Kiryu","longitude":139.367014631,"id":"2","lat":null,"long":null},"type":"Feature","geometry":{"type":"Point","coordinates":[139.367014631,36.4538065]}},{"properties":{"city":"Isesaki","homeless2007":null,"density":1487.3,"latitude":36.3199635,"city_2":null,"code":10204,"prefecture":"Gunma","type":"shi","country":null,"japanese":"伊勢崎市","population":207221,"area":139.33,"town":"Isesaki","longitude":139.208780622,"id":"3","lat":null,"long":null},"type":"Feature","geometry":{"type":"Point","coordinates":[139.208780622,36.3199635]}},{"properties":{"city":"Ota","homeless2007":null,"density":1232.3,"latitude":36.305936,"city_2":null,"code":10205,"prefecture":"Gunma","type":"shi","country":null,"japanese":"太田市","population":216465,"area":175.66,"town":"Ota","longitude":139.348761157,"id":"4","lat":null,"long":null},"type":"Feature","geometry":{"type":"Point","coordinates":[139.348761157,36.305936]}},{"properties":{"city":"Numata","homeless2007":null,"density":115.6,"latitude":36.67741,"city_2":null,"code":10206,"prefecture":"Gunma","type":"shi","country":null,"japanese":"沼田市","population":51265,"area":443.37,"town":"Numata","longitude":139.227818392,"id":"5","lat":null,"long":null},"type":"Feature","geometry":{"type":"Point","coordinates":[139.227818392,36.67741]}},{"properties":{"city":"Tatebayashi","homeless2007":null,"density":1289.1,"latitude":36.2439615,"city_2":null,"code":10207,"prefecture":"Gunma","type":"shi","country":null,"japanese":"館林市","population":78608,"area":60.98,"town":"Tatebayashi","longitude":139.537754597,"id":"6","lat":null,"long":null},"type":"Feature","geometry":{"type":"Point","coordinates":[139.537754597,36.2439615]}},{"properties":{"city":"Shibukawa","homeless2007":null,"density":346.6,"latitude":36.518448,"city_2":null,"code":10208,"prefecture":"Gunma","type":"shi","country":null,"japanese":"渋川市","population":83330,"area":240.42,"town":"Shibukawa","longitude":139.025699922,"id":"7","lat":null,"long":null},"type":"Feature","geometry":{"type":"Point","coordinates":[139.025699922,36.518448]}},{"properties":{"city":"Fujioka","homeless2007":null,"density":377.5,"latitude":36.2053605,"city_2":null,"code":10209,"prefecture":"Gunma","type":"shi","country":null,"japanese":"藤岡市","population":67975,"area":180.09,"town":"Fujioka","longitude":139.031522923,"id":"8","lat":null,"long":null},"type":"Feature","geometry":{"type":"Point","coordinates":[139.031522923,36.2053605]}},{"properties":{"city":"Tomioka","homeless2007":null,"density":423.7,"latitude":36.2427755,"city_2":null,"code":10210,"prefecture":"Gunma","type":"shi","country":null,"japanese":"富岡市","population":52070,"area":122.9,"town":"Tomioka","longitude":138.844330952,"id":"9","lat":null,"long":null},"type":"Feature","geometry":{"type":"Point","coordinates":[138.844330952,36.2427755]}},{"properties":{"city":"Annaka","homeless2007":null,"density":221.0,"latitude":36.344522,"city_2":null,"code":10211,"prefecture":"Gunma","type":"shi","country":null,"japanese":"安中市","population":61077,"area":276.34,"town":"Annaka","longitude":138.798425044,"id":"10","lat":null,"long":null},"type":"Feature","geometry":{"type":"Point","coordinates":[138.798425044,36.344522]}},{"properties":{"city":"Midori","homeless2007":null,"density":249.2,"latitude":36.4981835,"city_2":null,"code":10212,"prefecture":"Gunma","type":"shi","country":null,"japanese":"みどり市","population":51899,"area":208.23,"town":"Midori","longitude":139.332632123,"id":"11","lat":null,"long":null},"type":"Feature","geometry":{"type":"Point","coordinates":[139.332632123,36.4981835]}},{"properties":{"city":"KitaGunma","homeless2007":null,"density":514.3,"latitude":36.439488,"city_2":null,"code":10344,"prefecture":"Gunma","type":"cho","country":null,"japanese":"榛東村","population":14370,"area":27.94,"town":"Shinto","longitude":138.983770567,"id":"12","lat":null,"long":null},"type":"Feature","geometry":{"type":"Point","coordinates":[138.983770567,36.439488]}},{"properties":{"city":"KitaGunma","homeless2007":null,"density":965.9,"latitude":36.4479935,"city_2":null,"code":10345,"prefecture":"Gunma","type":"cho","country":null,"japanese":"吉岡町","population":19801,"area":20.5,"town":"Yoshioka","longitude":139.020116145,"id":"13","lat":null,"long":null},"type":"Feature","geometry":{"type":"Point","coordinates":[139.020116145,36.4479935]}},{"properties":{"city":"Tano","homeless2007":null,"density":7.2,"latitude":36.0562675,"city_2":null,"code":10366,"prefecture":"Gunma","type":"cho","country":null,"japanese":"上野村","population":1306,"area":181.86,"town":"Ueno","longitude":138.732738433,"id":"14","lat":null,"long":null},"type":"Feature","geometry":{"type":"Point","coordinates":[138.732738433,36.0562675]}},{"properties":{"city":"Tano","homeless2007":null,"density":20.5,"latitude":36.0956275,"city_2":null,"code":10367,"prefecture":"Gunma","type":"cho","country":null,"japanese":"神流町","population":2352,"area":114.69,"town":"Kanna","longitude":138.873163191,"id":"15","lat":null,"long":null},"type":"Feature","geometry":{"type":"Point","coordinates":[138.873163191,36.0956275]}},{"properties":{"city":"Kanra","homeless2007":null,"density":47.3,"latitude":36.2164625,"city_2":null,"code":10382,"prefecture":"Gunma","type":"cho","country":null,"japanese":"下仁田町","population":8911,"area":188.27,"town":"Shimonita","longitude":138.730297944,"id":"16","lat":null,"long":null},"type":"Feature","geometry":{"type":"Point","coordinates":[138.730297944,36.2164625]}},{"properties":{"city":"Kanra","homeless2007":null,"density":232.5,"latitude":36.207471,"city_2":null,"code":10384,"prefecture":"Gunma","type":"cho","country":null,"japanese":"甘楽町","population":13618,"area":58.57,"town":"Kanra","longitude":138.916448622,"id":"17","lat":null,"long":null},"type":"Feature","geometry":{"type":"Point","coordinates":[138.916448622,36.207471]}},{"properties":{"city":"Agatsuma","homeless2007":null,"density":41.5,"latitude":36.664642,"city_2":null,"code":10421,"prefecture":"Gunma","type":"cho","country":null,"japanese":"中之条町","population":18216,"area":439.28,"town":"Nakanojo","longitude":138.77422465,"id":"18","lat":null,"long":null},"type":"Feature","geometry":{"type":"Point","coordinates":[138.77422465,36.664642]}},{"properties":{"city":"Agatsuma","homeless2007":null,"density":44.9,"latitude":36.493413,"city_2":null,"code":10424,"prefecture":"Gunma","type":"cho","country":null,"japanese":"長野原町","population":6017,"area":133.93,"town":"Naganohara","longitude":138.609096247,"id":"19","lat":null,"long":null},"type":"Feature","geometry":{"type":"Point","coordinates":[138.609096247,36.493413]}},{"properties":{"city":"Agatsuma","homeless2007":null,"density":30.2,"latitude":36.5229215,"city_2":null,"code":10425,"prefecture":"Gunma","type":"cho","country":null,"japanese":"嬬恋村","population":10183,"area":337.51,"town":"Tsumagoi","longitude":138.488096239,"id":"20","lat":null,"long":null},"type":"Feature","geometry":{"type":"Point","coordinates":[138.488096239,36.5229215]}},{"properties":{"city":"Agatsuma","homeless2007":null,"density":143.9,"latitude":36.612551,"city_2":null,"code":10426,"prefecture":"Gunma","type":"cho","country":null,"japanese":"草津町","population":7160,"area":49.74,"town":"Kusatsu","longitude":138.584076226,"id":"21","lat":null,"long":null},"type":"Feature","geometry":{"type":"Point","coordinates":[138.584076226,36.612551]}},{"properties":{"city":"Agatsuma","homeless2007":null,"density":61.0,"latitude":36.6173045,"city_2":null,"code":10428,"prefecture":"Gunma","type":"cho","country":null,"japanese":"高山村","population":3911,"area":64.16,"town":"Takayama","longitude":138.948399523,"id":"22","lat":null,"long":null},"type":"Feature","geometry":{"type":"Point","coordinates":[138.948399523,36.6173045]}},{"properties":{"city":"Agatsuma","homeless2007":null,"density":61.6,"latitude":36.5216845,"city_2":null,"code":10429,"prefecture":"Gunma","type":"cho","country":null,"japanese":"東吾妻町","population":15622,"area":253.65,"town":"Higashiagatsuma","longitude":138.812706112,"id":"23","lat":null,"long":null},"type":"Feature","geometry":{"type":"Point","coordinates":[138.812706112,36.5216845]}},{"properties":{"city":"Tone","homeless2007":null,"density":12.5,"latitude":36.8406495,"city_2":null,"code":10443,"prefecture":"Gunma","type":"cho","country":null,"japanese":"片品村","population":4904,"area":392.01,"town":"Katashina","longitude":139.283087963,"id":"24","lat":null,"long":null},"type":"Feature","geometry":{"type":"Point","coordinates":[139.283087963,36.8406495]}},{"properties":{"city":"Tone","homeless2007":null,"density":45.7,"latitude":36.736142,"city_2":null,"code":10444,"prefecture":"Gunma","type":"cho","country":null,"japanese":"川場村","population":3898,"area":85.29,"town":"Kawaba","longitude":139.133935436,"id":"25","lat":null,"long":null},"type":"Feature","geometry":{"type":"Point","coordinates":[139.133935436,36.736142]}},{"properties":{"city":"Tone","homeless2007":null,"density":118.7,"latitude":36.612485,"city_2":null,"code":10448,"prefecture":"Gunma","type":"cho","country":null,"japanese":"昭和村","population":7620,"area":64.17,"town":"Showa","longitude":139.102072534,"id":"26","lat":null,"long":null},"type":"Feature","geometry":{"type":"Point","coordinates":[139.102072534,36.612485]}},{"properties":{"city":"Tone","homeless2007":null,"density":27.3,"latitude":36.8486235,"city_2":null,"code":10449,"prefecture":"Gunma","type":"cho","country":null,"japanese":"みなかみ町","population":21345,"area":780.91,"town":"Minakami","longitude":139.060655657,"id":"27","lat":null,"long":null},"type":"Feature","geometry":{"type":"Point","coordinates":[139.060655657,36.8486235]}},{"properties":{"city":"Sawa","homeless2007":null,"density":1454.3,"latitude":36.301128,"city_2":null,"code":10464,"prefecture":"Gunma","type":"cho","country":null,"japanese":"玉村町","population":37536,"area":25.81,"town":"Tamamura","longitude":139.130280461,"id":"28","lat":null,"long":null},"type":"Feature","geometry":{"type":"Point","coordinates":[139.130280461,36.301128]}},{"properties":{"city":"Ora","homeless2007":null,"density":375.4,"latitude":36.229014,"city_2":null,"code":10521,"prefecture":"Gunma","type":"cho","country":null,"japanese":"板倉町","population":15706,"area":41.84,"town":"Itakura","longitude":139.622432285,"id":"29","lat":null,"long":null},"type":"Feature","geometry":{"type":"Point","coordinates":[139.622432285,36.229014]}},{"properties":{"city":"Ora","homeless2007":null,"density":569.9,"latitude":36.2052925,"city_2":null,"code":10522,"prefecture":"Gunma","type":"cho","country":null,"japanese":"明和町","population":11209,"area":19.67,"town":"Meiwa","longitude":139.539922505,"id":"30","lat":null,"long":null},"type":"Feature","geometry":{"type":"Point","coordinates":[139.539922505,36.2052925]}},{"properties":{"city":"Ora","homeless2007":null,"density":527.3,"latitude":36.215342,"city_2":null,"code":10523,"prefecture":"Gunma","type":"cho","country":null,"japanese":"千代田町","population":11473,"area":21.76,"town":"Chiyoda","longitude":139.440628928,"id":"31","lat":null,"long":null},"type":"Feature","geometry":{"type":"Point","coordinates":[139.440628928,36.215342]}},{"properties":{"city":"Ora","homeless2007":null,"density":2245.2,"latitude":36.244365,"city_2":null,"code":10524,"prefecture":"Gunma","type":"cho","country":null,"japanese":"大泉町","population":40257,"area":17.93,"town":"Oizumi","longitude":139.413321355,"id":"32","lat":null,"long":null},"type":"Feature","geometry":{"type":"Point","coordinates":[139.413321355,36.244365]}},{"properties":{"city":"Ora","homeless2007":null,"density":868.3,"latitude":36.25415,"city_2":null,"code":10525,"prefecture":"Gunma","type":"cho","country":null,"japanese":"邑楽町","population":27023,"area":31.12,"town":"Ora","longitude":139.465609159,"id":"33","lat":null,"long":null},"type":"Feature","geometry":{"type":"Point","coordinates":[139.465609159,36.25415]}},{"properties":{"city":"Saitama","homeless2007":null,"density":5620.6,"latitude":35.916255,"city_2":null,"code":11100,"prefecture":"Saitama","type":"shi","country":null,"japanese":"さいたま市","population":1222434,"area":217.49,"town":"Saitama","longitude":139.649122222,"id":"34","lat":null,"long":null},"type":"Feature","geometry":{"type":"Point","coordinates":[139.649122222,35.916255]}},{"properties":{"city":"Kawagoe","homeless2007":null,"density":3139.2,"latitude":35.895768,"city_2":null,"code":11201,"prefecture":"Saitama","type":"shi","country":null,"japanese":"川越市","population":342670,"area":109.16,"town":"Kawagoe","longitude":139.484479749,"id":"35","lat":null,"long":null},"type":"Feature","geometry":{"type":"Point","coordinates":[139.484479749,35.895768]}},{"properties":{"city":"Kumagaya","homeless2007":null,"density":1270.8,"latitude":36.1566575,"city_2":null,"code":11202,"prefecture":"Saitama","type":"shi","country":null,"japanese":"熊谷市","population":203180,"area":159.88,"town":"Kumagaya","longitude":139.368777052,"id":"36","lat":null,"long":null},"type":"Feature","geometry":{"type":"Point","coordinates":[139.368777052,36.1566575]}},{"properties":{"city":"Kawaguchi","homeless2007":null,"density":8979.3,"latitude":35.837351,"city_2":null,"code":11203,"prefecture":"Saitama","type":"shi","country":null,"japanese":"川口市","population":500598,"area":55.75,"town":"Kawaguchi","longitude":139.699889415,"id":"37","lat":null,"long":null},"type":"Feature","geometry":{"type":"Point","coordinates":[139.699889415,35.837351]}},{"properties":{"city":"Gyoda","homeless2007":null,"density":1273.4,"latitude":36.142025,"city_2":null,"code":11206,"prefecture":"Saitama","type":"shi","country":null,"japanese":"行田市","population":85786,"area":67.37,"town":"Gyoda","longitude":139.475747493,"id":"38","lat":null,"long":null},"type":"Feature","geometry":{"type":"Point","coordinates":[139.475747493,36.142025]}},{"properties":{"city":"Chichibu","homeless2007":null,"density":115.9,"latitude":35.981274,"city_2":null,"code":11207,"prefecture":"Saitama","type":"shi","country":null,"japanese":"秩父市","population":66955,"area":577.69,"town":"Chichibu","longitude":138.792002812,"id":"39","lat":null,"long":null},"type":"Feature","geometry":{"type":"Point","coordinates":[138.792002812,35.981274]}},{"properties":{"city":"Tokorozawa","homeless2007":null,"density":4749.6,"latitude":35.801563,"city_2":null,"code":11208,"prefecture":"Saitama","type":"shi","country":null,"japanese":"所沢市","population":341924,"area":71.99,"town":"Tokorozawa","longitude":139.465305452,"id":"40","lat":null,"long":null},"type":"Feature","geometry":{"type":"Point","coordinates":[139.465305452,35.801563]}},{"properties":{"city":"Hanno","homeless2007":null,"density":432.5,"latitude":35.89259,"city_2":null,"code":11209,"prefecture":"Saitama","type":"shi","country":null,"japanese":"飯能市","population":83549,"area":193.18,"town":"Hanno","longitude":139.196856277,"id":"41","lat":null,"long":null},"type":"Feature","geometry":{"type":"Point","coordinates":[139.196856277,35.89259]}},{"properties":{"city":"Kazo","homeless2007":null,"density":861.6,"latitude":36.136921,"city_2":null,"code":11210,"prefecture":"Saitama","type":"shi","country":null,"japanese":"加須市","population":115002,"area":133.47,"town":"Kazo","longitude":139.609934662,"id":"42","lat":null,"long":null},"type":"Feature","geometry":{"type":"Point","coordinates":[139.609934662,36.136921]}},{"properties":{"city":"Honjo","homeless2007":null,"density":912.8,"latitude":36.192809,"city_2":null,"code":11211,"prefecture":"Saitama","type":"shi","country":null,"japanese":"本庄市","population":81889,"area":89.71,"town":"Honjo","longitude":139.141026944,"id":"43","lat":null,"long":null},"type":"Feature","geometry":{"type":"Point","coordinates":[139.141026944,36.192809]}},{"properties":{"city":"Higashimatsuyama","homeless2007":null,"density":1379.1,"latitude":36.040938,"city_2":null,"code":11212,"prefecture":"Saitama","type":"shi","country":null,"japanese":"東松山市","population":90099,"area":65.33,"town":"Higashimatsuyama","longitude":139.402656602,"id":"44","lat":null,"long":null},"type":"Feature","geometry":{"type":"Point","coordinates":[139.402656602,36.040938]}},{"properties":{"city":"Kasukabe","homeless2007":null,"density":3594.6,"latitude":35.9833625,"city_2":null,"code":11214,"prefecture":"Saitama","type":"shi","country":null,"japanese":"春日部市","population":237171,"area":65.98,"town":"Kasukabe","longitude":139.775077389,"id":"45","lat":null,"long":null},"type":"Feature","geometry":{"type":"Point","coordinates":[139.775077389,35.9833625]}},{"properties":{"city":"Sayama","homeless2007":null,"density":3175.5,"latitude":35.8581855,"city_2":null,"code":11215,"prefecture":"Saitama","type":"shi","country":null,"japanese":"狭山市","population":155727,"area":49.04,"town":"Sayama","longitude":139.410756188,"id":"46","lat":null,"long":null},"type":"Feature","geometry":{"type":"Point","coordinates":[139.410756188,35.8581855]}},{"properties":{"city":"Hanyu","homeless2007":null,"density":959.9,"latitude":36.1702675,"city_2":null,"code":11216,"prefecture":"Saitama","type":"shi","country":null,"japanese":"羽生市","population":56204,"area":58.55,"town":"Hanyu","longitude":139.557374098,"id":"47","lat":null,"long":null},"type":"Feature","geometry":{"type":"Point","coordinates":[139.557374098,36.1702675]}},{"properties":{"city":"Konosu","homeless2007":null,"density":1772.7,"latitude":36.072938,"city_2":null,"code":11217,"prefecture":"Saitama","type":"shi","country":null,"japanese":"鴻巣市","population":119639,"area":67.49,"town":"Konosu","longitude":139.515585186,"id":"48","lat":null,"long":null},"type":"Feature","geometry":{"type":"Point","coordinates":[139.515585186,36.072938]}},{"properties":{"city":"Fukaya","homeless2007":null,"density":1044.9,"latitude":36.1732445,"city_2":null,"code":11218,"prefecture":"Saitama","type":"shi","country":null,"japanese":"深谷市","population":144618,"area":138.41,"town":"Fukaya","longitude":139.262534994,"id":"49","lat":null,"long":null},"type":"Feature","geometry":{"type":"Point","coordinates":[139.262534994,36.1732445]}},{"properties":{"city":"Ageo","homeless2007":null,"density":4916.0,"latitude":35.9703375,"city_2":null,"code":11219,"prefecture":"Saitama","type":"shi","country":null,"japanese":"上尾市","population":223926,"area":45.55,"town":"Ageo","longitude":139.588760552,"id":"50","lat":null,"long":null},"type":"Feature","geometry":{"type":"Point","coordinates":[139.588760552,35.9703375]}},{"properties":{"city":"Soka","homeless2007":null,"density":8893.3,"latitude":35.835926,"city_2":null,"code":11221,"prefecture":"Saitama","type":"shi","country":null,"japanese":"草加市","population":243855,"area":27.42,"town":"Soka","longitude":139.813629754,"id":"51","lat":null,"long":null},"type":"Feature","geometry":{"type":"Point","coordinates":[139.813629754,35.835926]}},{"properties":{"city":"Koshigaya","homeless2007":null,"density":5410.6,"latitude":35.905122,"city_2":null,"code":11222,"prefecture":"Saitama","type":"shi","country":null,"japanese":"越谷市","population":326313,"area":60.31,"town":"Koshigaya","longitude":139.795140328,"id":"52","lat":null,"long":null},"type":"Feature","geometry":{"type":"Point","coordinates":[139.795140328,35.905122]}},{"properties":{"city":"Warabi","homeless2007":null,"density":14020.0,"latitude":35.8243085,"city_2":null,"code":11223,"prefecture":"Saitama","type":"shi","country":null,"japanese":"蕨市","population":71502,"area":5.1,"town":"Warabi","longitude":139.686270032,"id":"53","lat":null,"long":null},"type":"Feature","geometry":{"type":"Point","coordinates":[139.686270032,35.8243085]}},{"properties":{"city":"Toda","homeless2007":null,"density":6773.7,"latitude":35.8140835,"city_2":null,"code":11224,"prefecture":"Saitama","type":"shi","country":null,"japanese":"戸田市","population":123079,"area":18.17,"town":"Toda","longitude":139.651957795,"id":"54","lat":null,"long":null},"type":"Feature","geometry":{"type":"Point","coordinates":[139.651957795,35.8140835]}},{"properties":{"city":"Iruma","homeless2007":null,"density":3349.8,"latitude":35.81286,"city_2":null,"code":11225,"prefecture":"Saitama","type":"shi","country":null,"japanese":"入間市","population":149872,"area":44.74,"town":"Iruma","longitude":139.366863263,"id":"55","lat":null,"long":null},"type":"Feature","geometry":{"type":"Point","coordinates":[139.366863263,35.81286]}},{"properties":{"city":"Hatogaya","homeless2007":null,"density":9792.3,"latitude":35.824432,"city_2":null,"code":11226,"prefecture":"Saitama","type":"shi","country":null,"japanese":"鳩ヶ谷市","population":60908,"area":6.22,"town":"Hatogaya","longitude":139.737182521,"id":"56","lat":null,"long":null},"type":"Feature","geometry":{"type":"Point","coordinates":[139.737182521,35.824432]}},{"properties":{"city":"Asaka","homeless2007":null,"density":7056.1,"latitude":35.806617,"city_2":null,"code":11227,"prefecture":"Saitama","type":"shi","country":null,"japanese":"朝霞市","population":129691,"area":18.38,"town":"Asaka","longitude":139.592169934,"id":"57","lat":null,"long":null},"type":"Feature","geometry":{"type":"Point","coordinates":[139.592169934,35.806617]}},{"properties":{"city":"Shiki","homeless2007":null,"density":7683.3,"latitude":35.839095,"city_2":null,"code":11228,"prefecture":"Saitama","type":"shi","country":null,"japanese":"志木市","population":69611,"area":9.06,"town":"Shiki","longitude":139.587580479,"id":"58","lat":null,"long":null},"type":"Feature","geometry":{"type":"Point","coordinates":[139.587580479,35.839095]}},{"properties":{"city":"Wako","homeless2007":null,"density":7313.9,"latitude":35.78808,"city_2":null,"code":11229,"prefecture":"Saitama","type":"shi","country":null,"japanese":"和光市","population":80745,"area":11.04,"town":"Wako","longitude":139.620436653,"id":"59","lat":null,"long":null},"type":"Feature","geometry":{"type":"Point","coordinates":[139.620436653,35.78808]}},{"properties":{"city":"Niiza","homeless2007":null,"density":6963.9,"latitude":35.7888655,"city_2":null,"code":11230,"prefecture":"Saitama","type":"shi","country":null,"japanese":"新座市","population":158777,"area":22.8,"town":"Niiza","longitude":139.558591018,"id":"60","lat":null,"long":null},"type":"Feature","geometry":{"type":"Point","coordinates":[139.558591018,35.7888655]}},{"properties":{"city":"Okegawa","homeless2007":null,"density":2957.7,"latitude":36.000482,"city_2":null,"code":11231,"prefecture":"Saitama","type":"shi","country":null,"japanese":"桶川市","population":74711,"area":25.26,"town":"Okegawa","longitude":139.55050182,"id":"61","lat":null,"long":null},"type":"Feature","geometry":{"type":"Point","coordinates":[139.55050182,36.000482]}},{"properties":{"city":"Kuki","homeless2007":null,"density":1872.7,"latitude":36.0664635,"city_2":null,"code":11232,"prefecture":"Saitama","type":"shi","country":null,"japanese":"久喜市","population":154310,"area":82.4,"town":"Kuki","longitude":139.675991339,"id":"62","lat":null,"long":null},"type":"Feature","geometry":{"type":"Point","coordinates":[139.675991339,36.0664635]}},{"properties":{"city":"Kitamoto","homeless2007":null,"density":3472.2,"latitude":36.02065,"city_2":null,"code":11233,"prefecture":"Saitama","type":"shi","country":null,"japanese":"北本市","population":68888,"area":19.84,"town":"Kitamoto","longitude":139.531442424,"id":"63","lat":null,"long":null},"type":"Feature","geometry":{"type":"Point","coordinates":[139.531442424,36.02065]}},{"properties":{"city":"Yashio","homeless2007":null,"density":4602.2,"latitude":35.813399,"city_2":null,"code":11234,"prefecture":"Saitama","type":"shi","country":null,"japanese":"八潮市","population":82977,"area":18.03,"town":"Yashio","longitude":139.840914189,"id":"64","lat":null,"long":null},"type":"Feature","geometry":{"type":"Point","coordinates":[139.840914189,35.813399]}},{"properties":{"city":"Fujimi","homeless2007":null,"density":5418.1,"latitude":35.8558705,"city_2":null,"code":11235,"prefecture":"Saitama","type":"shi","country":null,"japanese":"富士見市","population":106736,"area":19.7,"town":"Fujimi","longitude":139.556439346,"id":"65","lat":null,"long":null},"type":"Feature","geometry":{"type":"Point","coordinates":[139.556439346,35.8558705]}},{"properties":{"city":"Misato","homeless2007":null,"density":4350.0,"latitude":35.828399,"city_2":null,"code":11237,"prefecture":"Saitama","type":"shi","country":null,"japanese":"三郷市","population":131415,"area":30.21,"town":"Misato","longitude":139.871930852,"id":"66","lat":null,"long":null},"type":"Feature","geometry":{"type":"Point","coordinates":[139.871930852,35.828399]}},{"properties":{"city":"Hasuda","homeless2007":null,"density":2321.6,"latitude":35.9990995,"city_2":null,"code":11238,"prefecture":"Saitama","type":"shi","country":null,"japanese":"蓮田市","population":63309,"area":27.27,"town":"Hasuda","longitude":139.661768974,"id":"67","lat":null,"long":null},"type":"Feature","geometry":{"type":"Point","coordinates":[139.661768974,35.9990995]}},{"properties":{"city":"Sakado","homeless2007":null,"density":2482.3,"latitude":35.960332,"city_2":null,"code":11239,"prefecture":"Saitama","type":"shi","country":null,"japanese":"坂戸市","population":101700,"area":40.97,"town":"Sakado","longitude":139.407701974,"id":"68","lat":null,"long":null},"type":"Feature","geometry":{"type":"Point","coordinates":[139.407701974,35.960332]}},{"properties":{"city":"Satte","homeless2007":null,"density":1590.9,"latitude":36.0669455,"city_2":null,"code":11240,"prefecture":"Saitama","type":"shi","country":null,"japanese":"幸手市","population":54012,"area":33.95,"town":"Satte","longitude":139.749210022,"id":"69","lat":null,"long":null},"type":"Feature","geometry":{"type":"Point","coordinates":[139.749210022,36.0669455]}},{"properties":{"city":"Tsurugashima","homeless2007":null,"density":3947.5,"latitude":35.934754,"city_2":null,"code":11241,"prefecture":"Saitama","type":"shi","country":null,"japanese":"鶴ヶ島市","population":69990,"area":17.73,"town":"Tsurugashima","longitude":139.394359277,"id":"70","lat":null,"long":null},"type":"Feature","geometry":{"type":"Point","coordinates":[139.394359277,35.934754]}},{"properties":{"city":"Hidaka","homeless2007":null,"density":1210.5,"latitude":35.898247,"city_2":null,"code":11242,"prefecture":"Saitama","type":"shi","country":null,"japanese":"日高市","population":57473,"area":47.48,"town":"Hidaka","longitude":139.338099715,"id":"71","lat":null,"long":null},"type":"Feature","geometry":{"type":"Point","coordinates":[139.338099715,35.898247]}},{"properties":{"city":"Yoshikawa","homeless2007":null,"density":2065.1,"latitude":35.898109,"city_2":null,"code":11243,"prefecture":"Saitama","type":"shi","country":null,"japanese":"吉川市","population":65298,"area":31.62,"town":"Yoshikawa","longitude":139.860640554,"id":"72","lat":null,"long":null},"type":"Feature","geometry":{"type":"Point","coordinates":[139.860640554,35.898109]}},{"properties":{"city":"Fujimino","homeless2007":null,"density":7204.8,"latitude":35.8621405,"city_2":null,"code":11245,"prefecture":"Saitama","type":"shi","country":null,"japanese":"ふじみ野市","population":105695,"area":14.67,"town":"Fujimino","longitude":139.509400423,"id":"73","lat":null,"long":null},"type":"Feature","geometry":{"type":"Point","coordinates":[139.509400423,35.8621405]}},{"properties":{"city":"Kitaadachi","homeless2007":null,"density":2871.2,"latitude":36.0001105,"city_2":null,"code":11301,"prefecture":"Saitama","type":"cho","country":null,"japanese":"伊奈町","population":42494,"area":14.8,"town":"Ina","longitude":139.625329941,"id":"74","lat":null,"long":null},"type":"Feature","geometry":{"type":"Point","coordinates":[139.625329941,36.0001105]}},{"properties":{"city":"Iruma","homeless2007":null,"density":2529.8,"latitude":35.832796,"city_2":null,"code":11324,"prefecture":"Saitama","type":"cho","country":null,"japanese":"三芳町","population":38706,"area":15.3,"town":"Miyoshi","longitude":139.51628857,"id":"75","lat":null,"long":null},"type":"Feature","geometry":{"type":"Point","coordinates":[139.51628857,35.832796]}},{"properties":{"city":"Iruma","homeless2007":null,"density":1147.6,"latitude":35.9315015,"city_2":null,"code":11326,"prefecture":"Saitama","type":"cho","country":null,"japanese":"毛呂山町","population":39054,"area":34.03,"town":"Moroyama","longitude":139.305109302,"id":"76","lat":null,"long":null},"type":"Feature","geometry":{"type":"Point","coordinates":[139.305109302,35.9315015]}},{"properties":{"city":"Iruma","homeless2007":null,"density":310.0,"latitude":35.9565585,"city_2":null,"code":11327,"prefecture":"Saitama","type":"cho","country":null,"japanese":"越生町","population":12537,"area":40.44,"town":"Ogose","longitude":139.268188354,"id":"77","lat":null,"long":null},"type":"Feature","geometry":{"type":"Point","coordinates":[139.268188354,35.9565585]}},{"properties":{"city":"Hiki","homeless2007":null,"density":583.1,"latitude":36.0673875,"city_2":null,"code":11341,"prefecture":"Saitama","type":"cho","country":null,"japanese":"滑川町","population":17323,"area":29.71,"town":"Namegawa","longitude":139.357473303,"id":"78","lat":null,"long":null},"type":"Feature","geometry":{"type":"Point","coordinates":[139.357473303,36.0673875]}},{"properties":{"city":"Hiki","homeless2007":null,"density":632.7,"latitude":36.05721,"city_2":null,"code":11342,"prefecture":"Saitama","type":"cho","country":null,"japanese":"嵐山町","population":18887,"area":29.85,"town":"Ranzan","longitude":139.325469009,"id":"79","lat":null,"long":null},"type":"Feature","geometry":{"type":"Point","coordinates":[139.325469009,36.05721]}},{"properties":{"city":"Hiki","homeless2007":null,"density":544.5,"latitude":36.0472465,"city_2":null,"code":11343,"prefecture":"Saitama","type":"cho","country":null,"japanese":"小川町","population":32913,"area":60.45,"town":"Ogawa","longitude":139.269311899,"id":"80","lat":null,"long":null},"type":"Feature","geometry":{"type":"Point","coordinates":[139.269311899,36.0472465]}},{"properties":{"city":"Hiki","homeless2007":null,"density":530.8,"latitude":35.982576,"city_2":null,"code":11346,"prefecture":"Saitama","type":"cho","country":null,"japanese":"川島町","population":22147,"area":41.72,"town":"Kawajima","longitude":139.477157726,"id":"81","lat":null,"long":null},"type":"Feature","geometry":{"type":"Point","coordinates":[139.477157726,35.982576]}},{"properties":{"city":"Hiki","homeless2007":null,"density":545.7,"latitude":36.046672,"city_2":null,"code":11347,"prefecture":"Saitama","type":"cho","country":null,"japanese":"吉見町","population":21079,"area":38.63,"town":"Yoshimi","longitude":139.455938293,"id":"82","lat":null,"long":null},"type":"Feature","geometry":{"type":"Point","coordinates":[139.455938293,36.046672]}},{"properties":{"city":"Hiki","homeless2007":null,"density":595.3,"latitude":35.98423,"city_2":null,"code":11348,"prefecture":"Saitama","type":"cho","country":null,"japanese":"鳩山町","population":15305,"area":25.71,"town":"Hatoyama","longitude":139.33997359,"id":"83","lat":null,"long":null},"type":"Feature","geometry":{"type":"Point","coordinates":[139.33997359,35.98423]}},{"properties":{"city":"Hiki","homeless2007":null,"density":222.7,"latitude":35.992639,"city_2":null,"code":11349,"prefecture":"Saitama","type":"cho","country":null,"japanese":"ときがわ町","population":12418,"area":55.77,"town":"Tokigawa","longitude":139.237133014,"id":"84","lat":null,"long":null},"type":"Feature","geometry":{"type":"Point","coordinates":[139.237133014,35.992639]}},{"properties":{"city":"Chichibu","homeless2007":null,"density":183.2,"latitude":35.9624185,"city_2":null,"code":11361,"prefecture":"Saitama","type":"cho","country":null,"japanese":"横瀬町","population":9039,"area":49.35,"town":"Yokoze","longitude":139.13283406,"id":"85","lat":null,"long":null},"type":"Feature","geometry":{"type":"Point","coordinates":[139.13283406,35.9624185]}},{"properties":{"city":"Chichibu","homeless2007":null,"density":171.2,"latitude":36.0723315,"city_2":null,"code":11362,"prefecture":"Saitama","type":"cho","country":null,"japanese":"皆野町","population":10888,"area":63.61,"town":"Minano","longitude":139.095224555,"id":"86","lat":null,"long":null},"type":"Feature","geometry":{"type":"Point","coordinates":[139.095224555,36.0723315]}},{"properties":{"city":"Chichibu","homeless2007":null,"density":260.1,"latitude":36.11352,"city_2":null,"code":11363,"prefecture":"Saitama","type":"cho","country":null,"japanese":"長瀞町","population":7908,"area":30.4,"town":"Nagatoro","longitude":139.117804454,"id":"87","lat":null,"long":null},"type":"Feature","geometry":{"type":"Point","coordinates":[139.117804454,36.11352]}},{"properties":{"city":"Chichibu","homeless2007":null,"density":78.4,"latitude":36.025023,"city_2":null,"code":11365,"prefecture":"Saitama","type":"cho","country":null,"japanese":"小鹿野町","population":13436,"area":171.45,"town":"Ogano","longitude":138.9294617,"id":"88","lat":null,"long":null},"type":"Feature","geometry":{"type":"Point","coordinates":[138.9294617,36.025023]}},{"properties":{"city":"Chichibu","homeless2007":null,"density":90.1,"latitude":36.0396345,"city_2":null,"code":11369,"prefecture":"Saitama","type":"cho","country":null,"japanese":"東秩父村","population":3348,"area":37.17,"town":"Higashichichibu","longitude":139.192578055,"id":"89","lat":null,"long":null},"type":"Feature","geometry":{"type":"Point","coordinates":[139.192578055,36.0396345]}},{"properties":{"city":"Kodama","homeless2007":null,"density":346.6,"latitude":36.1679045,"city_2":null,"code":11381,"prefecture":"Saitama","type":"cho","country":null,"japanese":"美里町","population":11605,"area":33.48,"town":"Misato","longitude":139.17696801,"id":"90","lat":null,"long":null},"type":"Feature","geometry":{"type":"Point","coordinates":[139.17696801,36.1679045]}},{"properties":{"city":"Kodama","homeless2007":null,"density":305.1,"latitude":36.1590595,"city_2":null,"code":11383,"prefecture":"Saitama","type":"cho","country":null,"japanese":"神川町","population":14470,"area":47.42,"town":"Kamikawa","longitude":139.075317078,"id":"91","lat":null,"long":null},"type":"Feature","geometry":{"type":"Point","coordinates":[139.075317078,36.1590595]}},{"properties":{"city":"Kodama","homeless2007":null,"density":1061.2,"latitude":36.245644,"city_2":null,"code":11385,"prefecture":"Saitama","type":"cho","country":null,"japanese":"上里町","population":30998,"area":29.21,"town":"Kamisato","longitude":139.136387279,"id":"92","lat":null,"long":null},"type":"Feature","geometry":{"type":"Point","coordinates":[139.136387279,36.245644]}},{"properties":{"city":"Osato","homeless2007":null,"density":557.5,"latitude":36.118544,"city_2":null,"code":11408,"prefecture":"Saitama","type":"cho","country":null,"japanese":"寄居町","population":35774,"area":64.17,"town":"Yorii","longitude":139.185145876,"id":"93","lat":null,"long":null},"type":"Feature","geometry":{"type":"Point","coordinates":[139.185145876,36.118544]}},{"properties":{"city":"Minamisaitama","homeless2007":null,"density":2109.2,"latitude":36.02287,"city_2":null,"code":11442,"prefecture":"Saitama","type":"cho","country":null,"japanese":"宮代町","population":33641,"area":15.95,"town":"Miyashiro","longitude":139.72100551,"id":"94","lat":null,"long":null},"type":"Feature","geometry":{"type":"Point","coordinates":[139.72100551,36.02287]}},{"properties":{"city":"Minamisaitama","homeless2007":null,"density":2020.6,"latitude":36.0203095,"city_2":null,"code":11445,"prefecture":"Saitama","type":"cho","country":null,"japanese":"白岡町","population":50272,"area":24.88,"town":"Shiraoka","longitude":139.68117275,"id":"95","lat":null,"long":null},"type":"Feature","geometry":{"type":"Point","coordinates":[139.68117275,36.0203095]}},{"properties":{"city":"Kitakatsushika","homeless2007":null,"density":1564.1,"latitude":36.031187,"city_2":null,"code":11464,"prefecture":"Saitama","type":"cho","country":null,"japanese":"杉戸町","population":46923,"area":30.0,"town":"Sugito","longitude":139.771495681,"id":"96","lat":null,"long":null},"type":"Feature","geometry":{"type":"Point","coordinates":[139.771495681,36.031187]}},{"properties":{"city":"Kitakatsushika","homeless2007":null,"density":1920.7,"latitude":35.937635,"city_2":null,"code":11465,"prefecture":"Saitama","type":"cho","country":null,"japanese":"松伏町","population":31153,"area":16.22,"town":"Matsubushi","longitude":139.831724859,"id":"97","lat":null,"long":null},"type":"Feature","geometry":{"type":"Point","coordinates":[139.831724859,35.937635]}},{"properties":{"city":"Otaru","homeless2007":null,"density":542.2,"latitude":43.14897,"city_2":null,"code":1203,"prefecture":"Hokkaido","type":"shi","country":null,"japanese":"小樽市","population":131928,"area":243.3,"town":"Otaru","longitude":141.040062664,"id":"98","lat":null,"long":null},"type":"Feature","geometry":{"type":"Point","coordinates":[141.040062664,43.14897]}},{"properties":{"city":"Asahikawa","homeless2007":null,"density":464.3,"latitude":43.746534,"city_2":null,"code":1204,"prefecture":"Hokkaido","type":"shi","country":null,"japanese":"旭川市","population":347095,"area":747.6,"town":"Asahikawa","longitude":142.359543257,"id":"99","lat":null,"long":null},"type":"Feature","geometry":{"type":"Point","coordinates":[142.359543257,43.746534]}},{"properties":{"city":"Muroran","homeless2007":null,"density":1172.2,"latitude":42.369253,"city_2":null,"code":1205,"prefecture":"Hokkaido","type":"shi","country":null,"japanese":"室蘭市","population":94535,"area":80.65,"town":"Muroran","longitude":140.981826301,"id":"100","lat":null,"long":null},"type":"Feature","geometry":{"type":"Point","coordinates":[140.981826301,42.369253]}},{"properties":{"city":"Kushiro","homeless2007":null,"density":132.9,"latitude":43.236824,"city_2":null,"code":1206,"prefecture":"Hokkaido","type":"shi","country":null,"japanese":"釧路市","population":181169,"area":1362.75,"town":"Kushiro","longitude":144.09849632,"id":"101","lat":null,"long":null},"type":"Feature","geometry":{"type":"Point","coordinates":[144.09849632,43.236824]}},{"properties":{"city":"Obihiro","homeless2007":null,"density":271.5,"latitude":42.7828055,"city_2":null,"code":1207,"prefecture":"Hokkaido","type":"shi","country":null,"japanese":"帯広市","population":168057,"area":618.94,"town":"Obihiro","longitude":143.139136209,"id":"102","lat":null,"long":null},"type":"Feature","geometry":{"type":"Point","coordinates":[143.139136209,42.7828055]}},{"properties":{"city":"Kitami","homeless2007":null,"density":88.0,"latitude":43.8886975,"city_2":null,"code":1208,"prefecture":"Hokkaido","type":"shi","country":null,"japanese":"北見市","population":125689,"area":1427.56,"town":"Kitami","longitude":143.895437454,"id":"103","lat":null,"long":null},"type":"Feature","geometry":{"type":"Point","coordinates":[143.895437454,43.8886975]}},{"properties":{"city":"Yubari","homeless2007":null,"density":14.3,"latitude":43.0490735,"city_2":null,"code":1209,"prefecture":"Hokkaido","type":"shi","country":null,"japanese":"夕張市","population":10922,"area":763.2,"town":"Yubari","longitude":142.128232068,"id":"104","lat":null,"long":null},"type":"Feature","geometry":{"type":"Point","coordinates":[142.128232068,43.0490735]}},{"properties":{"city":"Iwamizawa","homeless2007":null,"density":187.4,"latitude":43.2134675,"city_2":null,"code":1210,"prefecture":"Hokkaido","type":"shi","country":null,"japanese":"岩見沢市","population":90145,"area":481.1,"town":"Iwamizawa","longitude":141.745799368,"id":"105","lat":null,"long":null},"type":"Feature","geometry":{"type":"Point","coordinates":[141.745799368,43.2134675]}},{"properties":{"city":"Chiba","homeless2007":null,"density":3534.8,"latitude":35.5978465,"city_2":null,"code":12100,"prefecture":"Chiba","type":"shi","country":null,"japanese":"千葉市","population":961749,"area":272.08,"town":"Chiba","longitude":140.188912116,"id":"106","lat":null,"long":null},"type":"Feature","geometry":{"type":"Point","coordinates":[140.188912116,35.5978465]}},{"properties":{"city":"Abashiri","homeless2007":null,"density":87.0,"latitude":43.969369,"city_2":null,"code":1211,"prefecture":"Hokkaido","type":"shi","country":null,"japanese":"網走市","population":40998,"area":471.0,"town":"Abashiri","longitude":144.182210712,"id":"107","lat":null,"long":null},"type":"Feature","geometry":{"type":"Point","coordinates":[144.182210712,43.969369]}},{"properties":{"city":"Rumoi","homeless2007":null,"density":82.2,"latitude":43.879899,"city_2":null,"code":1212,"prefecture":"Hokkaido","type":"shi","country":null,"japanese":"留萌市","population":24457,"area":297.51,"town":"Rumoi","longitude":141.773924367,"id":"108","lat":null,"long":null},"type":"Feature","geometry":{"type":"Point","coordinates":[141.773924367,43.879899]}},{"properties":{"city":"Tomakomai","homeless2007":null,"density":308.7,"latitude":42.6863305,"city_2":null,"code":1213,"prefecture":"Hokkaido","type":"shi","country":null,"japanese":"苫小牧市","population":173320,"area":561.48,"town":"Tomakomai","longitude":141.597496182,"id":"109","lat":null,"long":null},"type":"Feature","geometry":{"type":"Point","coordinates":[141.597496182,42.6863305]}},{"properties":{"city":"Wakkanai","homeless2007":null,"density":52.0,"latitude":45.342327,"city_2":null,"code":1214,"prefecture":"Hokkaido","type":"shi","country":null,"japanese":"稚内市","population":39595,"area":760.89,"town":"Wakkanai","longitude":141.811938384,"id":"110","lat":null,"long":null},"type":"Feature","geometry":{"type":"Point","coordinates":[141.811938384,45.342327]}},{"properties":{"city":"Bibai","homeless2007":null,"density":93.8,"latitude":43.3422585,"city_2":null,"code":1215,"prefecture":"Hokkaido","type":"shi","country":null,"japanese":"美唄市","population":26034,"area":277.61,"town":"Bibai","longitude":141.862885755,"id":"111","lat":null,"long":null},"type":"Feature","geometry":{"type":"Point","coordinates":[141.862885755,43.3422585]}},{"properties":{"city":"Ashibetsu","homeless2007":null,"density":19.2,"latitude":43.4374445,"city_2":null,"code":1216,"prefecture":"Hokkaido","type":"shi","country":null,"japanese":"芦別市","population":16628,"area":865.02,"town":"Ashibetsu","longitude":142.231751112,"id":"112","lat":null,"long":null},"type":"Feature","geometry":{"type":"Point","coordinates":[142.231751112,43.4374445]}},{"properties":{"city":"Ebetsu","homeless2007":null,"density":659.6,"latitude":43.0989775,"city_2":null,"code":1217,"prefecture":"Hokkaido","type":"shi","country":null,"japanese":"江別市","population":123722,"area":187.57,"town":"Ebetsu","longitude":141.54489235,"id":"113","lat":null,"long":null},"type":"Feature","geometry":{"type":"Point","coordinates":[141.54489235,43.0989775]}},{"properties":{"city":"Akabira","homeless2007":null,"density":97.3,"latitude":43.5651125,"city_2":null,"code":1218,"prefecture":"Hokkaido","type":"shi","country":null,"japanese":"赤平市","population":12637,"area":129.88,"town":"Akabira","longitude":142.064187189,"id":"114","lat":null,"long":null},"type":"Feature","geometry":{"type":"Point","coordinates":[142.064187189,43.5651125]}},{"properties":{"city":"Shibetsu","homeless2007":null,"density":19.5,"latitude":44.10496,"city_2":null,"code":1220,"prefecture":"Hokkaido","type":"shi","country":null,"japanese":"士別市","population":21787,"area":1119.29,"town":"Shibetsu","longitude":142.676763176,"id":"115","lat":null,"long":null},"type":"Feature","geometry":{"type":"Point","coordinates":[142.676763176,44.10496]}},{"properties":{"city":"Choshi","homeless2007":null,"density":836.7,"latitude":35.7514085,"city_2":null,"code":12202,"prefecture":"Chiba","type":"shi","country":null,"japanese":"銚子市","population":70210,"area":83.91,"town":"Choshi","longitude":140.760158224,"id":"116","lat":null,"long":null},"type":"Feature","geometry":{"type":"Point","coordinates":[140.760158224,35.7514085]}},{"properties":{"city":"Ichikawa","homeless2007":null,"density":8243.5,"latitude":35.7198755,"city_2":null,"code":12203,"prefecture":"Chiba","type":"shi","country":null,"japanese":"市川市","population":473919,"area":57.49,"town":"Ichikawa","longitude":139.94155055,"id":"117","lat":null,"long":null},"type":"Feature","geometry":{"type":"Point","coordinates":[139.94155055,35.7198755]}},{"properties":{"city":"Funabashi","homeless2007":null,"density":7111.6,"latitude":35.721871,"city_2":null,"code":12204,"prefecture":"Chiba","type":"shi","country":null,"japanese":"船橋市","population":609040,"area":85.64,"town":"Funabashi","longitude":140.016058626,"id":"118","lat":null,"long":null},"type":"Feature","geometry":{"type":"Point","coordinates":[140.016058626,35.721871]}},{"properties":{"city":"Tateyama","homeless2007":null,"density":447.2,"latitude":34.982918,"city_2":null,"code":12205,"prefecture":"Chiba","type":"shi","country":null,"japanese":"館山市","population":49290,"area":110.21,"town":"Tateyama","longitude":139.865912699,"id":"119","lat":null,"long":null},"type":"Feature","geometry":{"type":"Point","coordinates":[139.865912699,34.982918]}},{"properties":{"city":"Kisarazu","homeless2007":null,"density":932.1,"latitude":35.379992,"city_2":null,"code":12206,"prefecture":"Chiba","type":"shi","country":null,"japanese":"木更津市","population":129312,"area":138.73,"town":"Kisarazu","longitude":139.955456589,"id":"120","lat":null,"long":null},"type":"Feature","geometry":{"type":"Point","coordinates":[139.955456589,35.379992]}},{"properties":{"city":"Matsudo","homeless2007":null,"density":7899.2,"latitude":35.7893275,"city_2":null,"code":12207,"prefecture":"Chiba","type":"shi","country":null,"japanese":"松戸市","population":484457,"area":61.33,"town":"Matsudo","longitude":139.945600195,"id":"121","lat":null,"long":null},"type":"Feature","geometry":{"type":"Point","coordinates":[139.945600195,35.7893275]}},{"properties":{"city":"Noda","homeless2007":null,"density":1501.7,"latitude":36.0008735,"city_2":null,"code":12208,"prefecture":"Chiba","type":"shi","country":null,"japanese":"野田市","population":155491,"area":103.54,"town":"Noda","longitude":139.850553346,"id":"122","lat":null,"long":null},"type":"Feature","geometry":{"type":"Point","coordinates":[139.850553346,36.0008735]}},{"properties":{"city":"Nayoro","homeless2007":null,"density":57.2,"latitude":44.325528,"city_2":null,"code":1221,"prefecture":"Hokkaido","type":"shi","country":null,"japanese":"名寄市","population":30591,"area":535.23,"town":"Nayoro","longitude":142.458155356,"id":"123","lat":null,"long":null},"type":"Feature","geometry":{"type":"Point","coordinates":[142.458155356,44.325528]}},{"properties":{"city":"Mobara","homeless2007":null,"density":930.1,"latitude":35.4352915,"city_2":null,"code":12210,"prefecture":"Chiba","type":"shi","country":null,"japanese":"茂原市","population":93015,"area":100.01,"town":"Mobara","longitude":140.297397691,"id":"124","lat":null,"long":null},"type":"Feature","geometry":{"type":"Point","coordinates":[140.297397691,35.4352915]}},{"properties":{"city":"Narita","homeless2007":null,"density":602.9,"latitude":35.8117665,"city_2":null,"code":12211,"prefecture":"Chiba","type":"shi","country":null,"japanese":"成田市","population":128933,"area":213.84,"town":"Narita","longitude":140.369399079,"id":"125","lat":null,"long":null},"type":"Feature","geometry":{"type":"Point","coordinates":[140.369399079,35.8117665]}},{"properties":{"city":"Sakura","homeless2007":null,"density":1662.2,"latitude":35.6882205,"city_2":null,"code":12212,"prefecture":"Chiba","type":"shi","country":null,"japanese":"佐倉市","population":172183,"area":103.59,"town":"Sakura","longitude":140.248625729,"id":"126","lat":null,"long":null},"type":"Feature","geometry":{"type":"Point","coordinates":[140.248625729,35.6882205]}},{"properties":{"city":"Togane","homeless2007":null,"density":691.2,"latitude":35.5634355,"city_2":null,"code":12213,"prefecture":"Chiba","type":"shi","country":null,"japanese":"東金市","population":61751,"area":89.34,"town":"Togane","longitude":140.365764399,"id":"127","lat":null,"long":null},"type":"Feature","geometry":{"type":"Point","coordinates":[140.365764399,35.5634355]}},{"properties":{"city":"Asahi","homeless2007":null,"density":531.6,"latitude":35.7302235,"city_2":null,"code":12215,"prefecture":"Chiba","type":"shi","country":null,"japanese":"旭市","population":69058,"area":129.91,"town":"Asahi","longitude":140.661190428,"id":"128","lat":null,"long":null},"type":"Feature","geometry":{"type":"Point","coordinates":[140.661190428,35.7302235]}},{"properties":{"city":"Narashino","homeless2007":null,"density":7838.5,"latitude":35.6769985,"city_2":null,"code":12216,"prefecture":"Chiba","type":"shi","country":null,"japanese":"習志野市","population":164530,"area":20.99,"town":"Narashino","longitude":140.047673275,"id":"129","lat":null,"long":null},"type":"Feature","geometry":{"type":"Point","coordinates":[140.047673275,35.6769985]}},{"properties":{"city":"Kashiwa","homeless2007":null,"density":3516.2,"latitude":35.856508,"city_2":null,"code":12217,"prefecture":"Chiba","type":"shi","country":null,"japanese":"柏市","population":404012,"area":114.9,"town":"Kashiwa","longitude":139.986080743,"id":"130","lat":null,"long":null},"type":"Feature","geometry":{"type":"Point","coordinates":[139.986080743,35.856508]}},{"properties":{"city":"Katsuura","homeless2007":null,"density":220.7,"latitude":35.177084,"city_2":null,"code":12218,"prefecture":"Chiba","type":"shi","country":null,"japanese":"勝浦市","population":20788,"area":94.2,"town":"Katsuura","longitude":140.285438038,"id":"131","lat":null,"long":null},"type":"Feature","geometry":{"type":"Point","coordinates":[140.285438038,35.177084]}},{"properties":{"city":"Ichihara","homeless2007":null,"density":761.6,"latitude":35.3905515,"city_2":null,"code":12219,"prefecture":"Chiba","type":"shi","country":null,"japanese":"市原市","population":280416,"area":368.2,"town":"Ichihara","longitude":140.146289168,"id":"132","lat":null,"long":null},"type":"Feature","geometry":{"type":"Point","coordinates":[140.146289168,35.3905515]}},{"properties":{"city":"Mikasa","homeless2007":null,"density":33.8,"latitude":43.2525325,"city_2":null,"code":1222,"prefecture":"Hokkaido","type":"shi","country":null,"japanese":"三笠市","population":10221,"area":302.64,"town":"Mikasa","longitude":141.963900319,"id":"133","lat":null,"long":null},"type":"Feature","geometry":{"type":"Point","coordinates":[141.963900319,43.2525325]}},{"properties":{"city":"Nagareyama","homeless2007":null,"density":4648.1,"latitude":35.870773,"city_2":null,"code":12220,"prefecture":"Chiba","type":"shi","country":null,"japanese":"流山市","population":163984,"area":35.28,"town":"Nagareyama","longitude":139.923527583,"id":"134","lat":null,"long":null},"type":"Feature","geometry":{"type":"Point","coordinates":[139.923527583,35.870773]}},{"properties":{"city":"Yachiyo","homeless2007":null,"density":3701.6,"latitude":35.73667,"city_2":null,"code":12221,"prefecture":"Chiba","type":"shi","country":null,"japanese":"八千代市","population":189781,"area":51.27,"town":"Yachiyo","longitude":140.106227438,"id":"135","lat":null,"long":null},"type":"Feature","geometry":{"type":"Point","coordinates":[140.106227438,35.73667]}},{"properties":{"city":"Abiko","homeless2007":null,"density":3103.0,"latitude":35.870967,"city_2":null,"code":12222,"prefecture":"Chiba","type":"shi","country":null,"japanese":"我孫子市","population":134017,"area":43.19,"town":"Abiko","longitude":140.06307763,"id":"136","lat":null,"long":null},"type":"Feature","geometry":{"type":"Point","coordinates":[140.06307763,35.870967]}},{"properties":{"city":"Kamogawa","homeless2007":null,"density":187.0,"latitude":35.1197715,"city_2":null,"code":12223,"prefecture":"Chiba","type":"shi","country":null,"japanese":"鴨川市","population":35766,"area":191.3,"town":"Kamogawa","longitude":140.038163637,"id":"137","lat":null,"long":null},"type":"Feature","geometry":{"type":"Point","coordinates":[140.038163637,35.1197715]}},{"properties":{"city":"Kamagaya","homeless2007":null,"density":5109.1,"latitude":35.765012,"city_2":null,"code":12224,"prefecture":"Chiba","type":"shi","country":null,"japanese":"鎌ケ谷市","population":107853,"area":21.11,"town":"Kamagaya","longitude":140.002248742,"id":"138","lat":null,"long":null},"type":"Feature","geometry":{"type":"Point","coordinates":[140.002248742,35.765012]}},{"properties":{"city":"Kimitsu","homeless2007":null,"density":279.7,"latitude":35.2645825,"city_2":null,"code":12225,"prefecture":"Chiba","type":"shi","country":null,"japanese":"君津市","population":89168,"area":318.83,"town":"Kimitsu","longitude":140.028487263,"id":"139","lat":null,"long":null},"type":"Feature","geometry":{"type":"Point","coordinates":[140.028487263,35.2645825]}},{"properties":{"city":"Futtsu","homeless2007":null,"density":234.1,"latitude":35.247222,"city_2":null,"code":12226,"prefecture":"Chiba","type":"shi","country":null,"japanese":"富津市","population":48073,"area":205.35,"town":"Futtsu","longitude":139.910882996,"id":"140","lat":null,"long":null},"type":"Feature","geometry":{"type":"Point","coordinates":[139.910882996,35.247222]}},{"properties":{"city":"Urayasu","homeless2007":null,"density":9530.5,"latitude":35.6750055,"city_2":null,"code":12227,"prefecture":"Chiba","type":"shi","country":null,"japanese":"浦安市","population":164877,"area":17.3,"town":"Urayasu","longitude":139.965835215,"id":"141","lat":null,"long":null},"type":"Feature","geometry":{"type":"Point","coordinates":[139.965835215,35.6750055]}},{"properties":{"city":"Yotsukaido","homeless2007":null,"density":2499.3,"latitude":35.662163,"city_2":null,"code":12228,"prefecture":"Chiba","type":"shi","country":null,"japanese":"四街道市","population":86726,"area":34.7,"town":"Yotsukaido","longitude":140.18706759,"id":"142","lat":null,"long":null},"type":"Feature","geometry":{"type":"Point","coordinates":[140.18706759,35.662163]}},{"properties":{"city":"Sodegaura","homeless2007":null,"density":635.9,"latitude":35.4089365,"city_2":null,"code":12229,"prefecture":"Chiba","type":"shi","country":null,"japanese":"袖ケ浦市","population":60355,"area":94.92,"town":"Sodegaura","longitude":140.035761649,"id":"143","lat":null,"long":null},"type":"Feature","geometry":{"type":"Point","coordinates":[140.035761649,35.4089365]}},{"properties":{"city":"Nemuro","homeless2007":null,"density":70.7,"latitude":43.2789735,"city_2":null,"code":1223,"prefecture":"Hokkaido","type":"shi","country":null,"japanese":"根室市","population":29201,"area":512.72,"town":"Nemuro","longitude":145.272985514,"id":"144","lat":null,"long":null},"type":"Feature","geometry":{"type":"Point","coordinates":[145.272985514,43.2789735]}},{"properties":{"city":"Yachimata","homeless2007":null,"density":977.9,"latitude":35.640654,"city_2":null,"code":12230,"prefecture":"Chiba","type":"shi","country":null,"japanese":"八街市","population":73212,"area":74.87,"town":"Yachimata","longitude":140.29070067,"id":"145","lat":null,"long":null},"type":"Feature","geometry":{"type":"Point","coordinates":[140.29070067,35.640654]}},{"properties":{"city":"Inzai","homeless2007":null,"density":712.2,"latitude":35.803584,"city_2":null,"code":12231,"prefecture":"Chiba","type":"shi","country":null,"japanese":"印西市","population":88176,"area":123.8,"town":"Inzai","longitude":140.146383686,"id":"146","lat":null,"long":null},"type":"Feature","geometry":{"type":"Point","coordinates":[140.146383686,35.803584]}},{"properties":{"city":"Shiroi","homeless2007":null,"density":1704.2,"latitude":35.793189,"city_2":null,"code":12232,"prefecture":"Chiba","type":"shi","country":null,"japanese":"白井市","population":60345,"area":35.41,"town":"Shiroi","longitude":140.073132504,"id":"147","lat":null,"long":null},"type":"Feature","geometry":{"type":"Point","coordinates":[140.073132504,35.793189]}},{"properties":{"city":"Tomisato","homeless2007":null,"density":947.6,"latitude":35.7173835,"city_2":null,"code":12233,"prefecture":"Chiba","type":"shi","country":null,"japanese":"富里市","population":51087,"area":53.91,"town":"Tomisato","longitude":140.336481338,"id":"148","lat":null,"long":null},"type":"Feature","geometry":{"type":"Point","coordinates":[140.336481338,35.7173835]}},{"properties":{"city":"Minamiboso","homeless2007":null,"density":182.9,"latitude":35.014058,"city_2":null,"code":12234,"prefecture":"Chiba","type":"shi","country":null,"japanese":"南房総市","population":42104,"area":230.22,"town":"Minamiboso","longitude":139.961723248,"id":"149","lat":null,"long":null},"type":"Feature","geometry":{"type":"Point","coordinates":[139.961723248,35.014058]}},{"properties":{"city":"Sosa","homeless2007":null,"density":391.2,"latitude":35.690729,"city_2":null,"code":12235,"prefecture":"Chiba","type":"shi","country":null,"japanese":"匝瑳市","population":39814,"area":101.78,"town":"Sosa","longitude":140.554071158,"id":"150","lat":null,"long":null},"type":"Feature","geometry":{"type":"Point","coordinates":[140.554071158,35.690729]}},{"properties":{"city":"Katori","homeless2007":null,"density":315.9,"latitude":35.8337785,"city_2":null,"code":12236,"prefecture":"Chiba","type":"shi","country":null,"japanese":"香取市","population":82866,"area":262.31,"town":"Katori","longitude":140.558543639,"id":"151","lat":null,"long":null},"type":"Feature","geometry":{"type":"Point","coordinates":[140.558543639,35.8337785]}},{"properties":{"city":"Isumi","homeless2007":null,"density":260.1,"latitude":35.2703235,"city_2":null,"code":12238,"prefecture":"Chiba","type":"shi","country":null,"japanese":"いすみ市","population":40962,"area":157.5,"town":"Isumi","longitude":140.328393897,"id":"152","lat":null,"long":null},"type":"Feature","geometry":{"type":"Point","coordinates":[140.328393897,35.2703235]}},{"properties":{"city":"Chitose","homeless2007":null,"density":157.3,"latitude":42.8226155,"city_2":null,"code":1224,"prefecture":"Hokkaido","type":"shi","country":null,"japanese":"千歳市","population":93604,"area":594.95,"town":"Chitose","longitude":141.619974064,"id":"153","lat":null,"long":null},"type":"Feature","geometry":{"type":"Point","coordinates":[141.619974064,42.8226155]}},{"properties":{"city":"Takikawa","homeless2007":null,"density":372.7,"latitude":43.6031435,"city_2":null,"code":1225,"prefecture":"Hokkaido","type":"shi","country":null,"japanese":"滝川市","population":43170,"area":115.82,"town":"Takikawa","longitude":141.955097515,"id":"154","lat":null,"long":null},"type":"Feature","geometry":{"type":"Point","coordinates":[141.955097515,43.6031435]}},{"properties":{"city":"Sunagawa","homeless2007":null,"density":242.2,"latitude":43.506909,"city_2":null,"code":1226,"prefecture":"Hokkaido","type":"shi","country":null,"japanese":"砂川市","population":19056,"area":78.69,"town":"Sunagawa","longitude":141.953839415,"id":"155","lat":null,"long":null},"type":"Feature","geometry":{"type":"Point","coordinates":[141.953839415,43.506909]}},{"properties":{"city":"Fukagawa","homeless2007":null,"density":44.8,"latitude":43.8367035,"city_2":null,"code":1228,"prefecture":"Hokkaido","type":"shi","country":null,"japanese":"深川市","population":23709,"area":529.23,"town":"Fukagawa","longitude":142.150405628,"id":"156","lat":null,"long":null},"type":"Feature","geometry":{"type":"Point","coordinates":[142.150405628,43.8367035]}},{"properties":{"city":"Noboribetsu","homeless2007":null,"density":242.9,"latitude":42.456037,"city_2":null,"code":1230,"prefecture":"Hokkaido","type":"shi","country":null,"japanese":"登別市","population":51526,"area":212.11,"town":"Noboribetsu","longitude":141.089890524,"id":"157","lat":null,"long":null},"type":"Feature","geometry":{"type":"Point","coordinates":[141.089890524,42.456037]}},{"properties":{"city":"Eniwa","homeless2007":null,"density":235.3,"latitude":42.906303,"city_2":null,"code":1231,"prefecture":"Hokkaido","type":"shi","country":null,"japanese":"恵庭市","population":69384,"area":294.87,"town":"Eniwa","longitude":141.559499624,"id":"158","lat":null,"long":null},"type":"Feature","geometry":{"type":"Point","coordinates":[141.559499624,42.906303]}},{"properties":{"city":"Inba","homeless2007":null,"density":1116.4,"latitude":35.725889,"city_2":null,"code":12322,"prefecture":"Chiba","type":"cho","country":null,"japanese":"酒々井町","population":21234,"area":19.02,"town":"Shisui","longitude":140.275500142,"id":"159","lat":null,"long":null},"type":"Feature","geometry":{"type":"Point","coordinates":[140.275500142,35.725889]}},{"properties":{"city":"Inba","homeless2007":null,"density":695.6,"latitude":35.840686,"city_2":null,"code":12329,"prefecture":"Chiba","type":"cho","country":null,"japanese":"栄町","population":22580,"area":32.46,"town":"Sakae","longitude":140.228233636,"id":"160","lat":null,"long":null},"type":"Feature","geometry":{"type":"Point","coordinates":[140.228233636,35.840686]}},{"properties":{"city":"Date","homeless2007":null,"density":81.7,"latitude":42.7055595,"city_2":null,"code":1233,"prefecture":"Hokkaido","type":"shi","country":null,"japanese":"伊達市","population":36278,"area":444.28,"town":"Date","longitude":141.103346772,"id":"161","lat":null,"long":null},"type":"Feature","geometry":{"type":"Point","coordinates":[141.103346772,42.7055595]}},{"properties":{"city":"Kitahiroshima","homeless2007":null,"density":509.1,"latitude":42.965721,"city_2":null,"code":1234,"prefecture":"Hokkaido","type":"shi","country":null,"japanese":"北広島市","population":60353,"area":118.54,"town":"Kitahiroshima","longitude":141.53511801,"id":"162","lat":null,"long":null},"type":"Feature","geometry":{"type":"Point","coordinates":[141.53511801,42.965721]}},{"properties":{"city":"Katori","homeless2007":null,"density":325.1,"latitude":35.8803215,"city_2":null,"code":12342,"prefecture":"Chiba","type":"cho","country":null,"japanese":"神崎町","population":6454,"area":19.85,"town":"Kozaki","longitude":140.414677953,"id":"163","lat":null,"long":null},"type":"Feature","geometry":{"type":"Point","coordinates":[140.414677953,35.8803215]}},{"properties":{"city":"Katori","homeless2007":null,"density":220.2,"latitude":35.742032,"city_2":null,"code":12347,"prefecture":"Chiba","type":"cho","country":null,"japanese":"多古町","population":16002,"area":72.68,"town":"Tako","longitude":140.466124665,"id":"164","lat":null,"long":null},"type":"Feature","geometry":{"type":"Point","coordinates":[140.466124665,35.742032]}},{"properties":{"city":"Katori","homeless2007":null,"density":328.3,"latitude":35.8095455,"city_2":null,"code":12349,"prefecture":"Chiba","type":"cho","country":null,"japanese":"東庄町","population":15154,"area":46.16,"town":"Tonosho","longitude":140.684495043,"id":"165","lat":null,"long":null},"type":"Feature","geometry":{"type":"Point","coordinates":[140.684495043,35.8095455]}},{"properties":{"city":"Ishikari","homeless2007":null,"density":82.4,"latitude":43.4404005,"city_2":null,"code":1235,"prefecture":"Hokkaido","type":"shi","country":null,"japanese":"石狩市","population":59449,"area":721.86,"town":"Ishikari","longitude":141.488562875,"id":"166","lat":null,"long":null},"type":"Feature","geometry":{"type":"Point","coordinates":[141.488562875,43.4404005]}},{"properties":{"city":"Hokuto","homeless2007":null,"density":120.9,"latitude":41.8599085,"city_2":null,"code":1236,"prefecture":"Hokkaido","type":"shi","country":null,"japanese":"北斗市","population":48032,"area":397.3,"town":"Hokuto","longitude":140.576271478,"id":"167","lat":null,"long":null},"type":"Feature","geometry":{"type":"Point","coordinates":[140.576271478,41.8599085]}},{"properties":{"city":"Sambu","homeless2007":null,"density":863.1,"latitude":35.508677,"city_2":null,"code":12402,"prefecture":"Chiba","type":"cho","country":null,"japanese":"大網白里町","population":50113,"area":58.06,"town":"Oamishirasato","longitude":140.332780829,"id":"168","lat":null,"long":null},"type":"Feature","geometry":{"type":"Point","coordinates":[140.332780829,35.508677]}},{"properties":{"city":"Sambu","homeless2007":null,"density":759.0,"latitude":35.5282955,"city_2":null,"code":12403,"prefecture":"Chiba","type":"cho","country":null,"japanese":"九十九里町","population":18004,"area":23.72,"town":"Kujukuri","longitude":140.436497126,"id":"169","lat":null,"long":null},"type":"Feature","geometry":{"type":"Point","coordinates":[140.436497126,35.5282955]}},{"properties":{"city":"Sambu","homeless2007":null,"density":182.2,"latitude":35.725075,"city_2":null,"code":12409,"prefecture":"Chiba","type":"cho","country":null,"japanese":"芝山町","population":7920,"area":43.47,"town":"Shibayama","longitude":140.412975419,"id":"170","lat":null,"long":null},"type":"Feature","geometry":{"type":"Point","coordinates":[140.412975419,35.725075]}},{"properties":{"city":"Sambu","homeless2007":null,"density":368.8,"latitude":35.6570415,"city_2":null,"code":12410,"prefecture":"Chiba","type":"cho","country":null,"japanese":"横芝光町","population":24675,"area":66.91,"town":"Yokoshibahikari","longitude":140.503549971,"id":"171","lat":null,"long":null},"type":"Feature","geometry":{"type":"Point","coordinates":[140.503549971,35.6570415]}},{"properties":{"city":"Chosei","homeless2007":null,"density":522.8,"latitude":35.3568215,"city_2":null,"code":12421,"prefecture":"Chiba","type":"cho","country":null,"japanese":"一宮町","population":12034,"area":23.02,"town":"Ichinomiya","longitude":140.370147438,"id":"172","lat":null,"long":null},"type":"Feature","geometry":{"type":"Point","coordinates":[140.370147438,35.3568215]}},{"properties":{"city":"Chosei","homeless2007":null,"density":206.2,"latitude":35.35092,"city_2":null,"code":12422,"prefecture":"Chiba","type":"cho","country":null,"japanese":"睦沢町","population":7340,"area":35.59,"town":"Mutsuzawa","longitude":140.310721772,"id":"173","lat":null,"long":null},"type":"Feature","geometry":{"type":"Point","coordinates":[140.310721772,35.35092]}},{"properties":{"city":"Chosei","homeless2007":null,"density":520.9,"latitude":35.408723,"city_2":null,"code":12423,"prefecture":"Chiba","type":"cho","country":null,"japanese":"長生村","population":14752,"area":28.32,"town":"Chosei","longitude":140.358497844,"id":"174","lat":null,"long":null},"type":"Feature","geometry":{"type":"Point","coordinates":[140.358497844,35.408723]}},{"properties":{"city":"Chosei","homeless2007":null,"density":442.5,"latitude":35.44537,"city_2":null,"code":12424,"prefecture":"Chiba","type":"cho","country":null,"japanese":"白子町","population":12151,"area":27.46,"town":"Shirako","longitude":140.375939779,"id":"175","lat":null,"long":null},"type":"Feature","geometry":{"type":"Point","coordinates":[140.375939779,35.44537]}},{"properties":{"city":"Chosei","homeless2007":null,"density":170.2,"latitude":35.438873,"city_2":null,"code":12426,"prefecture":"Chiba","type":"cho","country":null,"japanese":"長柄町","population":8035,"area":47.2,"town":"Nagara","longitude":140.215784026,"id":"176","lat":null,"long":null},"type":"Feature","geometry":{"type":"Point","coordinates":[140.215784026,35.438873]}},{"properties":{"city":"Chosei","homeless2007":null,"density":138.8,"latitude":35.3709355,"city_2":null,"code":12427,"prefecture":"Chiba","type":"cho","country":null,"japanese":"長南町","population":9073,"area":65.38,"town":"Chonan","longitude":140.254974636,"id":"177","lat":null,"long":null},"type":"Feature","geometry":{"type":"Point","coordinates":[140.254974636,35.3709355]}},{"properties":{"city":"Isumi","homeless2007":null,"density":82.2,"latitude":35.2428015,"city_2":null,"code":12441,"prefecture":"Chiba","type":"cho","country":null,"japanese":"大多喜町","population":10671,"area":129.84,"town":"Otaki","longitude":140.221288694,"id":"178","lat":null,"long":null},"type":"Feature","geometry":{"type":"Point","coordinates":[140.221288694,35.2428015]}},{"properties":{"city":"Isumi","homeless2007":null,"density":310.5,"latitude":35.19688,"city_2":null,"code":12443,"prefecture":"Chiba","type":"cho","country":null,"japanese":"御宿町","population":7738,"area":24.92,"town":"Onjuku","longitude":140.349292827,"id":"179","lat":null,"long":null},"type":"Feature","geometry":{"type":"Point","coordinates":[140.349292827,35.19688]}},{"properties":{"city":"Awa","homeless2007":null,"density":198.2,"latitude":35.126407,"city_2":null,"code":12463,"prefecture":"Chiba","type":"cho","country":null,"japanese":"鋸南町","population":8950,"area":45.16,"town":"Kyonan","longitude":139.881516473,"id":"180","lat":null,"long":null},"type":"Feature","geometry":{"type":"Point","coordinates":[139.881516473,35.126407]}},{"properties":{"city":"Ishikari","homeless2007":null,"density":44.4,"latitude":43.3776505,"city_2":null,"code":1303,"prefecture":"Hokkaido","type":"cho","country":null,"japanese":"当別町","population":18766,"area":422.71,"town":"Tobetsu","longitude":141.573863172,"id":"181","lat":null,"long":null},"type":"Feature","geometry":{"type":"Point","coordinates":[141.573863172,43.3776505]}},{"properties":{"city":"Ishikari","homeless2007":null,"density":44.9,"latitude":43.2329045,"city_2":null,"code":1304,"prefecture":"Hokkaido","type":"cho","country":null,"japanese":"新篠津村","population":3515,"area":78.24,"town":"Shinshinotsu","longitude":141.625246918,"id":"182","lat":null,"long":null},"type":"Feature","geometry":{"type":"Point","coordinates":[141.625246918,43.2329045]}},{"properties":{"city":"Tokyo","homeless2007":null,"density":4047.7,"latitude":35.6853855,"city_2":null,"code":13101,"prefecture":"Tokyo","type":"ku","country":null,"japanese":"千代田区","population":47115,"area":11.64,"town":"Chiyoda","longitude":139.759734426,"id":"183","lat":null,"long":null},"type":"Feature","geometry":{"type":"Point","coordinates":[139.759734426,35.6853855]}},{"properties":{"city":"Tokyo","homeless2007":null,"density":12059.1,"latitude":35.678279,"city_2":null,"code":13102,"prefecture":"Tokyo","type":"ku","country":null,"japanese":"中央区","population":122762,"area":10.18,"town":"Chuo","longitude":139.781320659,"id":"184","lat":null,"long":null},"type":"Feature","geometry":{"type":"Point","coordinates":[139.781320659,35.678279]}},{"properties":{"city":"Tokyo","homeless2007":null,"density":10085.1,"latitude":35.6499135,"city_2":null,"code":13103,"prefecture":"Tokyo","type":"ku","country":null,"japanese":"港区","population":205131,"area":20.34,"town":"Minato","longitude":139.744370088,"id":"185","lat":null,"long":null},"type":"Feature","geometry":{"type":"Point","coordinates":[139.744370088,35.6499135]}},{"properties":{"city":"Tokyo","homeless2007":null,"density":17899.6,"latitude":35.6965355,"city_2":null,"code":13104,"prefecture":"Tokyo","type":"ku","country":null,"japanese":"新宿区","population":326309,"area":18.23,"town":"Shinjuku","longitude":139.726561468,"id":"186","lat":null,"long":null},"type":"Feature","geometry":{"type":"Point","coordinates":[139.726561468,35.6965355]}},{"properties":{"city":"Tokyo","homeless2007":null,"density":18269.3,"latitude":35.713297,"city_2":null,"code":13105,"prefecture":"Tokyo","type":"ku","country":null,"japanese":"文京区","population":206626,"area":11.31,"town":"Bunkyo","longitude":139.752886393,"id":"187","lat":null,"long":null},"type":"Feature","geometry":{"type":"Point","coordinates":[139.752886393,35.713297]}},{"properties":{"city":"Tokyo","homeless2007":null,"density":17453.2,"latitude":35.712732,"city_2":null,"code":13106,"prefecture":"Tokyo","type":"ku","country":null,"japanese":"台東区","population":175928,"area":10.08,"town":"Taito","longitude":139.791925032,"id":"188","lat":null,"long":null},"type":"Feature","geometry":{"type":"Point","coordinates":[139.791925032,35.712732]}},{"properties":{"city":"Tokyo","homeless2007":null,"density":18007.7,"latitude":35.71061,"city_2":null,"code":13107,"prefecture":"Tokyo","type":"ku","country":null,"japanese":"墨田区","population":247606,"area":13.75,"town":"Sumida","longitude":139.821899744,"id":"189","lat":null,"long":null},"type":"Feature","geometry":{"type":"Point","coordinates":[139.821899744,35.71061]}},{"properties":{"city":"Tokyo","homeless2007":null,"density":11537.8,"latitude":35.6562425,"city_2":null,"code":13108,"prefecture":"Tokyo","type":"ku","country":null,"japanese":"江東区","population":460819,"area":39.94,"town":"Koto","longitude":139.816107991,"id":"190","lat":null,"long":null},"type":"Feature","geometry":{"type":"Point","coordinates":[139.816107991,35.6562425]}},{"properties":{"city":"Tokyo","homeless2007":null,"density":16078.4,"latitude":35.6094675,"city_2":null,"code":13109,"prefecture":"Tokyo","type":"ku","country":null,"japanese":"品川区","population":365302,"area":22.72,"town":"Shinagawa","longitude":139.726704202,"id":"191","lat":null,"long":null},"type":"Feature","geometry":{"type":"Point","coordinates":[139.726704202,35.6094675]}},{"properties":{"city":"Tokyo","homeless2007":null,"density":18253.7,"latitude":35.6301335,"city_2":null,"code":13110,"prefecture":"Tokyo","type":"ku","country":null,"japanese":"目黒区","population":268330,"area":14.7,"town":"Meguro","longitude":139.694823617,"id":"192","lat":null,"long":null},"type":"Feature","geometry":{"type":"Point","coordinates":[139.694823617,35.6301335]}},{"properties":{"city":"Tokyo","homeless2007":null,"density":11661.2,"latitude":35.5699865,"city_2":null,"code":13111,"prefecture":"Tokyo","type":"ku","country":null,"japanese":"大田区","population":693373,"area":59.46,"town":"Ota","longitude":139.716058574,"id":"193","lat":null,"long":null},"type":"Feature","geometry":{"type":"Point","coordinates":[139.716058574,35.5699865]}},{"properties":{"city":"Tokyo","homeless2007":null,"density":15102.2,"latitude":35.635975,"city_2":null,"code":13112,"prefecture":"Tokyo","type":"ku","country":null,"japanese":"世田谷区","population":877138,"area":58.08,"town":"Setagaya","longitude":139.641358119,"id":"194","lat":null,"long":null},"type":"Feature","geometry":{"type":"Point","coordinates":[139.641358119,35.635975]}},{"properties":{"city":"Tokyo","homeless2007":null,"density":13533.6,"latitude":35.6623475,"city_2":null,"code":13113,"prefecture":"Tokyo","type":"ku","country":null,"japanese":"渋谷区","population":204492,"area":15.11,"town":"Shibuya","longitude":139.702868687,"id":"195","lat":null,"long":null},"type":"Feature","geometry":{"type":"Point","coordinates":[139.702868687,35.6623475]}},{"properties":{"city":"Tokyo","homeless2007":null,"density":20189.2,"latitude":35.7014165,"city_2":null,"code":13114,"prefecture":"Tokyo","type":"ku","country":null,"japanese":"中野区","population":314750,"area":15.59,"town":"Nakano","longitude":139.687801707,"id":"196","lat":null,"long":null},"type":"Feature","geometry":{"type":"Point","coordinates":[139.687801707,35.7014165]}},{"properties":{"city":"Tokyo","homeless2007":null,"density":16154.3,"latitude":35.698029,"city_2":null,"code":13115,"prefecture":"Tokyo","type":"ku","country":null,"japanese":"杉並区","population":549569,"area":34.02,"town":"Suginami","longitude":139.636656093,"id":"197","lat":null,"long":null},"type":"Feature","geometry":{"type":"Point","coordinates":[139.636656093,35.698029]}},{"properties":{"city":"Tokyo","homeless2007":null,"density":21881.5,"latitude":35.7252775,"city_2":null,"code":13116,"prefecture":"Tokyo","type":"ku","country":null,"japanese":"豊島区","population":284678,"area":13.01,"town":"Toshima","longitude":139.721020636,"id":"198","lat":null,"long":null},"type":"Feature","geometry":{"type":"Point","coordinates":[139.721020636,35.7252775]}},{"properties":{"city":"Tokyo","homeless2007":null,"density":16296.5,"latitude":35.7622815,"city_2":null,"code":13117,"prefecture":"Tokyo","type":"ku","country":null,"japanese":"北区","population":335544,"area":20.59,"town":"Kita","longitude":139.736135106,"id":"199","lat":null,"long":null},"type":"Feature","geometry":{"type":"Point","coordinates":[139.736135106,35.7622815]}},{"properties":{"city":"Tokyo","homeless2007":null,"density":19931.0,"latitude":35.739806,"city_2":null,"code":13118,"prefecture":"Tokyo","type":"ku","country":null,"japanese":"荒川区","population":203296,"area":10.2,"town":"Arakawa","longitude":139.797943044,"id":"200","lat":null,"long":null},"type":"Feature","geometry":{"type":"Point","coordinates":[139.797943044,35.739806]}},{"properties":{"city":"Tokyo","homeless2007":null,"density":16656.0,"latitude":35.7645455,"city_2":null,"code":13119,"prefecture":"Tokyo","type":"ku","country":null,"japanese":"板橋区","population":535824,"area":32.17,"town":"Itabashi","longitude":139.674584249,"id":"201","lat":null,"long":null},"type":"Feature","geometry":{"type":"Point","coordinates":[139.674584249,35.7645455]}},{"properties":{"city":"Tokyo","homeless2007":null,"density":14869.7,"latitude":35.741632,"city_2":null,"code":13120,"prefecture":"Tokyo","type":"ku","country":null,"japanese":"練馬区","population":716124,"area":48.16,"town":"Nerima","longitude":139.627304695,"id":"202","lat":null,"long":null},"type":"Feature","geometry":{"type":"Point","coordinates":[139.627304695,35.741632]}},{"properties":{"city":"Tokyo","homeless2007":null,"density":12846.4,"latitude":35.778333,"city_2":null,"code":13121,"prefecture":"Tokyo","type":"ku","country":null,"japanese":"足立区","population":683426,"area":53.2,"town":"Adachi","longitude":139.799323328,"id":"203","lat":null,"long":null},"type":"Feature","geometry":{"type":"Point","coordinates":[139.799323328,35.778333]}},{"properties":{"city":"Tokyo","homeless2007":null,"density":12721.6,"latitude":35.751151,"city_2":null,"code":13122,"prefecture":"Tokyo","type":"ku","country":null,"japanese":"葛飾区","population":442586,"area":34.79,"town":"Katsushika","longitude":139.854059235,"id":"204","lat":null,"long":null},"type":"Feature","geometry":{"type":"Point","coordinates":[139.854059235,35.751151]}},{"properties":{"city":"Tokyo","homeless2007":null,"density":13644.8,"latitude":35.692329,"city_2":null,"code":13123,"prefecture":"Tokyo","type":"ku","country":null,"japanese":"江戸川区","population":678967,"area":49.76,"town":"Edogawa","longitude":139.89607719,"id":"205","lat":null,"long":null},"type":"Feature","geometry":{"type":"Point","coordinates":[139.89607719,35.692329]}},{"properties":{"city":"Hachioji","homeless2007":null,"density":3113.4,"latitude":35.6543865,"city_2":null,"code":13201,"prefecture":"Tokyo","type":"shi","country":null,"japanese":"八王子市","population":580053,"area":186.31,"town":"Hachioji","longitude":139.268538859,"id":"206","lat":null,"long":null},"type":"Feature","geometry":{"type":"Point","coordinates":[139.268538859,35.6543865]}},{"properties":{"city":"Tachikawa","homeless2007":null,"density":7369.5,"latitude":35.7110075,"city_2":null,"code":13202,"prefecture":"Tokyo","type":"shi","country":null,"japanese":"立川市","population":179668,"area":24.38,"town":"Tachikawa","longitude":139.421130826,"id":"207","lat":null,"long":null},"type":"Feature","geometry":{"type":"Point","coordinates":[139.421130826,35.7110075]}},{"properties":{"city":"Musashino","homeless2007":null,"density":12929.5,"latitude":35.704082,"city_2":null,"code":13203,"prefecture":"Tokyo","type":"shi","country":null,"japanese":"武蔵野市","population":138734,"area":10.73,"town":"Musashino","longitude":139.570688356,"id":"208","lat":null,"long":null},"type":"Feature","geometry":{"type":"Point","coordinates":[139.570688356,35.704082]}},{"properties":{"city":"Mitaka","homeless2007":null,"density":11277.8,"latitude":35.678877,"city_2":null,"code":13204,"prefecture":"Tokyo","type":"shi","country":null,"japanese":"三鷹市","population":186083,"area":16.5,"town":"Mitaka","longitude":139.564174149,"id":"209","lat":null,"long":null},"type":"Feature","geometry":{"type":"Point","coordinates":[139.564174149,35.678877]}},{"properties":{"city":"Ome","homeless2007":null,"density":1349.4,"latitude":35.8006695,"city_2":null,"code":13205,"prefecture":"Tokyo","type":"shi","country":null,"japanese":"青梅市","population":139339,"area":103.26,"town":"Ome","longitude":139.250587156,"id":"210","lat":null,"long":null},"type":"Feature","geometry":{"type":"Point","coordinates":[139.250587156,35.8006695]}},{"properties":{"city":"Fuchu","homeless2007":null,"density":8708.5,"latitude":35.668096,"city_2":null,"code":13206,"prefecture":"Tokyo","type":"shi","country":null,"japanese":"府中市","population":255506,"area":29.34,"town":"Fuchu","longitude":139.48311126,"id":"211","lat":null,"long":null},"type":"Feature","geometry":{"type":"Point","coordinates":[139.48311126,35.668096]}},{"properties":{"city":"Akishima","homeless2007":null,"density":6479.9,"latitude":35.7049105,"city_2":null,"code":13207,"prefecture":"Tokyo","type":"shi","country":null,"japanese":"昭島市","population":112297,"area":17.33,"town":"Akishima","longitude":139.3689704,"id":"212","lat":null,"long":null},"type":"Feature","geometry":{"type":"Point","coordinates":[139.3689704,35.7049105]}},{"properties":{"city":"Chofu","homeless2007":null,"density":10385.2,"latitude":35.6549045,"city_2":null,"code":13208,"prefecture":"Tokyo","type":"shi","country":null,"japanese":"調布市","population":223593,"area":21.53,"town":"Chofu","longitude":139.563223087,"id":"213","lat":null,"long":null},"type":"Feature","geometry":{"type":"Point","coordinates":[139.563223087,35.6549045]}},{"properties":{"city":"Machida","homeless2007":null,"density":5961.0,"latitude":35.5589625,"city_2":null,"code":13209,"prefecture":"Tokyo","type":"shi","country":null,"japanese":"町田市","population":426987,"area":71.63,"town":"Machida","longitude":139.456598123,"id":"214","lat":null,"long":null},"type":"Feature","geometry":{"type":"Point","coordinates":[139.456598123,35.5589625]}},{"properties":{"city":"Koganei","homeless2007":null,"density":10490.0,"latitude":35.6992885,"city_2":null,"code":13210,"prefecture":"Tokyo","type":"shi","country":null,"japanese":"小金井市","population":118852,"area":11.33,"town":"Koganei","longitude":139.518257116,"id":"215","lat":null,"long":null},"type":"Feature","geometry":{"type":"Point","coordinates":[139.518257116,35.6992885]}},{"properties":{"city":"Kodaira","homeless2007":null,"density":9141.5,"latitude":35.722811,"city_2":null,"code":13211,"prefecture":"Tokyo","type":"shi","country":null,"japanese":"小平市","population":187035,"area":20.46,"town":"Kodaira","longitude":139.486491021,"id":"216","lat":null,"long":null},"type":"Feature","geometry":{"type":"Point","coordinates":[139.486491021,35.722811]}},{"properties":{"city":"Hino","homeless2007":null,"density":6540.2,"latitude":35.6617215,"city_2":null,"code":13212,"prefecture":"Tokyo","type":"shi","country":null,"japanese":"日野市","population":180052,"area":27.53,"town":"Hino","longitude":139.404719298,"id":"217","lat":null,"long":null},"type":"Feature","geometry":{"type":"Point","coordinates":[139.404719298,35.6617215]}},{"properties":{"city":"Higashimurayama","homeless2007":null,"density":8943.3,"latitude":35.754413,"city_2":null,"code":13213,"prefecture":"Tokyo","type":"shi","country":null,"japanese":"東村山市","population":153557,"area":17.17,"town":"Higashimurayama","longitude":139.475846548,"id":"218","lat":null,"long":null},"type":"Feature","geometry":{"type":"Point","coordinates":[139.475846548,35.754413]}},{"properties":{"city":"Kokubunji","homeless2007":null,"density":10509.6,"latitude":35.7018025,"city_2":null,"code":13214,"prefecture":"Tokyo","type":"shi","country":null,"japanese":"国分寺市","population":120650,"area":11.48,"town":"Kokubunji","longitude":139.46438825,"id":"219","lat":null,"long":null},"type":"Feature","geometry":{"type":"Point","coordinates":[139.46438825,35.7018025]}},{"properties":{"city":"Kunitachi","homeless2007":null,"density":9265.0,"latitude":35.6845695,"city_2":null,"code":13215,"prefecture":"Tokyo","type":"shi","country":null,"japanese":"国立市","population":75510,"area":8.15,"town":"Kunitachi","longitude":139.446621397,"id":"220","lat":null,"long":null},"type":"Feature","geometry":{"type":"Point","coordinates":[139.446621397,35.6845695]}},{"properties":{"city":"Fussa","homeless2007":null,"density":5839.5,"latitude":35.729877,"city_2":null,"code":13218,"prefecture":"Tokyo","type":"shi","country":null,"japanese":"福生市","population":59796,"area":10.24,"town":"Fussa","longitude":139.344540401,"id":"221","lat":null,"long":null},"type":"Feature","geometry":{"type":"Point","coordinates":[139.344540401,35.729877]}},{"properties":{"city":"Komae","homeless2007":null,"density":12324.1,"latitude":35.6297655,"city_2":null,"code":13219,"prefecture":"Tokyo","type":"shi","country":null,"japanese":"狛江市","population":78751,"area":6.39,"town":"Komae","longitude":139.581801133,"id":"222","lat":null,"long":null},"type":"Feature","geometry":{"type":"Point","coordinates":[139.581801133,35.6297655]}},{"properties":{"city":"Higashiyamato","homeless2007":null,"density":6135.0,"latitude":35.7473635,"city_2":null,"code":13220,"prefecture":"Tokyo","type":"shi","country":null,"japanese":"東大和市","population":83068,"area":13.54,"town":"Higashiyamato","longitude":139.432839251,"id":"223","lat":null,"long":null},"type":"Feature","geometry":{"type":"Point","coordinates":[139.432839251,35.7473635]}},{"properties":{"city":"Kiyose","homeless2007":null,"density":7272.2,"latitude":35.7772555,"city_2":null,"code":13221,"prefecture":"Tokyo","type":"shi","country":null,"japanese":"清瀬市","population":74104,"area":10.19,"town":"Kiyose","longitude":139.523771208,"id":"224","lat":null,"long":null},"type":"Feature","geometry":{"type":"Point","coordinates":[139.523771208,35.7772555]}},{"properties":{"city":"Higashikurume","homeless2007":null,"density":9020.6,"latitude":35.7486535,"city_2":null,"code":13222,"prefecture":"Tokyo","type":"shi","country":null,"japanese":"東久留米市","population":116546,"area":12.92,"town":"Higashikurume","longitude":139.525771328,"id":"225","lat":null,"long":null},"type":"Feature","geometry":{"type":"Point","coordinates":[139.525771328,35.7486535]}},{"properties":{"city":"Musashimurayama","homeless2007":null,"density":4557.8,"latitude":35.747636,"city_2":null,"code":13223,"prefecture":"Tokyo","type":"shi","country":null,"japanese":"武蔵村山市","population":70053,"area":15.37,"town":"Musashimurayama","longitude":139.385404677,"id":"226","lat":null,"long":null},"type":"Feature","geometry":{"type":"Point","coordinates":[139.385404677,35.747636]}},{"properties":{"city":"Tama","homeless2007":null,"density":7004.2,"latitude":35.630533,"city_2":null,"code":13224,"prefecture":"Tokyo","type":"shi","country":null,"japanese":"多摩市","population":147648,"area":21.08,"town":"Tama","longitude":139.454267458,"id":"227","lat":null,"long":null},"type":"Feature","geometry":{"type":"Point","coordinates":[139.454267458,35.630533]}},{"properties":{"city":"Inagi","homeless2007":null,"density":4720.9,"latitude":35.624727,"city_2":null,"code":13225,"prefecture":"Tokyo","type":"shi","country":null,"japanese":"稲城市","population":84835,"area":17.97,"town":"Inagi","longitude":139.495466626,"id":"228","lat":null,"long":null},"type":"Feature","geometry":{"type":"Point","coordinates":[139.495466626,35.624727]}},{"properties":{"city":"Hamura","homeless2007":null,"density":5755.0,"latitude":35.7597925,"city_2":null,"code":13227,"prefecture":"Tokyo","type":"shi","country":null,"japanese":"羽村市","population":57032,"area":9.91,"town":"Hamura","longitude":139.322627722,"id":"229","lat":null,"long":null},"type":"Feature","geometry":{"type":"Point","coordinates":[139.322627722,35.7597925]}},{"properties":{"city":"Akiruno","homeless2007":null,"density":1102.6,"latitude":35.7294075,"city_2":null,"code":13228,"prefecture":"Tokyo","type":"shi","country":null,"japanese":"あきる野市","population":80868,"area":73.34,"town":"Akiruno","longitude":139.249067119,"id":"230","lat":null,"long":null},"type":"Feature","geometry":{"type":"Point","coordinates":[139.249067119,35.7294075]}},{"properties":{"city":"Nishitokyo","homeless2007":null,"density":12398.2,"latitude":35.7410955,"city_2":null,"code":13229,"prefecture":"Tokyo","type":"shi","country":null,"japanese":"西東京市","population":196511,"area":15.85,"town":"Nishitokyo","longitude":139.558754412,"id":"231","lat":null,"long":null},"type":"Feature","geometry":{"type":"Point","coordinates":[139.558754412,35.7410955]}},{"properties":{"city":"Nishitama","homeless2007":null,"density":1990.3,"latitude":35.766853,"city_2":null,"code":13303,"prefecture":"Tokyo","type":"cho","country":null,"japanese":"瑞穂町","population":33497,"area":16.83,"town":"Mizuho","longitude":139.362623743,"id":"232","lat":null,"long":null},"type":"Feature","geometry":{"type":"Point","coordinates":[139.362623743,35.766853]}},{"properties":{"city":"Nishitama","homeless2007":null,"density":592.9,"latitude":35.757381,"city_2":null,"code":13305,"prefecture":"Tokyo","type":"cho","country":null,"japanese":"日の出町","population":16650,"area":28.08,"town":"Hinode","longitude":139.230222905,"id":"233","lat":null,"long":null},"type":"Feature","geometry":{"type":"Point","coordinates":[139.230222905,35.757381]}},{"properties":{"city":"Nishitama","homeless2007":null,"density":24.3,"latitude":35.7188435,"city_2":null,"code":13307,"prefecture":"Tokyo","type":"cho","country":null,"japanese":"檜原村","population":2558,"area":105.42,"town":"Hinohara","longitude":139.098097959,"id":"234","lat":null,"long":null},"type":"Feature","geometry":{"type":"Point","coordinates":[139.098097959,35.7188435]}},{"properties":{"city":"Nishitama","homeless2007":null,"density":26.8,"latitude":35.815402,"city_2":null,"code":13308,"prefecture":"Tokyo","type":"cho","country":null,"japanese":"奥多摩町","population":6045,"area":225.63,"town":"Okutama","longitude":139.076680682,"id":"235","lat":null,"long":null},"type":"Feature","geometry":{"type":"Point","coordinates":[139.076680682,35.815402]}},{"properties":{"city":"Oshima","homeless2007":null,"density":29.8,"latitude":41.5168875,"city_2":null,"code":1331,"prefecture":"Hokkaido","type":"cho","country":null,"japanese":"松前町","population":8748,"area":293.12,"town":"Matsumae","longitude":140.0900949,"id":"236","lat":null,"long":null},"type":"Feature","geometry":{"type":"Point","coordinates":[140.0900949,41.5168875]}},{"properties":{"city":"Oshima","homeless2007":null,"density":27.3,"latitude":41.5211425,"city_2":null,"code":1332,"prefecture":"Hokkaido","type":"cho","country":null,"japanese":"福島町","population":5114,"area":187.25,"town":"Fukushima","longitude":140.290785143,"id":"237","lat":null,"long":null},"type":"Feature","geometry":{"type":"Point","coordinates":[140.290785143,41.5211425]}},{"properties":{"city":"Oshima","homeless2007":null,"density":25.8,"latitude":41.5947895,"city_2":null,"code":1333,"prefecture":"Hokkaido","type":"cho","country":null,"japanese":"知内町","population":5074,"area":196.67,"town":"Shiriuchi","longitude":140.328711324,"id":"238","lat":null,"long":null},"type":"Feature","geometry":{"type":"Point","coordinates":[140.328711324,41.5947895]}},{"properties":{"city":"Oshima","homeless2007":null,"density":24.1,"latitude":41.733658,"city_2":null,"code":1334,"prefecture":"Hokkaido","type":"cho","country":null,"japanese":"木古内町","population":5341,"area":221.89,"town":"Kikonai","longitude":140.449967225,"id":"239","lat":null,"long":null},"type":"Feature","geometry":{"type":"Point","coordinates":[140.449967225,41.733658]}},{"properties":{"city":"Oshima","homeless2007":null,"density":131.4,"latitude":41.950784,"city_2":null,"code":1337,"prefecture":"Hokkaido","type":"cho","country":null,"japanese":"七飯町","population":28463,"area":216.61,"town":"Nanae","longitude":140.704521223,"id":"240","lat":null,"long":null},"type":"Feature","geometry":{"type":"Point","coordinates":[140.704521223,41.950784]}},{"properties":{"city":"Oshima","homeless2007":null,"density":43.1,"latitude":42.0113355,"city_2":null,"code":1343,"prefecture":"Hokkaido","type":"cho","country":null,"japanese":"鹿部町","population":4767,"area":110.61,"town":"Shikabe","longitude":140.803313716,"id":"241","lat":null,"long":null},"type":"Feature","geometry":{"type":"Point","coordinates":[140.803313716,42.0113355]}},{"properties":{"city":"Oshima","homeless2007":null,"density":48.5,"latitude":42.074299,"city_2":null,"code":1345,"prefecture":"Hokkaido","type":"cho","country":null,"japanese":"森町","population":17859,"area":368.27,"town":"Mori","longitude":140.581930232,"id":"242","lat":null,"long":null},"type":"Feature","geometry":{"type":"Point","coordinates":[140.581930232,42.074299]}},{"properties":{"city":"Oshima","homeless2007":null,"density":19.8,"latitude":42.207796,"city_2":null,"code":1346,"prefecture":"Hokkaido","type":"cho","country":null,"japanese":"八雲町","population":18896,"area":955.98,"town":"Yakumo","longitude":140.205640352,"id":"243","lat":null,"long":null},"type":"Feature","geometry":{"type":"Point","coordinates":[140.205640352,42.207796]}},{"properties":{"city":"Hiyama","homeless2007":null,"density":82.2,"latitude":44.809059,"city_2":null,"code":1361,"prefecture":"Hokkaido","type":"cho","country":null,"japanese":"江差町","population":9004,"area":109.59,"town":"Esashi","longitude":142.513067505,"id":"244","lat":null,"long":null},"type":"Feature","geometry":{"type":"Point","coordinates":[142.513067505,44.809059]}},{"properties":{"city":"Hiyama","homeless2007":null,"density":9.9,"latitude":41.719707,"city_2":null,"code":1362,"prefecture":"Hokkaido","type":"cho","country":null,"japanese":"上ノ国町","population":5428,"area":547.6,"town":"Kaminokuni","longitude":140.182438446,"id":"245","lat":null,"long":null},"type":"Feature","geometry":{"type":"Point","coordinates":[140.182438446,41.719707]}},{"properties":{"city":"Hiyama","homeless2007":null,"density":9.6,"latitude":41.918917,"city_2":null,"code":1363,"prefecture":"Hokkaido","type":"cho","country":null,"japanese":"厚沢部町","population":4409,"area":460.42,"town":"Assabu","longitude":140.308087618,"id":"246","lat":null,"long":null},"type":"Feature","geometry":{"type":"Point","coordinates":[140.308087618,41.918917]}},{"properties":{"city":"Hiyama","homeless2007":null,"density":27.1,"latitude":42.0256085,"city_2":null,"code":1364,"prefecture":"Hokkaido","type":"cho","country":null,"japanese":"乙部町","population":4408,"area":162.56,"town":"Otobe","longitude":140.184666206,"id":"247","lat":null,"long":null},"type":"Feature","geometry":{"type":"Point","coordinates":[140.184666206,42.0256085]}},{"properties":{"city":"Hiyama","homeless2007":null,"density":21.2,"latitude":42.1522215,"city_2":null,"code":1367,"prefecture":"Hokkaido","type":"cho","country":null,"japanese":"奥尻町","population":3033,"area":142.98,"town":"Okushiri","longitude":139.467224996,"id":"248","lat":null,"long":null},"type":"Feature","geometry":{"type":"Point","coordinates":[139.467224996,42.1522215]}},{"properties":{"city":"Hiyama","homeless2007":null,"density":10.9,"latitude":42.4473085,"city_2":null,"code":1370,"prefecture":"Hokkaido","type":"cho","country":null,"japanese":"今金町","population":6186,"area":568.14,"town":"Imakane","longitude":140.099019293,"id":"249","lat":null,"long":null},"type":"Feature","geometry":{"type":"Point","coordinates":[140.099019293,42.4473085]}},{"properties":{"city":"Hiyama","homeless2007":null,"density":15.0,"latitude":42.3778835,"city_2":null,"code":1371,"prefecture":"Hokkaido","type":"cho","country":null,"japanese":"せたな町","population":9590,"area":638.67,"town":"Setana","longitude":139.885545174,"id":"250","lat":null,"long":null},"type":"Feature","geometry":{"type":"Point","coordinates":[139.885545174,42.3778835]}},{"properties":{"city":"Shiribeshi","homeless2007":null,"density":4.1,"latitude":42.682949,"city_2":null,"code":1391,"prefecture":"Hokkaido","type":"cho","country":null,"japanese":"島牧村","population":1781,"area":437.26,"town":"Shimamaki","longitude":140.067843898,"id":"251","lat":null,"long":null},"type":"Feature","geometry":{"type":"Point","coordinates":[140.067843898,42.682949]}},{"properties":{"city":"Shiribeshi","homeless2007":null,"density":36.1,"latitude":42.8095625,"city_2":null,"code":1392,"prefecture":"Hokkaido","type":"cho","country":null,"japanese":"寿都町","population":3443,"area":95.37,"town":"Suttsu","longitude":140.346914991,"id":"252","lat":null,"long":null},"type":"Feature","geometry":{"type":"Point","coordinates":[140.346914991,42.8095625]}},{"properties":{"city":"Shiribeshi","homeless2007":null,"density":9.4,"latitude":42.6742085,"city_2":null,"code":1393,"prefecture":"Hokkaido","type":"cho","country":null,"japanese":"黒松内町","population":3250,"area":345.47,"town":"Kuromatsunai","longitude":140.377940219,"id":"253","lat":null,"long":null},"type":"Feature","geometry":{"type":"Point","coordinates":[140.377940219,42.6742085]}},{"properties":{"city":"Shiribeshi","homeless2007":null,"density":11.8,"latitude":42.7833695,"city_2":null,"code":1394,"prefecture":"Hokkaido","type":"cho","country":null,"japanese":"蘭越町","population":5292,"area":449.68,"town":"Rankoshi","longitude":140.500353078,"id":"254","lat":null,"long":null},"type":"Feature","geometry":{"type":"Point","coordinates":[140.500353078,42.7833695]}},{"properties":{"city":"Shiribeshi","homeless2007":null,"density":24.5,"latitude":42.798341,"city_2":null,"code":1395,"prefecture":"Hokkaido","type":"cho","country":null,"japanese":"ニセコ町","population":4823,"area":197.13,"town":"Niseko","longitude":140.695087966,"id":"255","lat":null,"long":null},"type":"Feature","geometry":{"type":"Point","coordinates":[140.695087966,42.798341]}},{"properties":{"city":"Shiribeshi","homeless2007":null,"density":19.1,"latitude":42.7488065,"city_2":null,"code":1396,"prefecture":"Hokkaido","type":"cho","country":null,"japanese":"真狩村","population":2189,"area":114.43,"town":"Makkari","longitude":140.795545041,"id":"256","lat":null,"long":null},"type":"Feature","geometry":{"type":"Point","coordinates":[140.795545041,42.7488065]}},