{"url_type":null,"title":"Red Cross, Midwest Sites and Shelters for Iowa Flooding, June 17th 2008","count":42,"stream_id":2167,"contributor":{"name":"data","url":"http://geocommons.com/users/2"},"extent":[-93.6878,36.8555,-83.2993,43.7921],"data_attributes":null,"calculation_params":null,"icon_link":null,"link":"http://geocommons.com/overlays/2167.json","features":[{"city":"Vinton","latitude":42.161856,"county":"BENTON COUNTY","service":"Shelter","street":"1002 G Ave.","geometry":{"type":"Point","coordinates":[-92.032618,42.161856]},"longitude":-92.032618,"id":"a65guxq77che","location":"Iowa Braille School","state":"IA"},{"city":"Cedar Falls","latitude":42.51309,"county":"BLACKHAWK COUNTY","service":"Shelter","street":"2501 Minnesota Street","geometry":{"type":"Point","coordinates":[-92.462669,42.51309]},"longitude":-92.462669,"id":"a65guxm1xons","location":"University of N. Iowa","state":"IA"},{"city":"Waverly","latitude":42.725715,"county":"BREMER COUNTY","service":"Shelter","street":"100 Wartburg College","geometry":{"type":"Point","coordinates":[-92.476269,42.725715]},"longitude":-92.476269,"id":"a65guxjq8g8w","location":"Wartburg College","state":"IA"},{"city":"Columbus","latitude":39.227362,"county":"Bartholomew County","service":"Service delivery site","street":"1400 27th St.","geometry":{"type":"Point","coordinates":[-85.909927,39.227362]},"longitude":-85.909927,"id":"a65guxhv0o0q","location":"Northside Middle School","state":"IN"},{"city":"Elkader","latitude":42.85623,"county":"CLAYTON COUNTY","service":"fixed feeding site","street":"400 1st St. NW","geometry":{"type":"Point","coordinates":[-91.407638,42.85623]},"longitude":-91.407638,"id":"a65guxiyl6rd","location":"Elkader Central Community School","state":"IA."},{"city":"Soldiers Grove","latitude":43.381332,"county":"CRAWFORD, GRANT, AND RICHLAND COUNTIES","service":"Bulk Distribution","street":"47050 County Road X","geometry":{"type":"Point","coordinates":[-90.709885,43.381332]},"longitude":-90.709885,"id":"a65guxcr18k6","location":"North Crawford High School","state":"WI"},{"city":"Beaver Dam","latitude":43.467829,"county":"DODGE COUNTY","service":"Service delivery site","street":"600 Grove Street","geometry":{"type":"Point","coordinates":[-88.838103,43.467829]},"longitude":-88.838103,"id":"a65guxprqzgn","location":"Washington Elementary School","state":"WI"},{"city":"Fond Du Lac","latitude":43.76976,"county":"FOND DU LAC COUNTY","service":"Shelter","street":"Martin St. &amp; Hwy 45","geometry":{"type":"Point","coordinates":[-88.431559,43.76976]},"longitude":-88.431559,"id":"a65guxlr6u3q","location":"Fairgrounds Recreation Building","state":"WI."},{"city":"Muscoda","latitude":43.192437,"county":"GRANT COUNTY","service":"Shelter","street":"800 N. 6th St","geometry":{"type":"Point","coordinates":[-90.436494,43.192437]},"longitude":-90.436494,"id":"a65guxci0pe4","location":"Riverdale Elementary and Middle School","state":"WI"},{"city":"Biggsville","latitude":40.85122,"county":"HENDERSON COUNTY","service":"Shelter","street":"RR1","geometry":{"type":"Point","coordinates":[-90.864369,40.85122]},"longitude":-90.864369,"id":"a65guxj9n85z","location":"West Central High School","state":"IL"},{"city":"Coralville","latitude":41.681909,"county":"JOHNSON COUNTY","service":"Shelter","street":"1507 8th St","geometry":{"type":"Point","coordinates":[-91.584074,41.681909]},"longitude":-91.584074,"id":"a65guxpsmvr7","location":"Northwest Junior High School","state":"IA"},{"city":"Iowa City","latitude":41.623902,"county":"JOHNSON COUNTY","service":"Shelter","street":"4265 Oak Crest Hill Rd. SE (Bldg. A)","geometry":{"type":"Point","coordinates":[-91.544732,41.623902]},"longitude":-91.544732,"id":"a65guxom3bb5","location":"4-H Fairgrounds Bldg. A Johnson County Fairgrounds","state":"IA"},{"city":"Medora","latitude":38.89428,"county":"Jackson County","service":"Service delivery site","street":"7709 W. 650 S.","geometry":{"type":"Point","coordinates":[-86.164039,38.89428]},"longitude":-86.164039,"id":"a65guxe74flo","location":"Medora Conservation Club","state":"IN"},{"city":"101 Branigan Blvd. Franklin","latitude":39.48382,"county":"Johnson County","service":"Service delivery site","street":"Franklin College","geometry":{"type":"Point","coordinates":[-86.064109,39.48382]},"longitude":-86.064109,"id":"a65guxoxj43g","location":"Johnson Center for Fine Arts","state":"IN"},{"city":"1st &amp; Harrison St. Vincennes","latitude":38.68511,"county":"Knox County","service":"Service delivery site","street":"Vincennes University","geometry":{"type":"Point","coordinates":[-87.524429,38.68511]},"longitude":-87.524429,"id":"a65guxpi6k4w","location":"Robert E. Green Activity Center","state":"IN (NEW SITE)"},{"city":"La Crosse","latitude":43.780317,"county":"LA CROSSE COUNTY","service":"Service delivery site","street":"2927 Losey Blvd.","geometry":{"type":"Point","coordinates":[-91.219152,43.780317]},"longitude":-91.219152,"id":"a65guxpfxr4s","location":"Scenic Bluffs Chapter of the American Red Cross","state":"WI"},{"city":"Hiawatha","latitude":42.036652,"county":"LINN COUNTY","service":"Shelter","street":"201 1st Ave.","geometry":{"type":"Point","coordinates":[-91.671548,42.036652]},"longitude":-91.671548,"id":"a65guxr0kvnq","location":"Zion Lutheran Church","state":"IA"},{"city":"Cedar Rapids","latitude":41.904967,"county":"LINN COUNTY","service":"Shelter","street":"401 76th Ave. S.W.","geometry":{"type":"Point","coordinates":[-91.66931,41.904967]},"longitude":-91.66931,"id":"a65guxh80wrb","location":"Prairie High School","state":"IA"},{"city":"Cedar Rapids","latitude":42.038023,"county":"LINN COUNTY","service":"Shelter","street":"6101 Gibson Dr. N.E.","geometry":{"type":"Point","coordinates":[-91.713123,42.038023]},"longitude":-91.713123,"id":"a65guxbf2ltg","location":"Viola Gibson Elementary School","state":"IA"},{"city":"Milwaukee","latitude":43.024507,"county":"MILWAUKEE COUNTY","service":"Shelter","street":"640 S. 84th St.","geometry":{"type":"Point","coordinates":[-88.017094,43.024507]},"longitude":-88.017094,"id":"a65guxl4j11w","location":"Tommy G. Thompson Youth Center","state":"WI"},{"city":"Milwaukee","latitude":43.038874,"county":"MILWAUKEE COUNTY","service":"Service delivery site","street":"2600 W. Wisconsin Avenue","geometry":{"type":"Point","coordinates":[-87.946463,43.038874]},"longitude":-87.946463,"id":"a65guxdwtu5o","location":"Southeast Wisconsin Chapter of the American Red Cross","state":"WI"},{"city":"Kendall","latitude":43.792085,"county":"MONROE COUNTY","service":"Bulk Distribution","street":"219 East South Railroad Street","geometry":{"type":"Point","coordinates":[-90.367266,43.792085]},"longitude":-90.367266,"id":"a65guxaki7j2","location":"Kendall Village Hall","state":"WI"},{"city":"Martinsville","latitude":39.41366,"county":"Morgan County","service":"Service delivery site","street":"139 E. Poston Rd.","geometry":{"type":"Point","coordinates":[-86.428105,39.41366]},"longitude":-86.428105,"id":"a65guxfq2czr","location":"Poston Road Elementary","state":"IN"},{"city":"Spencer","latitude":39.289834,"county":"Owen County","service":"Service delivery site","street":"151 E Hillside Ave","geometry":{"type":"Point","coordinates":[-86.760825,39.289834]},"longitude":-86.760825,"id":"a65guxkpqa9h","location":"Spencer Elementary","state":"IN"},{"city":"Des Moines","latitude":36.855484,"county":"POLK COUNTY","service":"Bulk Distribution","street":"1111 Porter Ave.","geometry":{"type":"Point","coordinates":[-83.299317,36.855484]},"longitude":-83.299317,"id":"a65guxdyl5o9","location":"Southside Library","state":"IA. - Clean-up kits"},{"city":"Windsor Heights","latitude":36.855484,"county":"POLK COUNTY","service":"Bulk Distribution","street":"1133 66th St.","geometry":{"type":"Point","coordinates":[-83.299317,36.855484]},"longitude":-83.299317,"id":"a65guxcyw07u","location":"Windsor Heights Fire Department","state":"IA. - Clean-up kits"},{"city":"Des Moines","latitude":36.855484,"county":"POLK COUNTY","service":"Bulk Distribution","street":"2559 Hubbell Ave.","geometry":{"type":"Point","coordinates":[-83.299317,36.855484]},"longitude":-83.299317,"id":"a65guxmmmemp","location":"Eastside Library","state":"IA. - Clean-up kits"},{"city":"Des Moines","latitude":36.855484,"county":"POLK COUNTY","service":"Bulk Distribution","street":"1801 Pennsylvania Avenue","geometry":{"type":"Point","coordinates":[-83.299317,36.855484]},"longitude":-83.299317,"id":"a65guxalhw2c","location":"Union Park","state":"IA - Clean-up kits"},{"city":"Des Moines","latitude":41.633041,"county":"POLK COUNTY","service":"Bulk Distribution","street":"50th &amp; Madison","geometry":{"type":"Point","coordinates":[-93.687813,41.633041]},"longitude":-93.687813,"id":"a65guxdqq52j","location":"Northwest Aquatic Center","state":"IA. - Clean-up kits"},{"city":"Union Grove","latitude":42.682521,"county":"RACINE COUNTY","service":"Shelter","street":"810 14th Ave.","geometry":{"type":"Point","coordinates":[-88.049631,42.682521]},"longitude":-88.049631,"id":"a65guxdy4cj4","location":"Union Grove Elementary School-Old","state":"WI."},{"city":"Union Grove","latitude":42.682521,"county":"RACINE COUNTY","service":"Service delivery site","street":"810 14th Ave.","geometry":{"type":"Point","coordinates":[-88.049631,42.682521]},"longitude":-88.049631,"id":"a65guxjqqa0t","location":"Union Grove Elementary School-Old","state":"WI"},{"city":"Richland Center","latitude":43.34909,"county":"RICHLAND COUNTY","service":"Service delivery site","street":"23200 Hornet High Rd.","geometry":{"type":"Point","coordinates":[-90.414074,43.34909]},"longitude":-90.414074,"id":"a65guxn4axwj","location":"Richland Center High School","state":"WI"},{"city":"Janesville","latitude":42.68583,"county":"ROCK COUNTY","service":"Shelter","street":"302 N. Parker Dr.","geometry":{"type":"Point","coordinates":[-89.023959,42.68583]},"longitude":-89.023959,"id":"a65guxmgfu8d","location":"Saint John Lutheran Church","state":"WI"},{"city":"Reedsburg","latitude":43.524816,"county":"SAUK COUNTY","service":"Service delivery site","street":"1100 Albert Ave.","geometry":{"type":"Point","coordinates":[-90.018924,43.524816]},"longitude":-90.018924,"id":"a65guxodkyn7","location":"Reedsburg High School","state":"WI"},{"city":"Reedsburg","latitude":43.539837,"county":"SAUK COUNTY","service":"Shelter","street":"1121 8th Street","geometry":{"type":"Point","coordinates":[-89.993931,43.539837]},"longitude":-89.993931,"id":"a65guxly8f51","location":"Pineview Elementary School","state":"WI"},{"city":"Baraboo","latitude":43.47478,"county":"SAUK, JUNEAU, AND IOWA COUNTIES","service":"Bulk Distribution","street":"Intersection of Hwys. 136 &amp; 12","geometry":{"type":"Point","coordinates":[-89.768909,43.47478]},"longitude":-89.768909,"id":"a65guxqvnz96","location":"Baraboo County Highway Building","state":"WI"},{"city":"La Farge","latitude":43.579556,"county":"VERNON COUNTY","service":"Bulk Distribution","street":"301 West Adams Street","geometry":{"type":"Point","coordinates":[-90.638752,43.579556]},"longitude":-90.638752,"id":"a65guxlpqssl","location":"La Farge High School","state":"WI"},{"city":"Viola","latitude":43.509328,"county":"VERNON COUNTY","service":"Bulk Distribution","street":"404 North Commercial Street","geometry":{"type":"Point","coordinates":[-90.661537,43.509328]},"longitude":-90.661537,"id":"a65guxllzkbd","location":"Viola Methodist Church","state":"WI"},{"city":"Desoto","latitude":43.42241,"county":"VERNON COUNTY","service":"Bulk Distribution","street":"Highway 35","geometry":{"type":"Point","coordinates":[-91.200534,43.42241]},"longitude":-91.200534,"id":"a65guxm15z0g","location":"Desoto Community Center","state":"WI"},{"city":"Ontario","latitude":43.722334,"county":"VERNON COUNTY","service":"Bulk Distribution","street":"303 East “B” Street","geometry":{"type":"Point","coordinates":[-90.592389,43.722334]},"longitude":-90.592389,"id":"a65guxbfogxi","location":"Ontario Fire Department","state":"WI"},{"city":"Terre Haute","latitude":39.45553,"county":"Vigo County","service":"Service delivery site","street":"1101 S. 13th St.","geometry":{"type":"Point","coordinates":[-87.397741,39.45553]},"longitude":-87.397741,"id":"a65guxq5ch3f","location":"Booker T. Washington Community Center","state":"IN"},{"city":"Muskego","latitude":42.895197,"county":"WAUKESHA COUNTY","service":"Shelter","street":"S75 W17576 Janesville Rd.","geometry":{"type":"Point","coordinates":[-88.143045,42.895197]},"longitude":-88.143045,"id":"a65guxo8cr3c","location":"Muskego Elementary School","state":"WI"}],"geometry_types":["point"],"unique_name":null,"name":"Red Cross, Midwest Sites and Shelters for Iowa Flooding, June 17th 2008","feature_count":42,"state":"complete","published":"2008-06-18T12:00:00Z","description":"This is a map of the Shelters throughout the midwest in response to the Flooding in Iowa and the Tornados in Indiana. This dataset includes information on Shelters, service delivery sites, and Bulk distribution centers. ","stats":{"latitude":{"max": 43.792085, "mean": 41.6765118571428, "variance": 4.82127303237398, "stdev": 2.19573974604778, "min": 36.855484, "median": 42.682521},"longitude":{"max": -83.299317, "mean": -89.1209985238095, "variance": 7.44988320971484, "stdev": 2.72944741838249, "min": -93.687813, "median": -89.993931}},"next_feature":null,"is_raster":false,"pagination":{"sort":null,"start":0,"limit":1000000,"total":42},"short_classification":"Y","is_temporal":false,"author":{"metadata":"","url":"http://redcrossmidwestflooding.wordpress.com/","contact_name":"","contact_address":"","source":"Red Cross","contact_phone":""},"source":"http://redcrossmidwestflooding.wordpress.com/","data_type":"Dataset","permissions":[{"group_id":"everyone","permissions":{"download":true,"view":true}}],"classification":null,"tags":"disaster,iowa-floods,natural,shelters,weather","id":2167}