{"type":"FeatureCollection","data_type":"Dataset Analysis","url_type":null,"permissions":[{"permissions":{"download":true,"view":true},"group_id":"everyone"}],"classification":null,"title":"Intersection of 'FQHC locations' and '2012 Ward Map'","count":19,"stream_id":225107,"contributor":{"url":"http://geocommons.com/users/43459","name":"ZackRubin"},"data_attributes":null,"calculation_params":[{"calculation":"intersect","input":{"ds1":"225106","merge":"combine","ds2":"225104"}}],"icon_link":null,"link":"http://geocommons.com/overlays/225107.json","extent":[-87.7412,41.8008,-87.6021,41.9728],"geometry_types":["point"],"unique_name":null,"name":"Intersection of 'FQHC locations' and '2012 Ward Map'","feature_count":19,"description":"Dataset created by the intersection of 1) FQHC locations and 2) 2012 Ward Map","next_feature":null,"is_raster":false,"short_classification":"Y","stats":{"District_N":{"max":47,"variance":322.485380116959,"mean":23.5263157894737,"stdev":17.9578779402512,"min":1,"median":27},"latitude":{"max":41.972802,"variance":0.00323843330154401,"mean":41.9070331052631,"stdev":0.0569072341758411,"min":41.80085,"median":41.903785},"District_1":{"max":47,"variance":322.485380116959,"mean":23.5263157894737,"stdev":17.9578779402512,"min":1,"median":27},"longitude":{"max":-87.602089,"variance":0.00173506954447948,"mean":-87.6726545789474,"stdev":0.0416541659918846,"min":-87.741199,"median":-87.686729},"OBJECTID":{"max":47,"variance":322.485380116959,"mean":23.5263157894737,"stdev":17.9578779402512,"min":1,"median":27}},"features":[{"properties":{"District_N":5,"name":"Cottage View Health Center, 4829 S. Cottage Grove Ave., Chicago, IL, 60615","latitude":41.80085,"District_1":5,"desc":"-","color":null,"OBJECTID":5,"longitude":-87.602089,"id":"a647nzjndp7u"},"type":"Feature","geometry":{"type":"Point","coordinates":[-87.602089,41.80085]}},{"properties":{"District_N":27,"name":"Denny Community Health Center, 30 W. Chicago Ave., Chicago, IL, 60610","latitude":41.903785,"District_1":27,"desc":"-","color":null,"OBJECTID":27,"longitude":-87.636809,"id":"a647nziz0tol"},"type":"Feature","geometry":{"type":"Point","coordinates":[-87.636809,41.903785]}},{"properties":{"District_N":27,"name":"Flannery Health Center, 1531 North Clybourn Ave., Chicago, IL, 60610","latitude":41.903785,"District_1":27,"desc":"-","color":null,"OBJECTID":27,"longitude":-87.636809,"id":"a647nzdmn33h"},"type":"Feature","geometry":{"type":"Point","coordinates":[-87.636809,41.903785]}},{"properties":{"District_N":4,"name":"Komed Holman Health Center, 4259 South Berkely Street, Chicago, IL, 60653","latitude":41.81984,"District_1":4,"desc":"-","color":null,"OBJECTID":4,"longitude":-87.611764,"id":"a647nzgfrhob"},"type":"Feature","geometry":{"type":"Point","coordinates":[-87.611764,41.81984]}},{"properties":{"District_N":37,"name":"Louise Landau Health Center, 800 N. Kedzie Ave., Chicago, IL, 60651","latitude":41.90247,"District_1":37,"desc":"-","color":null,"OBJECTID":37,"longitude":-87.741199,"id":"a647nzeljgra"},"type":"Feature","geometry":{"type":"Point","coordinates":[-87.741199,41.90247]}},{"properties":{"District_N":5,"name":"Reavis School-Based Health Center, 834 E. 50th Street, Chicago, IL, 60615","latitude":41.80085,"District_1":5,"desc":"-","color":null,"OBJECTID":5,"longitude":-87.602089,"id":"a647nzq1hltc"},"type":"Feature","geometry":{"type":"Point","coordinates":[-87.602089,41.80085]}},{"properties":{"District_N":47,"name":"Uptown Community Health Center, 4867 N. Broadway Ave., Chicago, IL, 60640","latitude":41.97263,"District_1":47,"desc":"-","color":null,"OBJECTID":47,"longitude":-87.662869,"id":"a647nzpmbhd0"},"type":"Feature","geometry":{"type":"Point","coordinates":[-87.662869,41.97263]}},{"properties":{"District_N":27,"name":"Winfield Moody Health Center, 1276 North Clybourn Ave., Chicago, IL, 60610","latitude":41.903785,"District_1":27,"desc":"-","color":null,"OBJECTID":27,"longitude":-87.636809,"id":"a647nzetgeeh"},"type":"Feature","geometry":{"type":"Point","coordinates":[-87.636809,41.903785]}},{"properties":{"District_N":40,"name":"Amundsen School-Based Health Center, 5110 North Damen Ave., Chicago, IL, 60625","latitude":41.972802,"District_1":40,"desc":"-","color":null,"OBJECTID":40,"longitude":-87.701255,"id":"a647nzm7s68v"},"type":"Feature","geometry":{"type":"Point","coordinates":[-87.701255,41.972802]}},{"properties":{"District_N":1,"name":"Clemente  Wildcats Student Health Center, 1147 North Western Ave., Chicago, IL, 60622","latitude":41.903005,"District_1":1,"desc":"-","color":null,"OBJECTID":1,"longitude":-87.686729,"id":"a647nzr1gfdb"},"type":"Feature","geometry":{"type":"Point","coordinates":[-87.686729,41.903005]}},{"properties":{"District_N":40,"name":"Helping Hands Dental Center, 4751 North Kedzie Ave., Chicago, IL, 60625","latitude":41.972802,"District_1":40,"desc":"-","color":null,"OBJECTID":40,"longitude":-87.701255,"id":"a647nzfew0ms"},"type":"Feature","geometry":{"type":"Point","coordinates":[-87.701255,41.972802]}},{"properties":{"District_N":1,"name":"Dental Health Center--Humboldt Park, 2750 West North Ave., 2nd Floor, Chicago, IL, 60647","latitude":41.9213,"District_1":1,"desc":"-","color":null,"OBJECTID":1,"longitude":-87.701644,"id":"a647nzl7tc1h"},"type":"Feature","geometry":{"type":"Point","coordinates":[-87.701644,41.9213]}},{"properties":{"District_N":40,"name":"Helping Hands Health Center, 4747 North Kedzie Ave., Chicago, IL, 60625","latitude":41.972802,"District_1":40,"desc":"-","color":null,"OBJECTID":40,"longitude":-87.701255,"id":"a647nzqqh85g"},"type":"Feature","geometry":{"type":"Point","coordinates":[-87.701255,41.972802]}},{"properties":{"District_N":22,"name":"Henson School-Based Health Center, 1326 South Avers, Rooms 106-7, Chicago, IL, 60623","latitude":41.85165,"District_1":22,"desc":"-","color":null,"OBJECTID":22,"longitude":-87.715599,"id":"a647nzdorl2q"},"type":"Feature","geometry":{"type":"Point","coordinates":[-87.715599,41.85165]}},{"properties":{"District_N":1,"name":"Humboldt Park Health Center, 2750 West North Ave.  , Chicago, IL, 60647","latitude":41.9213,"District_1":1,"desc":"-","color":null,"OBJECTID":1,"longitude":-87.701644,"id":"a647nziiwbbr"},"type":"Feature","geometry":{"type":"Point","coordinates":[-87.701644,41.9213]}},{"properties":{"District_N":47,"name":"Lake View School-Based Health Center, 4015 N. Ashland Ave., Chicago, IL, 60613","latitude":41.954533,"District_1":47,"desc":"-","color":null,"OBJECTID":47,"longitude":-87.669052,"id":"a647nzm6nnh0"},"type":"Feature","geometry":{"type":"Point","coordinates":[-87.669052,41.954533]}},{"properties":{"District_N":47,"name":"Teen Health Center, 1945 West Wilson Ave., 5th Floor, Chicago, IL, 60640","latitude":41.97263,"District_1":47,"desc":"-","color":null,"OBJECTID":47,"longitude":-87.662869,"id":"a647nzn2fz63"},"type":"Feature","geometry":{"type":"Point","coordinates":[-87.662869,41.97263]}},{"properties":{"District_N":1,"name":"West Town Health Center, 1701 W. Superior St., Chicago, IL, 60622","latitude":41.903005,"District_1":1,"desc":"-","color":null,"OBJECTID":1,"longitude":-87.686729,"id":"a647nzt3njhp"},"type":"Feature","geometry":{"type":"Point","coordinates":[-87.686729,41.903005]}},{"properties":{"District_N":28,"name":"Westside Health Center, 646 North Lawndale Ave., Chicago, IL, 60624","latitude":41.879805,"District_1":28,"desc":"-","color":null,"OBJECTID":28,"longitude":-87.721969,"id":"a647nznmbjbh"},"type":"Feature","geometry":{"type":"Point","coordinates":[-87.721969,41.879805]}}],"is_temporal":false,"author":{"url":"","metadata":"","contact_name":"","contact_address":"","source":"","contact_phone":""},"source":"","pagination":{"sort":null,"start":0,"total":19,"limit":1000000},"state":"complete","tags":"","published":"2014-08-14T21:16:00-04:00","id":225107}