{"type":"FeatureCollection","data_type":"Dataset","url_type":null,"permissions":[{"permissions":{"download":true,"view":true},"group_id":"everyone"}],"classification":null,"title":"59309","count":265,"stream_id":237028,"contributor":{"url":"http://geocommons.com/users/44901","name":"ajtrembl"},"data_attributes":null,"calculation_params":null,"icon_link":null,"link":"http://geocommons.com/overlays/237028.json","extent":[-79.7032,42.0226,-77.7388,43.3409],"geometry_types":["point"],"unique_name":null,"name":"59309","feature_count":265,"description":"","next_feature":null,"is_raster":false,"short_classification":"Y","stats":{"latitude":{"max":43.3409067024973,"mean":42.5783285259196,"variance":0.153248146069531,"stdev":0.391469214714938,"min":42.0226242867437,"median":42.4901408212519},"pop 2008":{"max":909845.0,"mean":12260.1547169811,"variance":3738314356.59339,"stdev":61141.7562439401,"min":11.0,"median":2300.0},"stfid":{"max":3612181325,"mean":2380663782.32453,"variance":2.91765125290014e+18,"stdev":1708113360.67023,"min":36003,"median":3600936123},"longitude":{"max":-77.7388027254036,"mean":-78.6045678878593,"variance":0.228126742738433,"stdev":0.477626153742059,"min":-79.7032475351341,"median":-78.5504177656304}},"features":[{"properties":{"name":"Allegany County","latitude":null,"pop 2008":49649.0,"stfid":36003,"longitude":null,"id":"a6bdmuur2luv","municode":"020100000000"},"type":"Feature","geometry":null},{"properties":{"name":"Alfred town","latitude":42.2381668269616,"pop 2008":6018.0,"stfid":3600301209,"longitude":-77.7880697122411,"id":"a6bdmuxfijyk","municode":"020301000000"},"type":"Feature","geometry":{"type":"Point","coordinates":[-77.7880697122411,42.2381668269616]}},{"properties":{"name":"Allen town","latitude":42.3914258553875,"pop 2008":464.0,"stfid":3600301319,"longitude":-78.0150555161887,"id":"a6bdmv3a5w9m","municode":"020301200000"},"type":"Feature","geometry":{"type":"Point","coordinates":[-78.0150555161887,42.3914258553875]}},{"properties":{"name":"Alma town","latitude":42.0427590448485,"pop 2008":831.0,"stfid":3600301429,"longitude":-78.0148599199678,"id":"a6bdmv3k2q0v","municode":"020301300000"},"type":"Feature","geometry":{"type":"Point","coordinates":[-78.0148599199678,42.0427590448485]}},{"properties":{"name":"Almond town","latitude":42.344680174315,"pop 2008":1555.0,"stfid":3600301451,"longitude":-77.7851592406541,"id":"a6bdmv601v1q","municode":"020301400000"},"type":"Feature","geometry":{"type":"Point","coordinates":[-77.7851592406541,42.344680174315]}},{"properties":{"name":"Amity town","latitude":42.2166875348591,"pop 2008":2166.0,"stfid":3600302011,"longitude":-78.0153136924504,"id":"a6bdmv5ifu3i","municode":"020302000000"},"type":"Feature","geometry":{"type":"Point","coordinates":[-78.0153136924504,42.2166875348591]}},{"properties":{"name":"Andover town","latitude":42.148418835414,"pop 2008":1865.0,"stfid":3600302154,"longitude":-77.8196852828958,"id":"a6bdmuuuwb03","municode":"020302400000"},"type":"Feature","geometry":{"type":"Point","coordinates":[-77.8196852828958,42.148418835414]}},{"properties":{"name":"Angelica town","latitude":42.3037104362439,"pop 2008":1384.0,"stfid":3600302187,"longitude":-78.0152311686025,"id":"a6bdmv7c73h9","municode":"020302500000"},"type":"Feature","geometry":{"type":"Point","coordinates":[-78.0152311686025,42.3037104362439]}},{"properties":{"name":"Belfast town","latitude":42.3044646129468,"pop 2008":1695.0,"stfid":3600305573,"longitude":-78.1331559775319,"id":"a6bdmuxes28a","municode":"020306000000"},"type":"Feature","geometry":{"type":"Point","coordinates":[-78.1331559775319,42.3044646129468]}},{"properties":{"name":"Birdsall town","latitude":42.3914664747376,"pop 2008":259.0,"stfid":3600306717,"longitude":-77.897519402844,"id":"a6bdmuzbowbe","municode":"020307400000"},"type":"Feature","geometry":{"type":"Point","coordinates":[-77.897519402844,42.3914664747376]}},{"properties":{"name":"Bolivar town","latitude":42.043144132647,"pop 2008":2115.0,"stfid":3600307201,"longitude":-78.1326937442548,"id":"a6bdmutyvds9","municode":"020307900000"},"type":"Feature","geometry":{"type":"Point","coordinates":[-78.1326937442548,42.043144132647]}},{"properties":{"name":"Burns town","latitude":42.4392177614831,"pop 2008":1204.0,"stfid":3600311253,"longitude":-77.7815775270759,"id":"a6bdmurqy4li","municode":"020310300000"},"type":"Feature","geometry":{"type":"Point","coordinates":[-77.7815775270759,42.4392177614831]}},{"properties":{"name":"Caneadea town","latitude":42.3917107366192,"pop 2008":2676.0,"stfid":3600312243,"longitude":-78.1331035645782,"id":"a6bdmv4mx0n5","municode":"020312300000"},"type":"Feature","geometry":{"type":"Point","coordinates":[-78.1331035645782,42.3917107366192]}},{"properties":{"name":"Centerville town","latitude":42.4788653622854,"pop 2008":763.0,"stfid":3600313475,"longitude":-78.2494740292916,"id":"a6bdmv5kkj09","municode":"020314200000"},"type":"Feature","geometry":{"type":"Point","coordinates":[-78.2494740292916,42.4788653622854]}},{"properties":{"name":"Clarksville town","latitude":42.130055902363,"pop 2008":1123.0,"stfid":3600315990,"longitude":-78.2497096071479,"id":"a6bdmv5fay8c","municode":"020316800000"},"type":"Feature","geometry":{"type":"Point","coordinates":[-78.2497096071479,42.130055902363]}},{"properties":{"name":"Cuba town","latitude":42.2173147672075,"pop 2008":3323.0,"stfid":3600319367,"longitude":-78.2499157128786,"id":"a6bdmv7i9pyc","municode":"020321200000"},"type":"Feature","geometry":{"type":"Point","coordinates":[-78.2499157128786,42.2173147672075]}},{"properties":{"name":"Friendship town","latitude":42.2169139934885,"pop 2008":1842.0,"stfid":3600327705,"longitude":-78.1329007010212,"id":"a6bdmv5pnf0m","municode":"020330800000"},"type":"Feature","geometry":{"type":"Point","coordinates":[-78.1329007010212,42.2169139934885]}},{"properties":{"name":"Genesee town","latitude":42.0428625935266,"pop 2008":1802.0,"stfid":3600328563,"longitude":-78.249763157008,"id":"a6bdmv2efn4j","municode":"020331800000"},"type":"Feature","geometry":{"type":"Point","coordinates":[-78.249763157008,42.0428625935266]}},{"properties":{"name":"Granger town","latitude":42.4767762975279,"pop 2008":577.0,"stfid":3600329905,"longitude":-78.0145592059617,"id":"a6bdmv46jien","municode":"020333800000"},"type":"Feature","geometry":{"type":"Point","coordinates":[-78.0145592059617,42.4767762975279]}},{"properties":{"name":"Grove town","latitude":42.4767581159112,"pop 2008":556.0,"stfid":3600330994,"longitude":-77.8978379363108,"id":"a6bdmuulitso","municode":"020335300000"},"type":"Feature","geometry":{"type":"Point","coordinates":[-77.8978379363108,42.4767581159112]}},{"properties":{"name":"Hume town","latitude":42.4785493495277,"pop 2008":1961.0,"stfid":3600336112,"longitude":-78.1148624747499,"id":"a6bdmv4pe94j","municode":"020340800000"},"type":"Feature","geometry":{"type":"Point","coordinates":[-78.1148624747499,42.4785493495277]}},{"properties":{"name":"Independence town","latitude":42.0516241951237,"pop 2008":1038.0,"stfid":3600337297,"longitude":-77.7930038232786,"id":"a6bdmuwvdz0x","municode":"020341500000"},"type":"Feature","geometry":{"type":"Point","coordinates":[-77.7930038232786,42.0516241951237]}},{"properties":{"name":"New Hudson town","latitude":42.3047984834906,"pop 2008":740.0,"stfid":3600350375,"longitude":-78.2505966759381,"id":"a6bdmv3i9w8v","municode":"020357600000"},"type":"Feature","geometry":{"type":"Point","coordinates":[-78.2505966759381,42.3047984834906]}},{"properties":{"name":"Rushford town","latitude":42.3926166930114,"pop 2008":1236.0,"stfid":3600364166,"longitude":-78.2501746031871,"id":"a6bdmv0jxdtv","municode":"020373000000"},"type":"Feature","geometry":{"type":"Point","coordinates":[-78.2501746031871,42.3926166930114]}},{"properties":{"name":"Scio town","latitude":42.1371172238179,"pop 2008":1859.0,"stfid":3600365772,"longitude":-77.9857066256346,"id":"a6bdmv6bzok6","municode":"020375900000"},"type":"Feature","geometry":{"type":"Point","coordinates":[-77.9857066256346,42.1371172238179]}},{"properties":{"name":"Ward town","latitude":42.224652380054,"pop 2008":402.0,"stfid":3600378201,"longitude":-77.8979250774788,"id":"a6bdmv53mez7","municode":"020386900000"},"type":"Feature","geometry":{"type":"Point","coordinates":[-77.8979250774788,42.224652380054]}},{"properties":{"name":"Wellsville town","latitude":42.1300208723481,"pop 2008":7323.0,"stfid":3600379103,"longitude":-77.9258732912292,"id":"a6bdmuuacnu2","municode":"020388700000"},"type":"Feature","geometry":{"type":"Point","coordinates":[-77.9258732912292,42.1300208723481]}},{"properties":{"name":"West Almond town","latitude":42.3041542728014,"pop 2008":340.0,"stfid":3600379202,"longitude":-77.8977991010771,"id":"a6bdmv121x2n","municode":"020388800000"},"type":"Feature","geometry":{"type":"Point","coordinates":[-77.8977991010771,42.3041542728014]}},{"properties":{"name":"Willing town","latitude":42.0425008599975,"pop 2008":1319.0,"stfid":3600382095,"longitude":-77.8985081791218,"id":"a6bdmuw68czn","municode":"020391200000"},"type":"Feature","geometry":{"type":"Point","coordinates":[-77.8985081791218,42.0425008599975]}},{"properties":{"name":"Wirt town","latitude":42.1298347962564,"pop 2008":1204.0,"stfid":3600382623,"longitude":-78.1324369882851,"id":"a6bdmuroni93","municode":"020392100000"},"type":"Feature","geometry":{"type":"Point","coordinates":[-78.1324369882851,42.1298347962564]}},{"properties":{"name":"Akron village","latitude":43.0153192966346,"pop 2008":2968.0,"stfid":3600441,"longitude":-78.4934156240083,"id":"a6bdmv6dalpj","municode":"140458200040"},"type":"Feature","geometry":{"type":"Point","coordinates":[-78.4934156240083,43.0153192966346]}},{"properties":{"name":"Cattaraugus County","latitude":null,"pop 2008":79688.0,"stfid":36009,"longitude":null,"id":"a6bdmuv6zcxr","municode":"040100000000"},"type":"Feature","geometry":null},{"properties":{"name":"Allegany town","latitude":42.0870777841764,"pop 2008":7908.0,"stfid":3600901297,"longitude":-78.5216822746086,"id":"a6bdmuumj5af","municode":"040301100000"},"type":"Feature","geometry":{"type":"Point","coordinates":[-78.5216822746086,42.0870777841764]}},{"properties":{"name":"Ashford town","latitude":42.4468457302102,"pop 2008":2142.0,"stfid":3600902759,"longitude":-78.6608997061249,"id":"a6bdmut0lf6j","municode":"040303300000"},"type":"Feature","geometry":{"type":"Point","coordinates":[-78.6608997061249,42.4468457302102]}},{"properties":{"name":"Carrollton town","latitude":42.0624707343376,"pop 2008":1313.0,"stfid":3600912661,"longitude":-78.6384170812357,"id":"a6bdmuut8sqw","municode":"040313300000"},"type":"Feature","geometry":{"type":"Point","coordinates":[-78.6384170812357,42.0624707343376]}},{"properties":{"name":"Coldspring town","latitude":42.0851213435191,"pop 2008":714.0,"stfid":3600916903,"longitude":-78.8847277370798,"id":"a6bdmuy5lscw","municode":"040318400000"},"type":"Feature","geometry":{"type":"Point","coordinates":[-78.8847277370798,42.0851213435191]}},{"properties":{"name":"Conewango town","latitude":42.2165695263405,"pop 2008":1664.0,"stfid":3600917684,"longitude":-79.0016485297643,"id":"a6bdmv0wbpfd","municode":"040319400000"},"type":"Feature","geometry":{"type":"Point","coordinates":[-79.0016485297643,42.2165695263405]}},{"properties":{"name":"Dayton town","latitude":42.3915422559398,"pop 2008":1806.0,"stfid":3600919840,"longitude":-79.0022255596167,"id":"a6bdmuvc1n30","municode":"040322100000"},"type":"Feature","geometry":{"type":"Point","coordinates":[-79.0022255596167,42.3915422559398]}},{"properties":{"name":"East Otto town","latitude":42.4100169378551,"pop 2008":1066.0,"stfid":3600922678,"longitude":-78.7355457562611,"id":"a6bdmuzb8fww","municode":"040325200000"},"type":"Feature","geometry":{"type":"Point","coordinates":[-78.7355457562611,42.4100169378551]}},{"properties":{"name":"Ellicottville town","latitude":42.3202466235234,"pop 2008":1893.0,"stfid":3600924031,"longitude":-78.6398948328479,"id":"a6bdmuxrfatz","municode":"040326500000"},"type":"Feature","geometry":{"type":"Point","coordinates":[-78.6398948328479,42.3202466235234]}},{"properties":{"name":"Farmersville town","latitude":42.3927135016434,"pop 2008":982.0,"stfid":3600925340,"longitude":-78.3874681567971,"id":"a6bdmutoco4v","municode":"040328200000"},"type":"Feature","geometry":{"type":"Point","coordinates":[-78.3874681567971,42.3927135016434]}},{"properties":{"name":"Franklinville town","latitude":42.3052798508747,"pop 2008":2930.0,"stfid":3600927342,"longitude":-78.5003256988131,"id":"a6bdmv39gip3","municode":"040330200000"},"type":"Feature","geometry":{"type":"Point","coordinates":[-78.5003256988131,42.3052798508747]}},{"properties":{"name":"Freedom town","latitude":42.4784442463123,"pop 2008":2539.0,"stfid":3600927441,"longitude":-78.3777803327461,"id":"a6bdmuzbagg5","municode":"040330300000"},"type":"Feature","geometry":{"type":"Point","coordinates":[-78.3777803327461,42.4784442463123]}},{"properties":{"name":"Great Valley town","latitude":42.1930721641548,"pop 2008":2104.0,"stfid":3600930257,"longitude":-78.6383209127644,"id":"a6bdmv1u4bsa","municode":"040334000000"},"type":"Feature","geometry":{"type":"Point","coordinates":[-78.6383209127644,42.1930721641548]}},{"properties":{"name":"Hinsdale town","latitude":42.1739912344802,"pop 2008":2231.0,"stfid":3600934946,"longitude":-78.3860107090196,"id":"a6bdmv37pssd","municode":"040339500000"},"type":"Feature","geometry":{"type":"Point","coordinates":[-78.3860107090196,42.1739912344802]}},{"properties":{"name":"Humphrey town","latitude":42.2176902996036,"pop 2008":711.0,"stfid":3600936123,"longitude":-78.5230818644432,"id":"a6bdmuwpw0oo","municode":"040340900000"},"type":"Feature","geometry":{"type":"Point","coordinates":[-78.5230818644432,42.2176902996036]}},{"properties":{"name":"Ischua town","latitude":42.2283022658699,"pop 2008":855.0,"stfid":3600937825,"longitude":-78.3865238625762,"id":"a6bdmuvii940","municode":"040342000000"},"type":"Feature","geometry":{"type":"Point","coordinates":[-78.3865238625762,42.2283022658699]}},{"properties":{"name":"Leon town","latitude":42.3041002593527,"pop 2008":1373.0,"stfid":3600941982,"longitude":-79.0020266464858,"id":"a6bdmv7ayc2j","municode":"040345800000"},"type":"Feature","geometry":{"type":"Point","coordinates":[-79.0020266464858,42.3041002593527]}},{"properties":{"name":"Little Valley town","latitude":42.226645258395,"pop 2008":1671.0,"stfid":3600942840,"longitude":-78.7611653127514,"id":"a6bdmuurwfso","municode":"040347600000"},"type":"Feature","geometry":{"type":"Point","coordinates":[-78.7611653127514,42.226645258395]}},{"properties":{"name":"Lyndon town","latitude":42.3052456378408,"pop 2008":637.0,"stfid":3600943896,"longitude":-78.3627741438978,"id":"a6bdmv0g7jlp","municode":"040349000000"},"type":"Feature","geometry":{"type":"Point","coordinates":[-78.3627741438978,42.3052456378408]}},{"properties":{"name":"Machias town","latitude":42.3974563658535,"pop 2008":2340.0,"stfid":3600944237,"longitude":-78.514618633735,"id":"a6bdmv3cwut6","municode":"040349500000"},"type":"Feature","geometry":{"type":"Point","coordinates":[-78.514618633735,42.3974563658535]}},{"properties":{"name":"Mansfield town","latitude":42.3031320058457,"pop 2008":807.0,"stfid":3600945161,"longitude":-78.7611549015431,"id":"a6bdmusl1i7o","municode":"040350700000"},"type":"Feature","geometry":{"type":"Point","coordinates":[-78.7611549015431,42.3031320058457]}},{"properties":{"name":"Napoli town","latitude":42.2163866651743,"pop 2008":1159.0,"stfid":3600949462,"longitude":-78.8843539894991,"id":"a6bdmv0thofr","municode":"040356000000"},"type":"Feature","geometry":{"type":"Point","coordinates":[-78.8843539894991,42.2163866651743]}},{"properties":{"name":"New Albion town","latitude":42.3036108742686,"pop 2008":1904.0,"stfid":3600949880,"longitude":-78.8843412913779,"id":"a6bdmv5ny7j3","municode":"040356400000"},"type":"Feature","geometry":{"type":"Point","coordinates":[-78.8843412913779,42.3036108742686]}},{"properties":{"name":"Olean city","latitude":42.0829172698085,"pop 2008":14149.0,"stfid":3600954716,"longitude":-78.4318902249693,"id":"a6bdmuyumtpn","municode":"040239000000"},"type":"Feature","geometry":{"type":"Point","coordinates":[-78.4318902249693,42.0829172698085]}},{"properties":{"name":"Olean town","latitude":42.0651819621145,"pop 2008":1936.0,"stfid":3600954727,"longitude":-78.4246481699576,"id":"a6bdmutae1lt","municode":"040360800000"},"type":"Feature","geometry":{"type":"Point","coordinates":[-78.4246481699576,42.0651819621145]}},{"properties":{"name":"Otto town","latitude":42.4043758788337,"pop 2008":807.0,"stfid":3600955783,"longitude":-78.8417632783827,"id":"a6bdmuz7ym29","municode":"040362900000"},"type":"Feature","geometry":{"type":"Point","coordinates":[-78.8417632783827,42.4043758788337]}},{"properties":{"name":"Perrysburg town","latitude":42.4786720376816,"pop 2008":1645.0,"stfid":3600957298,"longitude":-79.0024570681297,"id":"a6bdmv268lke","municode":"040365200000"},"type":"Feature","geometry":{"type":"Point","coordinates":[-79.0024570681297,42.4786720376816]}},{"properties":{"name":"Persia town","latitude":42.4000906818434,"pop 2008":2314.0,"stfid":3600957331,"longitude":-78.9054168541406,"id":"a6bdmuvw9dvf","municode":"040365300000"},"type":"Feature","geometry":{"type":"Point","coordinates":[-78.9054168541406,42.4000906818434]}},{"properties":{"name":"Portville town","latitude":42.0647829827542,"pop 2008":3738.0,"stfid":3600959509,"longitude":-78.347241033488,"id":"a6bdmuwn4pqs","municode":"040368300000"},"type":"Feature","geometry":{"type":"Point","coordinates":[-78.347241033488,42.0647829827542]}},{"properties":{"name":"Randolph town","latitude":42.1290341747255,"pop 2008":2562.0,"stfid":3600960587,"longitude":-79.0011794463164,"id":"a6bdmv67ny91","municode":"040369900000"},"type":"Feature","geometry":{"type":"Point","coordinates":[-79.0011794463164,42.1290341747255]}},{"properties":{"name":"Red House town","latitude":42.0686666723552,"pop 2008":35.0,"stfid":3600960950,"longitude":-78.7620438485303,"id":"a6bdmuy0e3fe","municode":"040370400000"},"type":"Feature","geometry":{"type":"Point","coordinates":[-78.7620438485303,42.0686666723552]}},{"properties":{"name":"Salamanca city","latitude":42.171769197287,"pop 2008":5592.0,"stfid":3600964749,"longitude":-78.722781892421,"id":"a6bdmv49lb0c","municode":"040251000000"},"type":"Feature","geometry":{"type":"Point","coordinates":[-78.722781892421,42.171769197287]}},{"properties":{"name":"Salamanca town","latitude":42.1608830418112,"pop 2008":511.0,"stfid":3600964760,"longitude":-78.7614161787746,"id":"a6bdmuufhntn","municode":"040373700000"},"type":"Feature","geometry":{"type":"Point","coordinates":[-78.7614161787746,42.1608830418112]}},{"properties":{"name":"South Valley town","latitude":42.0423939854783,"pop 2008":312.0,"stfid":3600969870,"longitude":-78.9832356377714,"id":"a6bdmv5kb1j6","municode":"040379200000"},"type":"Feature","geometry":{"type":"Point","coordinates":[-78.9832356377714,42.0423939854783]}},{"properties":{"name":"Yorkshire town","latitude":42.4901408212519,"pop 2008":3942.0,"stfid":3600984055,"longitude":-78.5146277906624,"id":"a6bdmuudj8h7","municode":"040393100000"},"type":"Feature","geometry":{"type":"Point","coordinates":[-78.5146277906624,42.4901408212519]}},{"properties":{"name":"Albion village","latitude":43.2458339601716,"pop 2008":5548.0,"stfid":3601033,"longitude":-78.1875588845485,"id":"a6bdmv19o8cs","municode":"340400500050"},"type":"Feature","geometry":{"type":"Point","coordinates":[-78.1875588845485,43.2458339601716]}},{"properties":{"name":"Alden village","latitude":42.8985990570184,"pop 2008":2529.0,"stfid":3601088,"longitude":-78.4944189864719,"id":"a6bdmv5jkwwe","municode":"140400700060"},"type":"Feature","geometry":{"type":"Point","coordinates":[-78.4944189864719,42.8985990570184]}},{"properties":{"name":"Alexander village","latitude":42.9019212954222,"pop 2008":481.0,"stfid":3601154,"longitude":-78.258699748019,"id":"a6bdmv0jd9gg","municode":"180400800070"},"type":"Feature","geometry":{"type":"Point","coordinates":[-78.258699748019,42.9019212954222]}},{"properties":{"name":"Alfred village","latitude":42.2540314286498,"pop 2008":4843.0,"stfid":3601198,"longitude":-77.7906299281826,"id":"a6bdmv5y9cem","municode":"020401000090"},"type":"Feature","geometry":{"type":"Point","coordinates":[-77.7906299281826,42.2540314286498]}},{"properties":{"name":"Allegany village","latitude":42.0921855673336,"pop 2008":1760.0,"stfid":3601286,"longitude":-78.492578778294,"id":"a6bdmv2kqs53","municode":"040401100100"},"type":"Feature","geometry":{"type":"Point","coordinates":[-78.492578778294,42.0921855673336]}},{"properties":{"name":"Chautauqua County","latitude":null,"pop 2008":133789.0,"stfid":36013,"longitude":null,"id":"a6bdmus5q3n2","municode":"060100000000"},"type":"Feature","geometry":null},{"properties":{"name":"Arkwright town","latitude":42.3917596633629,"pop 2008":1107.0,"stfid":3601302605,"longitude":-79.2368944629516,"id":"a6bdmuzsl48t","municode":"060303200000"},"type":"Feature","geometry":{"type":"Point","coordinates":[-79.2368944629516,42.3917596633629]}},{"properties":{"name":"Allegany Reservation","latitude":42.0835961252851,"pop 2008":1031.0,"stfid":3601308,"longitude":-78.7721049827203,"id":"a6bdmv34pb1q","municode":null},"type":"Feature","geometry":{"type":"Point","coordinates":[-78.7721049827203,42.0835961252851]}},{"properties":{"name":"Busti town","latitude":42.0614321853341,"pop 2008":7393.0,"stfid":3601311451,"longitude":-79.308183603284,"id":"a6bdmv639xhf","municode":"060310400000"},"type":"Feature","geometry":{"type":"Point","coordinates":[-79.308183603284,42.0614321853341]}},{"properties":{"name":"Carroll town","latitude":42.0432343469483,"pop 2008":3460.0,"stfid":3601312639,"longitude":-79.1200794560006,"id":"a6bdmv40atlx","municode":"060313200000"},"type":"Feature","geometry":{"type":"Point","coordinates":[-79.1200794560006,42.0432343469483]}},{"properties":{"name":"Charlotte town","latitude":42.3051382905755,"pop 2008":1690.0,"stfid":3601313860,"longitude":-79.2372300036756,"id":"a6bdmv2nmhw4","municode":"060314600000"},"type":"Feature","geometry":{"type":"Point","coordinates":[-79.2372300036756,42.3051382905755]}},{"properties":{"name":"Chautauqua town","latitude":42.2571828872341,"pop 2008":4510.0,"stfid":3601314069,"longitude":-79.5054700380999,"id":"a6bdmv5lxkp3","municode":"060315000000"},"type":"Feature","geometry":{"type":"Point","coordinates":[-79.5054700380999,42.2571828872341]}},{"properties":{"name":"Cherry Creek town","latitude":42.304292857795,"pop 2008":1107.0,"stfid":3601315198,"longitude":-79.1194961894233,"id":"a6bdmv71fxf3","municode":"060315500000"},"type":"Feature","geometry":{"type":"Point","coordinates":[-79.1194961894233,42.304292857795]}},{"properties":{"name":"Clymer town","latitude":42.0423088543142,"pop 2008":1488.0,"stfid":3601316595,"longitude":-79.5863726496316,"id":"a6bdmuwtax5j","municode":"060317700000"},"type":"Feature","geometry":{"type":"Point","coordinates":[-79.5863726496316,42.0423088543142]}},{"properties":{"name":"Dunkirk city","latitude":42.4806591377074,"pop 2008":12085.0,"stfid":3601321105,"longitude":-79.3362237466086,"id":"a6bdmuy1pqmz","municode":"060212000000"},"type":"Feature","geometry":{"type":"Point","coordinates":[-79.3362237466086,42.4806591377074]}},{"properties":{"name":"Dunkirk town","latitude":42.4834686180266,"pop 2008":1304.0,"stfid":3601321116,"longitude":-79.3471534427502,"id":"a6bdmv444h5v","municode":"060324300000"},"type":"Feature","geometry":{"type":"Point","coordinates":[-79.3471534427502,42.4834686180266]}},{"properties":{"name":"Ellery town","latitude":42.1796022224499,"pop 2008":4487.0,"stfid":3601323976,"longitude":-79.3749607183853,"id":"a6bdmv1ypps5","municode":"060326300000"},"type":"Feature","geometry":{"type":"Point","coordinates":[-79.3749607183853,42.1796022224499]}},{"properties":{"name":"Ellicott town","latitude":42.1247132665966,"pop 2008":8777.0,"stfid":3601323998,"longitude":-79.2368575855782,"id":"a6bdmv7sxuyp","municode":"060326400000"},"type":"Feature","geometry":{"type":"Point","coordinates":[-79.2368575855782,42.1247132665966]}},{"properties":{"name":"Ellington town","latitude":42.2171567957613,"pop 2008":1628.0,"stfid":3601324053,"longitude":-79.1193280758739,"id":"a6bdmv41rolv","municode":"060326600000"},"type":"Feature","geometry":{"type":"Point","coordinates":[-79.1193280758739,42.2171567957613]}},{"properties":{"name":"French Creek town","latitude":42.0426192522796,"pop 2008":1101.0,"stfid":3601327606,"longitude":-79.7032475351341,"id":"a6bdmv6fdtvh","municode":"060330700000"},"type":"Feature","geometry":{"type":"Point","coordinates":[-79.7032475351341,42.0426192522796]}},{"properties":{"name":"Gerry town","latitude":42.2169769941907,"pop 2008":1982.0,"stfid":3601328838,"longitude":-79.2372615449421,"id":"a6bdmv3aob7o","municode":"060332700000"},"type":"Feature","geometry":{"type":"Point","coordinates":[-79.2372615449421,42.2169769941907]}},{"properties":{"name":"Hanover town","latitude":42.5028368087807,"pop 2008":7339.0,"stfid":3601332050,"longitude":-79.126895297661,"id":"a6bdmv0kh1do","municode":"060337000000"},"type":"Feature","geometry":{"type":"Point","coordinates":[-79.126895297661,42.5028368087807]}},{"properties":{"name":"Harmony town","latitude":42.0422409746148,"pop 2008":2221.0,"stfid":3601332248,"longitude":-79.4548416806937,"id":"a6bdmust4q2i","municode":"060337300000"},"type":"Feature","geometry":{"type":"Point","coordinates":[-79.4548416806937,42.0422409746148]}},{"properties":{"name":"Jamestown city","latitude":42.1013814415315,"pop 2008":29463.0,"stfid":3601338264,"longitude":-79.238367124993,"id":"a6bdmv071h0c","municode":"060222000000"},"type":"Feature","geometry":{"type":"Point","coordinates":[-79.238367124993,42.1013814415315]}},{"properties":{"name":"Kiantone town","latitude":42.0376836213596,"pop 2008":1397.0,"stfid":3601339507,"longitude":-79.1900690017694,"id":"a6bdmut4zk7d","municode":"060343700000"},"type":"Feature","geometry":{"type":"Point","coordinates":[-79.1900690017694,42.0376836213596]}},{"properties":{"name":"Mina town","latitude":42.1298445874994,"pop 2008":1165.0,"stfid":3601347592,"longitude":-79.703014267245,"id":"a6bdmv7wlay6","municode":"060353500000"},"type":"Feature","geometry":{"type":"Point","coordinates":[-79.703014267245,42.1298445874994]}},{"properties":{"name":"North Harmony town","latitude":42.129197801103,"pop 2008":2454.0,"stfid":3601352155,"longitude":-79.4474607244095,"id":"a6bdmv0nhz8z","municode":"060359600000"},"type":"Feature","geometry":{"type":"Point","coordinates":[-79.4474607244095,42.129197801103]}},{"properties":{"name":"Poland town","latitude":42.1300279444213,"pop 2008":2350.0,"stfid":3601358926,"longitude":-79.1191158605402,"id":"a6bdmv0ymtbp","municode":"060367700000"},"type":"Feature","geometry":{"type":"Point","coordinates":[-79.1191158605402,42.1300279444213]}},{"properties":{"name":"Pomfret town","latitude":42.4026419433315,"pop 2008":14922.0,"stfid":3601358981,"longitude":-79.3532409050258,"id":"a6bdmuv42w6y","municode":"060367800000"},"type":"Feature","geometry":{"type":"Point","coordinates":[-79.3532409050258,42.4026419433315]}},{"properties":{"name":"Portland town","latitude":42.3764895798507,"pop 2008":5328.0,"stfid":3601359421,"longitude":-79.469740924859,"id":"a6bdmuzlznq9","municode":"060368200000"},"type":"Feature","geometry":{"type":"Point","coordinates":[-79.469740924859,42.3764895798507]}},{"properties":{"name":"Ripley town","latitude":42.2445342639401,"pop 2008":2653.0,"stfid":3601361885,"longitude":-79.7030409561762,"id":"a6bdmv6n4zsa","municode":"060371500000"},"type":"Feature","geometry":{"type":"Point","coordinates":[-79.7030409561762,42.2445342639401]}},{"properties":{"name":"Sheridan town","latitude":42.4934839453069,"pop 2008":2448.0,"stfid":3601366916,"longitude":-79.2366313550658,"id":"a6bdmut151sw","municode":"060377500000"},"type":"Feature","geometry":{"type":"Point","coordinates":[-79.2366313550658,42.4934839453069]}},{"properties":{"name":"Sherman town","latitude":42.1294519973512,"pop 2008":1500.0,"stfid":3601366960,"longitude":-79.5853562663895,"id":"a6bdmus4fgnm","municode":"060377600000"},"type":"Feature","geometry":{"type":"Point","coordinates":[-79.5853562663895,42.1294519973512]}},{"properties":{"name":"Stockton town","latitude":42.2939969992473,"pop 2008":2205.0,"stfid":3601371476,"longitude":-79.3617267840365,"id":"a6bdmv6r4465","municode":"060381100000"},"type":"Feature","geometry":{"type":"Point","coordinates":[-79.3617267840365,42.2939969992473]}},{"properties":{"name":"Villenova town","latitude":42.3919716257747,"pop 2008":1136.0,"stfid":3601377530,"longitude":-79.1196531478437,"id":"a6bdmuw5u0xi","municode":"060386000000"},"type":"Feature","geometry":{"type":"Point","coordinates":[-79.1196531478437,42.3919716257747]}},{"properties":{"name":"Westfield town","latitude":42.273312466667,"pop 2008":5067.0,"stfid":3601379950,"longitude":-79.5857495258178,"id":"a6bdmv60c9nc","municode":"060389200000"},"type":"Feature","geometry":{"type":"Point","coordinates":[-79.5857495258178,42.273312466667]}},{"properties":{"name":"Almond village","latitude":42.3194402766543,"pop 2008":435.0,"stfid":3601440,"longitude":-77.7388027254036,"id":"a6bdmuyd1y9o","municode":"020401400110"},"type":"Feature","geometry":{"type":"Point","coordinates":[-77.7388027254036,42.3194402766543]}},{"properties":{"name":"Andover village","latitude":42.1575645462303,"pop 2008":1011.0,"stfid":3602143,"longitude":-77.7956465717643,"id":"a6bdmv5za0kv","municode":"020402400170"},"type":"Feature","geometry":{"type":"Point","coordinates":[-77.7956465717643,42.1575645462303]}},{"properties":{"name":"Angelica village","latitude":42.3055431762445,"pop 2008":856.0,"stfid":3602176,"longitude":-78.0205343314673,"id":"a6bdmv3ebo5i","municode":"020402500180"},"type":"Feature","geometry":{"type":"Point","coordinates":[-78.0205343314673,42.3055431762445]}},{"properties":{"name":"Angola village","latitude":42.6378521052824,"pop 2008":2134.0,"stfid":3602198,"longitude":-79.0302337300094,"id":"a6bdmv46g4ae","municode":"140427700190"},"type":"Feature","geometry":{"type":"Point","coordinates":[-79.0302337300094,42.6378521052824]}},{"properties":{"name":"Arcade village","latitude":42.5347201242743,"pop 2008":1888.0,"stfid":3602407,"longitude":-78.4341562098653,"id":"a6bdmuwavj9f","municode":"560402800210"},"type":"Feature","geometry":{"type":"Point","coordinates":[-78.4341562098653,42.5347201242743]}},{"properties":{"name":"Erie County","latitude":null,"pop 2008":909845.0,"stfid":36029,"longitude":null,"id":"a6bdmv1n8fse","municode":"140100000000"},"type":"Feature","geometry":null},{"properties":{"name":"Alden town","latitude":42.9111206293859,"pop 2008":10312.0,"stfid":3602901099,"longitude":-78.5210760091197,"id":"a6bdmv3rs0xh","municode":"140300700000"},"type":"Feature","geometry":{"type":"Point","coordinates":[-78.5210760091197,42.9111206293859]}},{"properties":{"name":"Amherst town","latitude":43.0164219857451,"pop 2008":115563.0,"stfid":3602902000,"longitude":-78.7646678168573,"id":"a6bdmuylaqzz","municode":"140301900000"},"type":"Feature","geometry":{"type":"Point","coordinates":[-78.7646678168573,43.0164219857451]}},{"properties":{"name":"Aurora town","latitude":42.7374466555479,"pop 2008":13503.0,"stfid":3602903199,"longitude":-78.6372158757414,"id":"a6bdmuyti2cg","municode":"140304000000"},"type":"Feature","geometry":{"type":"Point","coordinates":[-78.6372158757414,42.7374466555479]}},{"properties":{"name":"Boston town","latitude":42.6527669785177,"pop 2008":7801.0,"stfid":3602907454,"longitude":-78.7556896007842,"id":"a6bdmuz56m5h","municode":"140308300000"},"type":"Feature","geometry":{"type":"Point","coordinates":[-78.7556896007842,42.6527669785177]}},{"properties":{"name":"Brant town","latitude":42.5812056976106,"pop 2008":1823.0,"stfid":3602907894,"longitude":-79.0400798618265,"id":"a6bdmv3d9wk5","municode":"140308800000"},"type":"Feature","geometry":{"type":"Point","coordinates":[-79.0400798618265,42.5812056976106]}},{"properties":{"name":"Buffalo city","latitude":42.8962173721512,"pop 2008":270919.0,"stfid":3602911000,"longitude":-78.8536728430917,"id":"a6bdmurp2ygi","municode":"140207000000"},"type":"Feature","geometry":{"type":"Point","coordinates":[-78.8536728430917,42.8962173721512]}},{"properties":{"name":"Cheektowaga town","latitude":42.9074706945731,"pop 2008":87788.0,"stfid":3602915011,"longitude":-78.7483484120843,"id":"a6bdmv10sm07","municode":"140315200000"},"type":"Feature","geometry":{"type":"Point","coordinates":[-78.7483484120843,42.9074706945731]}},{"properties":{"name":"Clarence town","latitude":43.0260898696164,"pop 2008":28064.0,"stfid":3602915825,"longitude":-78.6365184117849,"id":"a6bdmv0llw22","municode":"140316400000"},"type":"Feature","geometry":{"type":"Point","coordinates":[-78.6365184117849,43.0260898696164]}},{"properties":{"name":"Colden town","latitude":42.6507110969512,"pop 2008":3273.0,"stfid":3602916870,"longitude":-78.638205445966,"id":"a6bdmv0lex3c","municode":"140318300000"},"type":"Feature","geometry":{"type":"Point","coordinates":[-78.638205445966,42.6507110969512]}},{"properties":{"name":"Collins town","latitude":42.4858212922505,"pop 2008":7026.0,"stfid":3602917200,"longitude":-78.8792167032212,"id":"a6bdmuz9t422","municode":"140318600000"},"type":"Feature","geometry":{"type":"Point","coordinates":[-78.8792167032212,42.4858212922505]}},{"properties":{"name":"Concord town","latitude":42.535402579178,"pop 2008":8374.0,"stfid":3602917585,"longitude":-78.7048309532653,"id":"a6bdmv6hcjeo","municode":"140319100000"},"type":"Feature","geometry":{"type":"Point","coordinates":[-78.7048309532653,42.535402579178]}},{"properties":{"name":"Eden town","latitude":42.652797037143,"pop 2008":7736.0,"stfid":3602923415,"longitude":-78.8782474183747,"id":"a6bdmv54gyyw","municode":"140325400000"},"type":"Feature","geometry":{"type":"Point","coordinates":[-78.8782474183747,42.652797037143]}},{"properties":{"name":"Elma town","latitude":42.8232384804193,"pop 2008":11321.0,"stfid":3602924130,"longitude":-78.6371037439818,"id":"a6bdmv0sysc1","municode":"140326800000"},"type":"Feature","geometry":{"type":"Point","coordinates":[-78.6371037439818,42.8232384804193]}},{"properties":{"name":"Evans town","latitude":42.6630173746957,"pop 2008":16836.0,"stfid":3602924801,"longitude":-79.024009864315,"id":"a6bdmuuhxpzi","municode":"140327700000"},"type":"Feature","geometry":{"type":"Point","coordinates":[-79.024009864315,42.6630173746957]}},{"properties":{"name":"Grand Island town","latitude":43.01241960015,"pop 2008":18950.0,"stfid":3602929828,"longitude":-78.9578589395805,"id":"a6bdmuw9vnj8","municode":"140333700000"},"type":"Feature","geometry":{"type":"Point","coordinates":[-78.9578589395805,43.01241960015]}},{"properties":{"name":"Hamburg town","latitude":42.7509283367653,"pop 2008":55868.0,"stfid":3602931654,"longitude":-78.8759018924658,"id":"a6bdmutqqnav","municode":"140336100000"},"type":"Feature","geometry":{"type":"Point","coordinates":[-78.8759018924658,42.7509283367653]}},{"properties":{"name":"Holland town","latitude":42.6498494069532,"pop 2008":3475.0,"stfid":3602935122,"longitude":-78.5213953859591,"id":"a6bdmuznpmvz","municode":"140339600000"},"type":"Feature","geometry":{"type":"Point","coordinates":[-78.5213953859591,42.6498494069532]}},{"properties":{"name":"Lackawanna city","latitude":42.820130435491,"pop 2008":17588.0,"stfid":3602940189,"longitude":-78.8345828214368,"id":"a6bdmv1p1usf","municode":"140225000000"},"type":"Feature","geometry":{"type":"Point","coordinates":[-78.8345828214368,42.820130435491]}},{"properties":{"name":"Lancaster town","latitude":42.9100678291893,"pop 2008":40298.0,"stfid":3602941146,"longitude":-78.6372935172315,"id":"a6bdmuutb9s8","municode":"140344800000"},"type":"Feature","geometry":{"type":"Point","coordinates":[-78.6372935172315,42.9100678291893]}},{"properties":{"name":"Marilla town","latitude":42.8251085603777,"pop 2008":5560.0,"stfid":3602945601,"longitude":-78.5319756903987,"id":"a6bdmus1jzoj","municode":"140351200000"},"type":"Feature","geometry":{"type":"Point","coordinates":[-78.5319756903987,42.8251085603777]}},{"properties":{"name":"Newstead town","latitude":43.0265033580002,"pop 2008":8295.0,"stfid":3602950716,"longitude":-78.5203871635786,"id":"a6bdmusrodju","municode":"140358200000"},"type":"Feature","geometry":{"type":"Point","coordinates":[-78.5203871635786,43.0265033580002]}},{"properties":{"name":"North Collins town","latitude":42.5703857505244,"pop 2008":3251.0,"stfid":3602951803,"longitude":-78.8635282752116,"id":"a6bdmuxueg87","municode":"140359100000"},"type":"Feature","geometry":{"type":"Point","coordinates":[-78.8635282752116,42.5703857505244]}},{"properties":{"name":"Orchard Park town","latitude":42.7534613984356,"pop 2008":28525.0,"stfid":3602955277,"longitude":-78.7475842282632,"id":"a6bdmury82im","municode":"140361700000"},"type":"Feature","geometry":{"type":"Point","coordinates":[-78.7475842282632,42.7534613984356]}},{"properties":{"name":"Sardinia town","latitude":42.5522389637595,"pop 2008":2662.0,"stfid":3602965277,"longitude":-78.5440267542911,"id":"a6bdmv2gtm1t","municode":"140374800000"},"type":"Feature","geometry":{"type":"Point","coordinates":[-78.5440267542911,42.5522389637595]}},{"properties":{"name":"Tonawanda city","latitude":43.010271294462,"pop 2008":14819.0,"stfid":3602974166,"longitude":-78.8822542512142,"id":"a6bdmv49z34t","municode":"140256000000"},"type":"Feature","geometry":{"type":"Point","coordinates":[-78.8822542512142,43.010271294462]}},{"properties":{"name":"Tonawanda town","latitude":42.9954126980577,"pop 2008":71720.0,"stfid":3602975000,"longitude":-78.8817845629094,"id":"a6bdmuyuf76r","municode":"140383000000"},"type":"Feature","geometry":{"type":"Point","coordinates":[-78.8817845629094,42.9954126980577]}},{"properties":{"name":"Wales town","latitude":42.7371990889376,"pop 2008":2832.0,"stfid":3602977871,"longitude":-78.521328172679,"id":"a6bdmv82v4bn","municode":"140386400000"},"type":"Feature","geometry":{"type":"Point","coordinates":[-78.521328172679,42.7371990889376]}},{"properties":{"name":"West Seneca town","latitude":42.8393070812968,"pop 2008":43795.0,"stfid":3602980918,"longitude":-78.7492327485463,"id":"a6bdmv2zbqcf","municode":"140389700000"},"type":"Feature","geometry":{"type":"Point","coordinates":[-78.7492327485463,42.8393070812968]}},{"properties":{"name":"Attica village","latitude":42.8668315706654,"pop 2008":2412.0,"stfid":3603001,"longitude":-78.2776703059849,"id":"a6bdmv7e6vl3","municode":"560403700270"},"type":"Feature","geometry":{"type":"Point","coordinates":[-78.2776703059849,42.8668315706654]}},{"properties":{"name":"Genesee County","latitude":null,"pop 2008":57821.0,"stfid":36037,"longitude":null,"id":"a6bdmv6oks6r","municode":"180100000000"},"type":"Feature","geometry":null},{"properties":{"name":"Alabama town","latitude":43.0808585585322,"pop 2008":1814.0,"stfid":3603700474,"longitude":-78.3879678530935,"id":"a6bdmussb3xz","municode":"180300400000"},"type":"Feature","geometry":{"type":"Point","coordinates":[-78.3879678530935,43.0808585585322]}},{"properties":{"name":"Alexander town","latitude":42.9135612602733,"pop 2008":2398.0,"stfid":3603701165,"longitude":-78.2501781484157,"id":"a6bdmv839f0k","municode":"180300800000"},"type":"Feature","geometry":{"type":"Point","coordinates":[-78.2501781484157,42.9135612602733]}},{"properties":{"name":"Batavia city","latitude":42.9990815048635,"pop 2008":15202.0,"stfid":3603704715,"longitude":-78.1812412321631,"id":"a6bdmuyqjbtk","municode":"180204000000"},"type":"Feature","geometry":{"type":"Point","coordinates":[-78.1812412321631,42.9990815048635]}},{"properties":{"name":"Batavia town","latitude":43.0009750115427,"pop 2008":5987.0,"stfid":3603704726,"longitude":-78.2223590447002,"id":"a6bdmusztw30","municode":"180305500000"},"type":"Feature","geometry":{"type":"Point","coordinates":[-78.2223590447002,43.0009750115427]}},{"properties":{"name":"Bergen town","latitude":43.0859072055483,"pop 2008":3040.0,"stfid":3603706057,"longitude":-77.9616319683945,"id":"a6bdmuyiij5x","municode":"180306500000"},"type":"Feature","geometry":{"type":"Point","coordinates":[-77.9616319683945,43.0859072055483]}},{"properties":{"name":"Bethany town","latitude":42.9137462868138,"pop 2008":1726.0,"stfid":3603706266,"longitude":-78.1334400529499,"id":"a6bdmusesvyd","municode":"180306900000"},"type":"Feature","geometry":{"type":"Point","coordinates":[-78.1334400529499,42.9137462868138]}},{"properties":{"name":"Byron town","latitude":43.0855984754273,"pop 2008":2329.0,"stfid":3603711572,"longitude":-78.064830266801,"id":"a6bdmuu17dn5","municode":"180310700000"},"type":"Feature","geometry":{"type":"Point","coordinates":[-78.064830266801,43.0855984754273]}},{"properties":{"name":"Darien town","latitude":42.9122177046087,"pop 2008":3050.0,"stfid":3603719719,"longitude":-78.3857925090975,"id":"a6bdmv57pab5","municode":"180321800000"},"type":"Feature","geometry":{"type":"Point","coordinates":[-78.3857925090975,42.9122177046087]}},{"properties":{"name":"Elba town","latitude":43.0883558023038,"pop 2008":2288.0,"stfid":3603723756,"longitude":-78.1750278767575,"id":"a6bdmv7yswg0","municode":"180325800000"},"type":"Feature","geometry":{"type":"Point","coordinates":[-78.1750278767575,43.0883558023038]}},{"properties":{"name":"Le Roy town","latitude":42.9951038489587,"pop 2008":7429.0,"stfid":3603742037,"longitude":-77.9698553665976,"id":"a6bdmuu34vr4","municode":"180346000000"},"type":"Feature","geometry":{"type":"Point","coordinates":[-77.9698553665976,42.9951038489587]}},{"properties":{"name":"Oakfield town","latitude":43.0876237159828,"pop 2008":3014.0,"stfid":3603754166,"longitude":-78.2715570068994,"id":"a6bdmv365lws","municode":"180360500000"},"type":"Feature","geometry":{"type":"Point","coordinates":[-78.2715570068994,43.0876237159828]}},{"properties":{"name":"Pavilion town","latitude":42.9046394720294,"pop 2008":2424.0,"stfid":3603756792,"longitude":-78.0042124866375,"id":"a6bdmurn68x4","municode":"180364400000"},"type":"Feature","geometry":{"type":"Point","coordinates":[-78.0042124866375,42.9046394720294]}},{"properties":{"name":"Pembroke town","latitude":42.9954703015232,"pop 2008":4323.0,"stfid":3603757078,"longitude":-78.3866451650724,"id":"a6bdmv2mta9i","municode":"180364700000"},"type":"Feature","geometry":{"type":"Point","coordinates":[-78.3866451650724,42.9954703015232]}},{"properties":{"name":"Stafford town","latitude":42.9909846987923,"pop 2008":2300.0,"stfid":3603770607,"longitude":-78.0841643416495,"id":"a6bdmuusgnr8","municode":"180379900000"},"type":"Feature","geometry":{"type":"Point","coordinates":[-78.0841643416495,42.9909846987923]}},{"properties":{"name":"Barker village","latitude":43.3300630919276,"pop 2008":540.0,"stfid":3604440,"longitude":-78.5542875448999,"id":"a6bdmv7z68hi","municode":"290478600350"},"type":"Feature","geometry":{"type":"Point","coordinates":[-78.5542875448999,43.3300630919276]}},{"properties":{"name":"Belmont village","latitude":42.2225707443896,"pop 2008":857.0,"stfid":3605815,"longitude":-78.0327942545836,"id":"a6bdmus6ssj0","municode":"020402000420"},"type":"Feature","geometry":{"type":"Point","coordinates":[-78.0327942545836,42.2225707443896]}},{"properties":{"name":"Bemus Point village","latitude":42.1639814059658,"pop 2008":334.0,"stfid":3605848,"longitude":-79.3894276424128,"id":"a6bdmv28e6vv","municode":"060426300430"},"type":"Feature","geometry":{"type":"Point","coordinates":[-79.3894276424128,42.1639814059658]}},{"properties":{"name":"Bergen village","latitude":43.0822585172592,"pop 2008":1153.0,"stfid":3606046,"longitude":-77.9393263452244,"id":"a6bdmuzxd4ad","municode":"180406500440"},"type":"Feature","geometry":{"type":"Point","coordinates":[-77.9393263452244,43.0822585172592]}},{"properties":{"name":"Niagara County","latitude":null,"pop 2008":214464.0,"stfid":36063,"longitude":null,"id":"a6bdmuv1yoh8","municode":"290100000000"},"type":"Feature","geometry":null},{"properties":{"name":"Cambria town","latitude":43.1763562483898,"pop 2008":5466.0,"stfid":3606311803,"longitude":-78.8200770098296,"id":"a6bdmv1j19rz","municode":"290311200000"},"type":"Feature","geometry":{"type":"Point","coordinates":[-78.8200770098296,43.1763562483898]}},{"properties":{"name":"Hartland town","latitude":43.2611798338429,"pop 2008":4001.0,"stfid":3606332490,"longitude":-78.5481979742971,"id":"a6bdmurxov2r","municode":"290337900000"},"type":"Feature","geometry":{"type":"Point","coordinates":[-78.5481979742971,43.2611798338429]}},{"properties":{"name":"Lewiston town","latitude":43.1759856469637,"pop 2008":16697.0,"stfid":3606342158,"longitude":-78.9687458363205,"id":"a6bdmuxwm7m6","municode":"290346400000"},"type":"Feature","geometry":{"type":"Point","coordinates":[-78.9687458363205,43.1759856469637]}},{"properties":{"name":"Lockport city","latitude":43.1695669145568,"pop 2008":20630.0,"stfid":3606343082,"longitude":-78.7032827897813,"id":"a6bdmv6bk20j","municode":"290227000000"},"type":"Feature","geometry":{"type":"Point","coordinates":[-78.7032827897813,43.1695669145568]}},{"properties":{"name":"Lockport town","latitude":43.1497442728478,"pop 2008":20201.0,"stfid":3606343093,"longitude":-78.6863468145086,"id":"a6bdmv227xbc","municode":"290348100000"},"type":"Feature","geometry":{"type":"Point","coordinates":[-78.6863468145086,43.1497442728478]}},{"properties":{"name":"Newfane town","latitude":43.2878884841961,"pop 2008":9334.0,"stfid":3606350232,"longitude":-78.6946224496677,"id":"a6bdmv4jijex","municode":"290357200000"},"type":"Feature","geometry":{"type":"Point","coordinates":[-78.6946224496677,43.2878884841961]}},{"properties":{"name":"Niagara town","latitude":43.1122190508101,"pop 2008":8404.0,"stfid":3606351033,"longitude":-78.9912076336672,"id":"a6bdmv0nv679","municode":"290358400000"},"type":"Feature","geometry":{"type":"Point","coordinates":[-78.9912076336672,43.1122190508101]}},{"properties":{"name":"Niagara Falls city","latitude":43.1014524502414,"pop 2008":51345.0,"stfid":3606351055,"longitude":-79.0087605772372,"id":"a6bdmv0o7jdx","municode":"290235000000"},"type":"Feature","geometry":{"type":"Point","coordinates":[-79.0087605772372,43.1014524502414]}},{"properties":{"name":"North Tonawanda city","latitude":43.0460516977416,"pop 2008":31222.0,"stfid":3606353682,"longitude":-78.8656630194767,"id":"a6bdmutihhyv","municode":"290236000000"},"type":"Feature","geometry":{"type":"Point","coordinates":[-78.8656630194767,43.0460516977416]}},{"properties":{"name":"Pendleton town","latitude":43.0924954849335,"pop 2008":6334.0,"stfid":3606357111,"longitude":-78.7609559413291,"id":"a6bdmv7lyvu3","municode":"290364800000"},"type":"Feature","geometry":{"type":"Point","coordinates":[-78.7609559413291,43.0924954849335]}},{"properties":{"name":"Porter town","latitude":43.25938129714,"pop 2008":6699.0,"stfid":3606359267,"longitude":-78.982677325261,"id":"a6bdmux7culo","municode":"290368100000"},"type":"Feature","geometry":{"type":"Point","coordinates":[-78.982677325261,43.25938129714]}},{"properties":{"name":"Royalton town","latitude":43.143664473812,"pop 2008":7519.0,"stfid":3606364034,"longitude":-78.5409605513518,"id":"a6bdmuse4np9","municode":"290372800000"},"type":"Feature","geometry":{"type":"Point","coordinates":[-78.5409605513518,43.143664473812]}},{"properties":{"name":"Somerset town","latitude":43.3388369604495,"pop 2008":2749.0,"stfid":3606368330,"longitude":-78.5504177656304,"id":"a6bdmuz05ru8","municode":"290378600000"},"type":"Feature","geometry":{"type":"Point","coordinates":[-78.5504177656304,43.3388369604495]}},{"properties":{"name":"Wheatfield town","latitude":43.0918818313255,"pop 2008":17094.0,"stfid":3606381380,"longitude":-78.8840558580543,"id":"a6bdmv3zemec","municode":"290390300000"},"type":"Feature","geometry":{"type":"Point","coordinates":[-78.8840558580543,43.0918818313255]}},{"properties":{"name":"Wilson town","latitude":43.2758655471003,"pop 2008":5702.0,"stfid":3606382370,"longitude":-78.8278888499371,"id":"a6bdmv6pnc5e","municode":"290391600000"},"type":"Feature","geometry":{"type":"Point","coordinates":[-78.8278888499371,43.2758655471003]}},{"properties":{"name":"Blasdell village","latitude":42.7951258460444,"pop 2008":2504.0,"stfid":3606849,"longitude":-78.8302732988027,"id":"a6bdmv78ctb5","municode":"140436100460"},"type":"Feature","geometry":{"type":"Point","coordinates":[-78.8302732988027,42.7951258460444]}},{"properties":{"name":"Bolivar village","latitude":42.0707095398226,"pop 2008":1113.0,"stfid":3607190,"longitude":-78.1652093608281,"id":"a6bdmv5ppju1","municode":"020407900490"},"type":"Feature","geometry":{"type":"Point","coordinates":[-78.1652093608281,42.0707095398226]}},{"properties":{"name":"Orleans County","latitude":null,"pop 2008":42135.0,"stfid":36073,"longitude":null,"id":"a6bdmv6thdjq","municode":"340100000000"},"type":"Feature","geometry":null},{"properties":{"name":"Albion town","latitude":43.2329162147801,"pop 2008":8516.0,"stfid":3607301044,"longitude":-78.2129399995233,"id":"a6bdmv0mg93j","municode":"340300500000"},"type":"Feature","geometry":{"type":"Point","coordinates":[-78.2129399995233,43.2329162147801]}},{"properties":{"name":"Barre town","latitude":43.1725006270756,"pop 2008":2070.0,"stfid":3607304572,"longitude":-78.2130410897168,"id":"a6bdmuvetlc9","municode":"340305200000"},"type":"Feature","geometry":{"type":"Point","coordinates":[-78.2130410897168,43.1725006270756]}},{"properties":{"name":"Carlton town","latitude":43.3409067024973,"pop 2008":2897.0,"stfid":3607312496,"longitude":-78.212987834661,"id":"a6bdmuyvi3gp","municode":"340312800000"},"type":"Feature","geometry":{"type":"Point","coordinates":[-78.212987834661,43.3409067024973]}},{"properties":{"name":"Clarendon town","latitude":43.1746953865895,"pop 2008":3428.0,"stfid":3607315880,"longitude":-78.0562410979635,"id":"a6bdmusgtv52","municode":"340316500000"},"type":"Feature","geometry":{"type":"Point","coordinates":[-78.0562410979635,43.1746953865895]}},{"properties":{"name":"Gaines town","latitude":43.2796880286357,"pop 2008":3621.0,"stfid":3607327958,"longitude":-78.206844591787,"id":"a6bdmuscuji4","municode":"340331000000"},"type":"Feature","geometry":{"type":"Point","coordinates":[-78.206844591787,43.2796880286357]}},{"properties":{"name":"Kendall town","latitude":43.3310976966942,"pop 2008":2753.0,"stfid":3607339188,"longitude":-78.0553883917439,"id":"a6bdmuxszquu","municode":"340343500000"},"type":"Feature","geometry":{"type":"Point","coordinates":[-78.0553883917439,43.3310976966942]}},{"properties":{"name":"Murray town","latitude":43.258039965383,"pop 2008":4671.0,"stfid":3607349286,"longitude":-78.0556075180274,"id":"a6bdmv1wvd97","municode":"340355700000"},"type":"Feature","geometry":{"type":"Point","coordinates":[-78.0556075180274,43.258039965383]}},{"properties":{"name":"Ridgeway town","latitude":43.2611466450988,"pop 2008":6561.0,"stfid":3607361742,"longitude":-78.381595732284,"id":"a6bdmut0yoym","municode":"340371300000"},"type":"Feature","geometry":{"type":"Point","coordinates":[-78.381595732284,43.2611466450988]}},{"properties":{"name":"Shelby town","latitude":43.1737832906882,"pop 2008":5168.0,"stfid":3607366751,"longitude":-78.3879469081835,"id":"a6bdmuzkffk7","municode":"340377100000"},"type":"Feature","geometry":{"type":"Point","coordinates":[-78.3879469081835,43.1737832906882]}},{"properties":{"name":"Yates town","latitude":43.3395524758888,"pop 2008":2450.0,"stfid":3607383448,"longitude":-78.3877000047987,"id":"a6bdmv4nxhjs","municode":"340392900000"},"type":"Feature","geometry":{"type":"Point","coordinates":[-78.3877000047987,43.3395524758888]}},{"properties":{"name":"Brocton village","latitude":42.3918654932749,"pop 2008":1442.0,"stfid":3608488,"longitude":-79.4421093142192,"id":"a6bdmuxx7idk","municode":"060468200570"},"type":"Feature","geometry":{"type":"Point","coordinates":[-79.4421093142192,42.3918654932749]}},{"properties":{"name":"Wyoming County","latitude":null,"pop 2008":41652.0,"stfid":36121,"longitude":null,"id":"a6bdmuwg7150","municode":"560100000000"},"type":"Feature","geometry":null},{"properties":{"name":"Arcade town","latitude":42.5636085078654,"pop 2008":3974.0,"stfid":3612102418,"longitude":-78.3867070144395,"id":"a6bdmv1e0dck","municode":"560302800000"},"type":"Feature","geometry":{"type":"Point","coordinates":[-78.3867070144395,42.5636085078654]}},{"properties":{"name":"Attica town","latitude":42.8256076220258,"pop 2008":7533.0,"stfid":3612103012,"longitude":-78.2485589181042,"id":"a6bdmv6ajt68","municode":"560303700000"},"type":"Feature","geometry":{"type":"Point","coordinates":[-78.2485589181042,42.8256076220258]}},{"properties":{"name":"Bennington town","latitude":42.8251474455854,"pop 2008":3231.0,"stfid":3612105936,"longitude":-78.3973778525006,"id":"a6bdmv0ovfpm","municode":"560306200000"},"type":"Feature","geometry":{"type":"Point","coordinates":[-78.3973778525006,42.8251474455854]}},{"properties":{"name":"Castile town","latitude":42.6609887084643,"pop 2008":2713.0,"stfid":3612112782,"longitude":-78.0147989454177,"id":"a6bdmutol0bi","municode":"560313400000"},"type":"Feature","geometry":{"type":"Point","coordinates":[-78.0147989454177,42.6609887084643]}},{"properties":{"name":"Covington town","latitude":42.8327290718637,"pop 2008":1313.0,"stfid":3612118696,"longitude":-78.0145054153085,"id":"a6bdmv5mjuak","municode":"560320700000"},"type":"Feature","geometry":{"type":"Point","coordinates":[-78.0145054153085,42.8327290718637]}},{"properties":{"name":"Eagle town","latitude":42.565109509644,"pop 2008":1164.0,"stfid":3612121369,"longitude":-78.2497325066084,"id":"a6bdmv1vzmj5","municode":"560324500000"},"type":"Feature","geometry":{"type":"Point","coordinates":[-78.2497325066084,42.565109509644]}},{"properties":{"name":"Gainesville town","latitude":42.6521131164641,"pop 2008":2225.0,"stfid":3612127980,"longitude":-78.1326594846489,"id":"a6bdmv32txkw","municode":"560331100000"},"type":"Feature","geometry":{"type":"Point","coordinates":[-78.1326594846489,42.6521131164641]}},{"properties":{"name":"Genesee Falls town","latitude":42.565214864984,"pop 2008":450.0,"stfid":3612128596,"longitude":-78.0464989719501,"id":"a6bdmv1ic9mv","municode":"560331900000"},"type":"Feature","geometry":{"type":"Point","coordinates":[-78.0464989719501,42.565214864984]}},{"properties":{"name":"Java town","latitude":42.6508176738154,"pop 2008":2139.0,"stfid":3612138341,"longitude":-78.3859849260907,"id":"a6bdmuzl0p51","municode":"560342600000"},"type":"Feature","geometry":{"type":"Point","coordinates":[-78.3859849260907,42.6508176738154]}},{"properties":{"name":"Middlebury town","latitude":42.8263741583116,"pop 2008":1454.0,"stfid":3612146877,"longitude":-78.1327324797535,"id":"a6bdmuvev8up","municode":"560352700000"},"type":"Feature","geometry":{"type":"Point","coordinates":[-78.1327324797535,42.8263741583116]}},{"properties":{"name":"Orangeville town","latitude":42.7390176393918,"pop 2008":1267.0,"stfid":3612155222,"longitude":-78.2489470209246,"id":"a6bdmutmk92q","municode":"560361600000"},"type":"Feature","geometry":{"type":"Point","coordinates":[-78.2489470209246,42.7390176393918]}},{"properties":{"name":"Perry town","latitude":42.7575431877516,"pop 2008":4579.0,"stfid":3612157254,"longitude":-78.0146475585641,"id":"a6bdmux3ujpv","municode":"560365100000"},"type":"Feature","geometry":{"type":"Point","coordinates":[-78.0146475585641,42.7575431877516]}},{"properties":{"name":"Pike town","latitude":42.5650407506782,"pop 2008":1050.0,"stfid":3612157826,"longitude":-78.1397147135133,"id":"a6bdmusph4td","municode":"560366300000"},"type":"Feature","geometry":{"type":"Point","coordinates":[-78.1397147135133,42.5650407506782]}},{"properties":{"name":"Sheldon town","latitude":42.7375647113181,"pop 2008":2471.0,"stfid":3612166773,"longitude":-78.3857018164961,"id":"a6bdmurm8ve9","municode":"560377200000"},"type":"Feature","geometry":{"type":"Point","coordinates":[-78.3857018164961,42.7375647113181]}},{"properties":{"name":"Canaseraga village","latitude":42.4616724592647,"pop 2008":560.0,"stfid":3612177,"longitude":-77.7772408901956,"id":"a6bdmuy7yl1v","municode":"020410300700"},"type":"Feature","geometry":{"type":"Point","coordinates":[-77.7772408901956,42.4616724592647]}},{"properties":{"name":"Warsaw town","latitude":42.7390817217161,"pop 2008":5174.0,"stfid":3612178344,"longitude":-78.1325292272607,"id":"a6bdmv2fnz98","municode":"560387200000"},"type":"Feature","geometry":{"type":"Point","coordinates":[-78.1325292272607,42.7390817217161]}},{"properties":{"name":"Wethersfield town","latitude":42.6520678153936,"pop 2008":915.0,"stfid":3612181325,"longitude":-78.2500436897284,"id":"a6bdmv61mvut","municode":"560390200000"},"type":"Feature","geometry":{"type":"Point","coordinates":[-78.2500436897284,42.6520678153936]}},{"properties":{"name":"Cassadaga village","latitude":42.3405221419594,"pop 2008":630.0,"stfid":3612749,"longitude":-79.316758438189,"id":"a6bdmuwvmp48","municode":"060481100770"},"type":"Feature","geometry":{"type":"Point","coordinates":[-79.316758438189,42.3405221419594]}},{"properties":{"name":"Castile village","latitude":42.6302494436894,"pop 2008":977.0,"stfid":3612771,"longitude":-78.054192634067,"id":"a6bdmv3v8ngt","municode":"560413400780"},"type":"Feature","geometry":{"type":"Point","coordinates":[-78.054192634067,42.6302494436894]}},{"properties":{"name":"Cattaraugus village","latitude":42.3283695831778,"pop 2008":984.0,"stfid":3613024,"longitude":-78.8664941558216,"id":"a6bdmv5qxakh","municode":"040456400830"},"type":"Feature","geometry":{"type":"Point","coordinates":[-78.8664941558216,42.3283695831778]}},{"properties":{"name":"Cattaraugus Reservation","latitude":42.5268307535943,"pop 2008":2244.0,"stfid":3613035,"longitude":-79.0408874573739,"id":"a6bdmv5dyppd","municode":null},"type":"Feature","geometry":{"type":"Point","coordinates":[-79.0408874573739,42.5268307535943]}},{"properties":{"name":"Celoron village","latitude":42.1057440101917,"pop 2008":1193.0,"stfid":3613288,"longitude":-79.27705894661,"id":"a6bdmv6x94k4","municode":"060426400880"},"type":"Feature","geometry":{"type":"Point","coordinates":[-79.27705894661,42.1057440101917]}},{"properties":{"name":"Cherry Creek village","latitude":42.295792934234,"pop 2008":513.0,"stfid":3615187,"longitude":-79.100979676788,"id":"a6bdmv7kvyzr","municode":"060415500950"},"type":"Feature","geometry":{"type":"Point","coordinates":[-79.100979676788,42.295792934234]}},{"properties":{"name":"Corfu village","latitude":42.960545599542,"pop 2008":735.0,"stfid":3618201,"longitude":-78.4035788743396,"id":"a6bdmuzn78il","municode":"180464701140"},"type":"Feature","geometry":{"type":"Point","coordinates":[-78.4035788743396,42.960545599542]}},{"properties":{"name":"Cuba village","latitude":42.219157984545,"pop 2008":1552.0,"stfid":3619356,"longitude":-78.2768307044847,"id":"a6bdmv2njsf6","municode":"020421201210"},"type":"Feature","geometry":{"type":"Point","coordinates":[-78.2768307044847,42.219157984545]}},{"properties":{"name":"Delevan village","latitude":42.4909419241841,"pop 2008":999.0,"stfid":3620115,"longitude":-78.4808270838586,"id":"a6bdmv3u60kc","municode":"040493101260"},"type":"Feature","geometry":{"type":"Point","coordinates":[-78.4808270838586,42.4909419241841]}},{"properties":{"name":"Depew village","latitude":42.9108926430414,"pop 2008":15307.0,"stfid":3620313,"longitude":-78.7085389334633,"id":"a6bdmv09v4ly","municode":"140415201280"},"type":"Feature","geometry":{"type":"Point","coordinates":[-78.7085389334633,42.9108926430414]}},{"properties":{"name":"East Aurora village","latitude":42.7688538531703,"pop 2008":6242.0,"stfid":3621589,"longitude":-78.6165603413888,"id":"a6bdmurtz81h","municode":"140404001400"},"type":"Feature","geometry":{"type":"Point","coordinates":[-78.6165603413888,42.7688538531703]}},{"properties":{"name":"East Randolph village","latitude":42.1700409199259,"pop 2008":633.0,"stfid":3622843,"longitude":-78.953970525561,"id":"a6bdmv5pvve3","municode":"040469901440"},"type":"Feature","geometry":{"type":"Point","coordinates":[-78.953970525561,42.1700409199259]}},{"properties":{"name":"Elba village","latitude":43.0768552945085,"pop 2008":646.0,"stfid":3623745,"longitude":-78.1884885815742,"id":"a6bdmv5fv8wo","municode":"180425801500"},"type":"Feature","geometry":{"type":"Point","coordinates":[-78.1884885815742,43.0768552945085]}},{"properties":{"name":"Ellicottville village","latitude":42.2734357725884,"pop 2008":522.0,"stfid":3624020,"longitude":-78.6705839737315,"id":"a6bdmv6grjo7","municode":"040426501540"},"type":"Feature","geometry":{"type":"Point","coordinates":[-78.6705839737315,42.2734357725884]}},{"properties":{"name":"Falconer village","latitude":42.1179967872389,"pop 2008":2342.0,"stfid":3625164,"longitude":-79.1941576155954,"id":"a6bdmv64cvr1","municode":"060426401640"},"type":"Feature","geometry":{"type":"Point","coordinates":[-79.1941576155954,42.1179967872389]}},{"properties":{"name":"Farnham village","latitude":42.5946599121881,"pop 2008":312.0,"stfid":3625428,"longitude":-79.0813856359837,"id":"a6bdmv2xg28o","municode":"140408801660"},"type":"Feature","geometry":{"type":"Point","coordinates":[-79.0813856359837,42.5946599121881]}},{"properties":{"name":"Forestville village","latitude":42.4683705532005,"pop 2008":714.0,"stfid":3626649,"longitude":-79.1755072878758,"id":"a6bdmuz8ixji","municode":"060437001750"},"type":"Feature","geometry":{"type":"Point","coordinates":[-79.1755072878758,42.4683705532005]}},{"properties":{"name":"Franklinville village","latitude":42.3367316484114,"pop 2008":1704.0,"stfid":3627331,"longitude":-78.4550102348547,"id":"a6bdmuz39zrn","municode":"040430201830"},"type":"Feature","geometry":{"type":"Point","coordinates":[-78.4550102348547,42.3367316484114]}},{"properties":{"name":"Fredonia village","latitude":42.4404141516982,"pop 2008":11064.0,"stfid":3627419,"longitude":-79.3311837141767,"id":"a6bdmuvj6omc","municode":"060467801840"},"type":"Feature","geometry":{"type":"Point","coordinates":[-79.3311837141767,42.4404141516982]}},{"properties":{"name":"Gainesville village","latitude":42.6413437214613,"pop 2008":282.0,"stfid":3627969,"longitude":-78.1366272500098,"id":"a6bdmuwikiiy","municode":"560431101890"},"type":"Feature","geometry":{"type":"Point","coordinates":[-78.1366272500098,42.6413437214613]}},{"properties":{"name":"Gowanda village","latitude":42.4619733143862,"pop 2008":2603.0,"stfid":3629630,"longitude":-78.9310169173011,"id":"a6bdmuuvi44q","municode":"040465301970"},"type":"Feature","geometry":{"type":"Point","coordinates":[-78.9310169173011,42.4619733143862]}},{"properties":{"name":"Hamburg village","latitude":42.7244586240121,"pop 2008":9400.0,"stfid":3631643,"longitude":-78.8365044209683,"id":"a6bdmuz4tsa9","municode":"140436102100"},"type":"Feature","geometry":{"type":"Point","coordinates":[-78.8365044209683,42.7244586240121]}},{"properties":{"name":"Holley village","latitude":43.2262995538128,"pop 2008":1686.0,"stfid":3635155,"longitude":-78.0290985350679,"id":"a6bdmv3shtsj","municode":"340455702350"},"type":"Feature","geometry":{"type":"Point","coordinates":[-78.0290985350679,43.2262995538128]}},{"properties":{"name":"Kenmore village","latitude":42.9659391124149,"pop 2008":15002.0,"stfid":3639232,"longitude":-78.8712105033803,"id":"a6bdmuzxix7j","municode":"140483002510"},"type":"Feature","geometry":{"type":"Point","coordinates":[-78.8712105033803,42.9659391124149]}},{"properties":{"name":"Lakewood village","latitude":42.1001785340872,"pop 2008":3041.0,"stfid":3641069,"longitude":-79.3195990341409,"id":"a6bdmuyyfov5","municode":"060410402590"},"type":"Feature","geometry":{"type":"Point","coordinates":[-79.3195990341409,42.1001785340872]}},{"properties":{"name":"Lancaster village","latitude":42.9019141660196,"pop 2008":11108.0,"stfid":3641135,"longitude":-78.6716499605881,"id":"a6bdmv41mfx9","municode":"140444802600"},"type":"Feature","geometry":{"type":"Point","coordinates":[-78.6716499605881,42.9019141660196]}},{"properties":{"name":"Le Roy village","latitude":42.978866089478,"pop 2008":4142.0,"stfid":3642026,"longitude":-77.9914778079023,"id":"a6bdmute8e84","municode":"180446002670"},"type":"Feature","geometry":{"type":"Point","coordinates":[-77.9914778079023,42.978866089478]}},{"properties":{"name":"Lewiston village","latitude":43.172159577724,"pop 2008":2628.0,"stfid":3642147,"longitude":-79.0380541166514,"id":"a6bdmv3hipjj","municode":"290446402680"},"type":"Feature","geometry":{"type":"Point","coordinates":[-79.0380541166514,43.172159577724]}},{"properties":{"name":"Limestone village","latitude":42.0226242867437,"pop 2008":385.0,"stfid":3642378,"longitude":-78.6335913408026,"id":"a6bdmuxwjxjh","municode":"040413302710"},"type":"Feature","geometry":{"type":"Point","coordinates":[-78.6335913408026,42.0226242867437]}},{"properties":{"name":"Little Valley village","latitude":42.2513272318493,"pop 2008":1060.0,"stfid":3642829,"longitude":-78.7968985560194,"id":"a6bdmuzybmra","municode":"040447602740"},"type":"Feature","geometry":{"type":"Point","coordinates":[-78.7968985560194,42.2513272318493]}},{"properties":{"name":"Lyndonville village","latitude":43.3227429536668,"pop 2008":816.0,"stfid":3643918,"longitude":-78.3900125007525,"id":"a6bdmv5asy1l","municode":"340492902810"},"type":"Feature","geometry":{"type":"Point","coordinates":[-78.3900125007525,43.3227429536668]}},{"properties":{"name":"Mayville village","latitude":42.2501999283687,"pop 2008":1685.0,"stfid":3646239,"longitude":-79.5008164117272,"id":"a6bdmv1xx2wz","municode":"060415003020"},"type":"Feature","geometry":{"type":"Point","coordinates":[-79.5008164117272,42.2501999283687]}},{"properties":{"name":"Medina village","latitude":43.2190010584308,"pop 2008":6046.0,"stfid":3646415,"longitude":-78.3928962164869,"id":"a6bdmuu7i6sz","municode":"340471303030"},"type":"Feature","geometry":{"type":"Point","coordinates":[-78.3928962164869,43.2190010584308]}},{"properties":{"name":"Middleport village","latitude":43.2120435705183,"pop 2008":1779.0,"stfid":3646998,"longitude":-78.4751185969852,"id":"a6bdmv5d44la","municode":"290472803080"},"type":"Feature","geometry":{"type":"Point","coordinates":[-78.4751185969852,43.2120435705183]}},{"properties":{"name":"North Collins village","latitude":42.5949474652196,"pop 2008":1002.0,"stfid":3651792,"longitude":-78.9370412963166,"id":"a6bdmuti7hwk","municode":"140459103460"},"type":"Feature","geometry":{"type":"Point","coordinates":[-78.9370412963166,42.5949474652196]}},{"properties":{"name":"Oakfield village","latitude":43.0650241706328,"pop 2008":1654.0,"stfid":3654155,"longitude":-78.2710461490625,"id":"a6bdmv29o5eb","municode":"180460503580"},"type":"Feature","geometry":{"type":"Point","coordinates":[-78.2710461490625,43.0650241706328]}},{"properties":{"name":"Oil Springs Reservation","latitude":42.2316661531565,"pop 2008":11.0,"stfid":3654523,"longitude":-78.3068528920438,"id":"a6bdmuuzvh4r","municode":null},"type":"Feature","geometry":{"type":"Point","coordinates":[-78.3068528920438,42.2316661531565]}},{"properties":{"name":"Orchard Park village","latitude":42.7618827805511,"pop 2008":3050.0,"stfid":3655266,"longitude":-78.740455572626,"id":"a6bdmutxgpk9","municode":"140461703650"},"type":"Feature","geometry":{"type":"Point","coordinates":[-78.740455572626,42.7618827805511]}},{"properties":{"name":"Panama village","latitude":42.07465748083,"pop 2008":460.0,"stfid":3656231,"longitude":-79.4849400325763,"id":"a6bdmuuq156b","municode":"060437303780"},"type":"Feature","geometry":{"type":"Point","coordinates":[-79.4849400325763,42.07465748083]}},{"properties":{"name":"Perry village","latitude":42.7165556463989,"pop 2008":3667.0,"stfid":3657243,"longitude":-78.005896498147,"id":"a6bdmv22n4wg","municode":"560465103850"},"type":"Feature","geometry":{"type":"Point","coordinates":[-78.005896498147,42.7165556463989]}},{"properties":{"name":"Perrysburg village","latitude":42.4589259837906,"pop 2008":380.0,"stfid":3657287,"longitude":-79.0008304059865,"id":"a6bdmuroxv8c","municode":"040465203860"},"type":"Feature","geometry":{"type":"Point","coordinates":[-79.0008304059865,42.4589259837906]}},{"properties":{"name":"Pike village","latitude":42.5553800399701,"pop 2008":354.0,"stfid":3657815,"longitude":-78.1542965865994,"id":"a6bdmv6uzpar","municode":"560466303920"},"type":"Feature","geometry":{"type":"Point","coordinates":[-78.1542965865994,42.5553800399701]}},{"properties":{"name":"Portville village","latitude":42.0353969336565,"pop 2008":951.0,"stfid":3659498,"longitude":-78.3371394928458,"id":"a6bdmv3wg7lr","municode":"040468304060"},"type":"Feature","geometry":{"type":"Point","coordinates":[-78.3371394928458,42.0353969336565]}},{"properties":{"name":"Randolph village","latitude":42.1615914389438,"pop 2008":1211.0,"stfid":3660576,"longitude":-78.9788301818199,"id":"a6bdmv5d3zti","municode":"040469904130"},"type":"Feature","geometry":{"type":"Point","coordinates":[-78.9788301818199,42.1615914389438]}},{"properties":{"name":"Richburg village","latitude":42.089019261142,"pop 2008":428.0,"stfid":3661434,"longitude":-78.1567717787831,"id":"a6bdmv6h8wkz","municode":"020407904200"},"type":"Feature","geometry":{"type":"Point","coordinates":[-78.1567717787831,42.089019261142]}},{"properties":{"name":"Sherman village","latitude":42.1578396529793,"pop 2008":658.0,"stfid":3666949,"longitude":-79.5941771336922,"id":"a6bdmushe5ff","municode":"060477604560"},"type":"Feature","geometry":{"type":"Point","coordinates":[-79.5941771336922,42.1578396529793]}},{"properties":{"name":"Silver Creek village","latitude":42.5436986883934,"pop 2008":2799.0,"stfid":3667411,"longitude":-79.1660435280774,"id":"a6bdmv5xn7w4","municode":"060437004600"},"type":"Feature","geometry":{"type":"Point","coordinates":[-79.1660435280774,42.5436986883934]}},{"properties":{"name":"Silver Springs village","latitude":42.6637795669249,"pop 2008":785.0,"stfid":3667466,"longitude":-78.0843079263626,"id":"a6bdmv1p0lj2","municode":"560431104610"},"type":"Feature","geometry":{"type":"Point","coordinates":[-78.0843079263626,42.6637795669249]}},{"properties":{"name":"Sinclairville village","latitude":42.2654304710387,"pop 2008":626.0,"stfid":3667488,"longitude":-79.2601523027585,"id":"a6bdmv2i9m7x","municode":"060414604620"},"type":"Feature","geometry":{"type":"Point","coordinates":[-79.2601523027585,42.2654304710387]}},{"properties":{"name":"Sloan village","latitude":42.8924250222713,"pop 2008":3450.0,"stfid":3667686,"longitude":-78.7918887381051,"id":"a6bdmv1sbeap","municode":"140415204640"},"type":"Feature","geometry":{"type":"Point","coordinates":[-78.7918887381051,42.8924250222713]}},{"properties":{"name":"South Dayton village","latitude":42.3626810943909,"pop 2008":609.0,"stfid":3668891,"longitude":-79.0510516587879,"id":"a6bdmv0kr5jd","municode":"040422104710"},"type":"Feature","geometry":{"type":"Point","coordinates":[-79.0510516587879,42.3626810943909]}},{"properties":{"name":"Springville village","latitude":42.5062865963639,"pop 2008":4181.0,"stfid":3670442,"longitude":-78.6687253580177,"id":"a6bdmuwax8nj","municode":"140419104790"},"type":"Feature","geometry":{"type":"Point","coordinates":[-78.6687253580177,42.5062865963639]}},{"properties":{"name":"Tonawanda Reservation","latitude":43.0639484801721,"pop 2008":506.0,"stfid":3675011,"longitude":-78.4514612818136,"id":"a6bdmv1qsg9u","municode":null},"type":"Feature","geometry":{"type":"Point","coordinates":[-78.4514612818136,43.0639484801721]}},{"properties":{"name":"Tuscarora Reservation","latitude":43.1649352448255,"pop 2008":1067.0,"stfid":3675748,"longitude":-78.9564156575859,"id":"a6bdmurxmdu5","municode":null},"type":"Feature","geometry":{"type":"Point","coordinates":[-78.9564156575859,43.1649352448255]}},{"properties":{"name":"Warsaw village","latitude":42.7427341343593,"pop 2008":3622.0,"stfid":3678333,"longitude":-78.1414074093432,"id":"a6bdmuzflvdr","municode":"560487205150"},"type":"Feature","geometry":{"type":"Point","coordinates":[-78.1414074093432,42.7427341343593]}},{"properties":{"name":"Wellsville village","latitude":42.1193064231906,"pop 2008":4896.0,"stfid":3679092,"longitude":-77.9434020154856,"id":"a6bdmuz6mk7p","municode":"020488705270"},"type":"Feature","geometry":{"type":"Point","coordinates":[-77.9434020154856,42.1193064231906]}},{"properties":{"name":"Westfield village","latitude":42.3230751859135,"pop 2008":3361.0,"stfid":3679939,"longitude":-79.5789789820895,"id":"a6bdmuwt4rdn","municode":"060489205300"},"type":"Feature","geometry":{"type":"Point","coordinates":[-79.5789789820895,42.3230751859135]}},{"properties":{"name":"Williamsville village","latitude":42.9625657936809,"pop 2008":5129.0,"stfid":3682084,"longitude":-78.7424786305338,"id":"a6bdmusdbvhp","municode":"140401905380"},"type":"Feature","geometry":{"type":"Point","coordinates":[-78.7424786305338,42.9625657936809]}},{"properties":{"name":"Wilson village","latitude":43.3068053983775,"pop 2008":1141.0,"stfid":3682359,"longitude":-78.8266748452244,"id":"a6bdmuwgsuld","municode":"290491605400"},"type":"Feature","geometry":{"type":"Point","coordinates":[-78.8266748452244,43.3068053983775]}},{"properties":{"name":"Wyoming village","latitude":42.8242782821333,"pop 2008":476.0,"stfid":3683371,"longitude":-78.0844569573658,"id":"a6bdmv6mmlsx","municode":"560452705470"},"type":"Feature","geometry":{"type":"Point","coordinates":[-78.0844569573658,42.8242782821333]}},{"properties":{"name":"Youngstown village","latitude":43.2485911537325,"pop 2008":1865.0,"stfid":3684143,"longitude":-79.0414984643111,"id":"a6bdmv4muxkv","municode":"290468105490"},"type":"Feature","geometry":{"type":"Point","coordinates":[-79.0414984643111,43.2485911537325]}}],"is_temporal":false,"author":{"url":"","metadata":null,"contact_name":null,"contact_address":null,"source":null,"contact_phone":null},"source":"","pagination":{"sort":null,"start":0,"total":265,"limit":1000000},"state":"complete","tags":"","published":"2014-08-15T01:13:56-04:00","id":237028}