{"type":"FeatureCollection","data_type":"Dataset","url_type":null,"permissions":[{"permissions":{"download":true,"view":true},"group_id":"everyone"}],"classification":null,"title":"CHAPTER_MAP_-_Sheet1","count":129,"stream_id":239637,"contributor":{"url":"http://geocommons.com/users/45371","name":"ssdpdrew"},"data_attributes":null,"calculation_params":null,"icon_link":null,"link":"http://geocommons.com/overlays/239637.json","extent":[-123.28,25.7608,-70.1488,48.7381],"geometry_types":["point"],"unique_name":null,"name":"CHAPTER_MAP_-_Sheet1","feature_count":129,"description":"","next_feature":null,"is_raster":false,"short_classification":"Y","stats":{},"features":[{"properties":{"city":"Washington","zip":"20037","region":"Mid-Atlantic","last name":"Russoniello","geo_score":0.829,"website":"http://www.gwsba.com/org/ssdp/author/ssdp/","facebook group":"https://www.facebook.com/pages/GW-Law-Students-for-Sensible-Drug-Policy/164425310249720","personal email":"krussoniello@gmail.com","id":"a68qpmhqrpfe","geo_precision":"range","listserv":null,"first name":"Kellen","address":"716 20th Street Northwest","school":"George Washington University Law School","email":"GWSSDP@gmail.com","state":"DC"},"type":"Feature","geometry":{"type":"Point","coordinates":[-77.044906,38.898527]}},{"properties":{"city":"Washington","zip":"20001","region":"Mid-Atlantic","last name":"Nichols","geo_score":0.829,"website":null,"facebook group":null,"personal email":"nichols.bm@gmail.com","id":"a68qpmgd4fhp","geo_precision":"range","listserv":null,"first name":"Bob","address":"120 F St NW","school":"Georgetown University Law Center","email":"GeorgetownLawSSDP@gmail.com","state":"DC"},"type":"Feature","geometry":{"type":"Point","coordinates":[-77.012448,38.897338]}},{"properties":{"city":"Atlanta","zip":"30303","region":"Mid-Atlantic","last name":"Bancroft","geo_score":0.78,"website":null,"facebook group":"https://www.facebook.com/groups/ssdpgeorgiastate/","personal email":"esmeebancroft@gmail.com","id":"a68qpmirmdw9","geo_precision":"range","listserv":"http://eepurl.com/k2kgP","first name":"Esmee","address":"100 Decatur Street Southeast","school":"Georgia State University","email":"ssdpgsu@gmail.com","state":"GA"},"type":"Feature","geometry":{"type":"Point","coordinates":[-84.386698,33.752422]}},{"properties":{"city":"College Park","zip":"20742","region":"Mid-Atlantic","last name":"Hellwich","geo_score":0.857,"website":"http://www.ssdpterps.org/","facebook group":"https://www.facebook.com/groups/ssdpterps/","personal email":"mkh16475@terpmail.umd.edu","id":"a68qpmkcujhh","geo_precision":"street","listserv":"http://groups.google.com/group/umd_ssdp","first name":"Mikayla","address":"Campus Dr.","school":"University of Maryland","email":"ssdpterps@gmail.com","state":"MD"},"type":"Feature","geometry":{"type":"Point","coordinates":[-76.953139,38.985051]}},{"properties":{"city":"Baltimore","zip":"21201","region":"Mid-Atlantic","last name":"Ivey","geo_score":0.464,"website":null,"facebook group":null,"personal email":"jivey@umaryland.edu","id":"a68qpmduq8ym","geo_precision":"street","listserv":null,"first name":"Jennifer","address":"500 W. Baltimore Street","school":"University of Maryland Law","email":"ssdp@law.umaryland.edu","state":"MD"},"type":"Feature","geometry":{"type":"Point","coordinates":[-76.615248,39.289525]}},{"properties":{"city":"Chapel Hill","zip":"27514","region":"Mid-Atlantic","last name":"Uy","geo_score":0.824,"website":null,"facebook group":"http://facebook.com/ssdpcarolina","personal email":"cedwarduy@gmail.com","id":"a68qpmh09a7g","geo_precision":"range","listserv":"ssdpcarolina@googlegroups.com","first name":"Chris","address":"200 E Cameron Ave","school":"UNC Chapel Hill","email":"ssdpcarolina@gmail.com","state":"NC"},"type":"Feature","geometry":{"type":"Point","coordinates":[-79.052367,35.911493]}},{"properties":{"city":"Charleston","zip":"29424","region":"Mid-Atlantic","last name":"Rapacietta","geo_score":0.902,"website":null,"facebook group":"https://www.facebook.com/groups/CharlestonSSDP/","personal email":"rapachiettahd@g.cofc.edu","id":"a68qpm75o8ek","geo_precision":"range","listserv":"http://groups.google.com/group/SSDPCofC","first name":"Heather","address":"66 George Street","school":"College of Charleston","email":"CharlestonSSDP@gmail.com","state":"SC"},"type":"Feature","geometry":{"type":"Point","coordinates":[-79.936184,32.783643]}},{"properties":{"city":"Richmond","zip":"23284","region":"Mid-Atlantic","last name":"Van Den Hurk","geo_score":0.902,"website":"http://www.ssdpvcu.org","facebook group":"https://www.facebook.com/groups/35249929164/","personal email":"jkvdhurk@gmail.com","id":"a68qpmjbk9a7","geo_precision":"range","listserv":"http://groups.google.com/group/vcussdp","first name":"Juuri","address":"1015 Floyd Ave.","school":"Virginia Commonwealth University","email":"vcussdp@gmail.com","state":"VA"},"type":"Feature","geometry":{"type":"Point","coordinates":[-77.454201,37.547184]}},{"properties":{"city":"Sterling","zip":"20164","region":"Mid-Atlantic","last name":"Buning","geo_score":0.708,"website":null,"facebook group":"https://www.facebook.com/groups/SensibleNOVA/","personal email":"andrew_buning@yahoo.com","id":"a68qpm9m5c10","geo_precision":"street","listserv":"http://groups.google.com/group/nvccssdp","first name":"Andrew","address":"1000 Harry Flood Byrd Highway","school":"NVCC Woodbridge Campus","email":"ssdpnova@gmail.com","state":"VA"},"type":"Feature","geometry":{"type":"Point","coordinates":[-77.380669,39.019474]}},{"properties":{"city":"Alexandria","zip":"22311","region":"Mid-Atlantic","last name":"McMillon","geo_score":0.685,"website":null,"facebook group":"https://www.facebook.com/groups/145931958851777/","personal email":"McChris.ssdp@gmail.com","id":"a68qpmbu7u6q","geo_precision":"street","listserv":null,"first name":"Chris","address":"3001 North Beauregard Street","school":"NVCC Alexandria Campus","email":"SensibleNOVA@gmail.com","state":"VA"},"type":"Feature","geometry":{"type":"Point","coordinates":[-77.115444,38.835321]}},{"properties":{"city":"Charlottesville","zip":"22903","region":"Mid-Atlantic","last name":"Silverstein","geo_score":0.818,"website":null,"facebook group":"https://www.facebook.com/pages/Students-for-Sensible-Drug-Policy-at-UVA-Law/246700718710754","personal email":"thom.silverstein@gmail.com","id":"a68qpmanuhtn","geo_precision":"range","listserv":"http://groups.google.com/group/ssdpatuvalaw","first name":"Thom","address":"580 Massie Road","school":"University of Virginia School of Law","email":"SSDPatUVALaw@gmail.com","state":"VA"},"type":"Feature","geometry":{"type":"Point","coordinates":[-78.509886,38.051949]}},{"properties":{"city":"Fredericksburg","zip":"22401","region":"Mid-Atlantic","last name":"Swecker","geo_score":0.819,"website":null,"facebook group":"http://www.facebook.com/home.php?sk=group_105784119488267&amp;ap=1","personal email":"kswecker95@gmail.com","id":"a68qpmaun1ii","geo_precision":"range","listserv":null,"first name":"Kyle","address":"1301 College Avenue","school":"University of Mary Washington","email":"kswecker95@gmail.com","state":"VA"},"type":"Feature","geometry":{"type":"Point","coordinates":[-77.47493,38.299975]}},{"properties":{"city":"Blacksburg","zip":"24061","region":"Mid-Atlantic","last name":"Beemer","geo_score":0.5,"website":null,"facebook group":"https://www.facebook.com/groups/237610672977466/","personal email":"chloebee@vt.edu","id":"a68qpmhxoiss","geo_precision":"street","listserv":"http://groups.google.com/group/vtssdp/","first name":"Chloe","address":"118 N. Main St","school":"Virginia Tech","email":"chloebee@vt.edu","state":"VA"},"type":"Feature","geometry":{"type":"Point","coordinates":[-79.81945,37.753168]}},{"properties":{"city":"Morgantown","zip":"26506","region":"Mid-Atlantic","last name":"Byers","geo_score":0.902,"website":"http://sensiblewv.org/","facebook group":"https://www.facebook.com/groups/ssdpwvu/","personal email":"berkeley.byers@gmail.com","id":"a68qpmeer7ny","geo_precision":"range","listserv":"http://groups.google.com/group/ssdpwvu","first name":"Berkeley","address":"98 Beechurst Ave","school":"West Virginia University","email":"ssdp.wvu@gmail.com","state":"WV"},"type":"Feature","geometry":{"type":"Point","coordinates":[-79.956515,39.634327]}},{"properties":{"city":"GA","zip":null,"region":"Mid-Atlantic","last name":"Ribley","geo_score":0.619,"website":null,"facebook group":"https://www.facebook.com/groups/172865906142709/","personal email":"pribley@yahoo.com","id":"a68qpmbi8kt3","geo_precision":"street","listserv":null,"first name":"Palmer","address":"Kennesaw","school":"Kennesaw State University","email":null,"state":"GA"},"type":"Feature","geometry":{"type":"Point","coordinates":[-85.964911,34.005942]}},{"properties":{"city":"Moscow","zip":"83844","region":"Mountain Plains","last name":"Reiner","geo_score":0.902,"website":null,"facebook group":"https://www.facebook.com/groups/UIdahoSSDP/","personal email":"jamilea09@gmail.com","id":"a68qpmesz7vb","geo_precision":"range","listserv":null,"first name":"Jami","address":"709 Deakin Avenue","school":"University of Idaho","email":null,"state":"ID"},"type":"Feature","geometry":{"type":"Point","coordinates":[-117.006867,46.728226]}},{"properties":{"city":"Chandler","zip":"85225-2499","region":"Mountain Plains","last name":"Oberlin","geo_score":0.902,"website":null,"facebook group":null,"personal email":"cameronoberlin@gmail.com","id":"a68qpmmxoigk","geo_precision":"range","listserv":null,"first name":"Cameron","address":"2626 East Pecos Road","school":"Chandler-Gilbert Community College","email":"ssdp.cgcc@gmail.com","state":"AZ"},"type":"Feature","geometry":{"type":"Point","coordinates":[-111.793927,33.291876]}},{"properties":{"city":"Boulder","zip":"80301","region":"Mountain Plains","last name":"Omasta","geo_score":0.902,"website":null,"facebook group":"https://www.facebook.com/groups/136887747494/","personal email":"peter.omasta@colorado.edu","id":"a68qpmk1ikot","geo_precision":"range","listserv":null,"first name":"Peter","address":"1305 University Ave","school":"University of Colorado Boulder","email":"ssdpboulder@gmail.com","state":"CO"},"type":"Feature","geometry":{"type":"Point","coordinates":[-105.27596,40.010515]}},{"properties":{"city":"Colorado Springs","zip":"80918","region":"Mountain Plains","last name":"Perez","geo_score":0.902,"website":null,"facebook group":"https://www.facebook.com/groups/66411079023/","personal email":"rperez@uccs.edu","id":"a68qpmdjlgxd","geo_precision":"range","listserv":null,"first name":"Raul","address":"1420 Austin Bluffs Pkwy","school":"University of Colorado Colorado Springs","email":null,"state":"CO"},"type":"Feature","geometry":{"type":"Point","coordinates":[-104.800145,38.891197]}},{"properties":{"city":"Denver","zip":"80201","region":"Mountain Plains","last name":"Houston","geo_score":0.805,"website":null,"facebook group":"https://www.facebook.com/groups/AurariaSSDP/","personal email":"p.m.houston@gmail.com","id":"a68qpm9o7wq5","geo_precision":"range","listserv":null,"first name":"Patrick","address":"1250 14th Street","school":"University of Colorado Denver","email":null,"state":"CO"},"type":"Feature","geometry":{"type":"Point","coordinates":[-104.999338,39.747002]}},{"properties":{"city":"Boulder","zip":"80309","region":"Mountain Plains","last name":"Cheney","geo_score":0.585,"website":null,"facebook group":null,"personal email":"Kevin.Cheney@colorado.edu","id":"a68qpm9dwsut","geo_precision":"zip","listserv":null,"first name":"Kevin","address":"2405 Kittredge Loop Dr","school":"University of Colorado Law","email":null,"state":"CO"},"type":"Feature","geometry":{"type":"Point","coordinates":[-105.373507,40.087835]}},{"properties":{"city":"Denver","zip":"80208","region":"Mountain Plains","last name":"Garcia","geo_score":0.49,"website":"http://law.du.edu/index.php/studentorgs/l-m/lssdp","facebook group":null,"personal email":"dguccs@gmail.com","id":"a68qpmebp1wq","geo_precision":"street","listserv":"LSSDP@googlegroups.com","first name":"Daniel","address":"2255 E. Evans Avenue","school":"University of Denver Law School","email":"dulsddp@law.du.edu","state":"CO"},"type":"Feature","geometry":{"type":"Point","coordinates":[-104.925197,39.677763]}},{"properties":{"city":"Albuquerque","zip":"87131","region":"Mountain Plains","last name":"Lucero","geo_score":0.57,"website":null,"facebook group":"https://www.facebook.com/groups/26931604617/","personal email":null,"id":"a68qpmfd06j3","geo_precision":"street","listserv":null,"first name":"Marcus","address":"1 University of New Mexico","school":"University of New Mexico","email":null,"state":"NM"},"type":"Feature","geometry":{"type":"Point","coordinates":[-106.626824,35.08141]}},{"properties":{"city":"Logan","zip":"84322","region":"Mountain Plains","last name":"Black","geo_score":0.548,"website":null,"facebook group":"http://www.facebook.com/groups/211106775573312/","personal email":"adam.black_09@yahoo.com","id":"a68qpmd6l05x","geo_precision":"street","listserv":"ssdp.usu@gmail.com","first name":"Adam","address":"1400 Old Main Hill","school":"Utah State University","email":"ssdp.usu@gmail.com","state":"UT"},"type":"Feature","geometry":{"type":"Point","coordinates":[-111.809853,41.740646]}},{"properties":{"city":"Chicago","zip":"60614","region":"Midwest","last name":"Barr","geo_score":0.902,"website":null,"facebook group":null,"personal email":"jbarr@fwparker.org","id":"a68qpmc6h7fo","geo_precision":"range","listserv":null,"first name":"Jeanne","address":"330 West Webster Avenue","school":"F.W. Parker High","email":"jbarr@fwparker.org","state":"IL"},"type":"Feature","geometry":{"type":"Point","coordinates":[-87.637603,41.921979]}},{"properties":{"city":"Bloomington","zip":"61701","region":"Midwest","last name":"Firth","geo_score":0.831,"website":null,"facebook group":null,"personal email":"mfirth@iwu.edu","id":"a68qpmdhi07n","geo_precision":"range","listserv":null,"first name":"Mike","address":"1312 Park Street","school":"Illinois Wesleyan University","email":"mfirth@iwu.edu","state":"IL"},"type":"Feature","geometry":{"type":"Point","coordinates":[-88.989879,40.491166]}},{"properties":{"city":"Chicago","zip":"60605","region":"Midwest","last name":"Moore","geo_score":0.464,"website":null,"facebook group":"http://www.facebook.com/group.php?gid=5651806096&amp;ref=ts","personal email":"amoore05@mail.roosevelt.edu","id":"a68qpmjkqbv8","geo_precision":"street","listserv":null,"first name":"Abby","address":"430 S. Michigan Avenue","school":"Roosevelt University","email":"amoore05@mail.roosevelt.edu","state":"IL"},"type":"Feature","geometry":{"type":"Point","coordinates":[-87.624181,41.87578]}},{"properties":{"city":"Charleston","zip":"61920","region":"Midwest","last name":"Stanley","geo_score":0.844,"website":null,"facebook group":"http://www.facebook.com/pages/EIU-Students-for-Sensible-Drug-Policy/209566542397541?sk=wall","personal email":"jdstanley@eiu.edu","id":"a68qpmmbu1ti","geo_precision":"range","listserv":null,"first name":"James","address":"600 Lincoln Ave","school":"Eastern Illinois University","email":"jdstanley@eiu.edu","state":"IL"},"type":"Feature","geometry":{"type":"Point","coordinates":[-88.175135,39.484382]}},{"properties":{"city":"DeKalb","zip":"60115-2828","region":"Midwest","last name":"Orbach","geo_score":0.348,"website":null,"facebook group":"http://www.facebook.com/pages/NIU-Students-for-a-Sensible-Drug-Policy/356095366059","personal email":"Jeremy@niussdp.org","id":"a68qpmgj552u","geo_precision":"street","listserv":"http://groups.google.com/groups/niussdp","first name":"Jeremy","address":"1425 W. Lincoln Hwy.","school":"Northern Illinois University","email":"jeremy@niussdp.org","state":"IL"},"type":"Feature","geometry":{"type":"Point","coordinates":[-88.752719,41.930333]}},{"properties":{"city":"Evanston","zip":"60208","region":"Midwest","last name":"Fu","geo_score":0.805,"website":null,"facebook group":null,"personal email":"francesfu2015@u.northwestern.edu","id":"a68qpmcnskbj","geo_precision":"range","listserv":null,"first name":"Frances","address":"1881 Sheridan Road","school":"Northwestern University","email":"francesfu2015@u.northwestern.edu","state":"IL"},"type":"Feature","geometry":{"type":"Point","coordinates":[-87.674489,42.050269]}},{"properties":{"city":"North Manchester","zip":"46962","region":"Midwest","last name":"Keim","geo_score":0.818,"website":null,"facebook group":"https://www.facebook.com/groups/214888235190697/","personal email":"PCKeim@spartans.manchester.edu","id":"a68qpmjxgh0j","geo_precision":"range","listserv":null,"first name":"Phil","address":"604 East College Avenue","school":"Manchester University","email":"PCKeim@spartans.manchester.edu","state":"IN"},"type":"Feature","geometry":{"type":"Point","coordinates":[-85.762976,41.010178]}},{"properties":{"city":"Ann Arbor","zip":"48109","region":"Midwest","last name":"Zettell","geo_score":0.459,"website":"http://umdrugpolicy.org/","facebook group":"http://www.facebook.com/group.php?gid=2486849922","personal email":"nzettell@umich.edu","id":"a68qpmlzpmbi","geo_precision":"street","listserv":null,"first name":"Nick","address":"1080 S. University","school":"University of Michigan-Ann Arbor","email":"nzettell@umich.edu","state":"MI"},"type":"Feature","geometry":{"type":"Point","coordinates":[-83.73576,42.273756]}},{"properties":{"city":"Kalamazoo","zip":"49006","region":"Midwest","last name":"Witte","geo_score":0.902,"website":null,"facebook group":"http://www.facebook.com/group.php?gid=2230905527","personal email":"emily.witte10@kzoo.edu","id":"a68qpmhb2xv7","geo_precision":"range","listserv":null,"first name":"Emily","address":"1200 Academy Street","school":"Kalamazoo College","email":"emily.witte10@kzoo.edu","state":"MI"},"type":"Feature","geometry":{"type":"Point","coordinates":[-85.601653,42.290362]}},{"properties":{"city":"Ypsilanti","zip":"48197","region":"Midwest","last name":"Gerou","geo_score":0.619,"website":null,"facebook group":"https://www.facebook.com/groups/284515484907747/","personal email":"mgerou@emich.edu","id":"a68qpmmf9uqv","geo_precision":"street","listserv":null,"first name":"Miles","address":"1000 College Place","school":"Eastern Michigan University","email":"mgerou@emich.edu","state":"MI"},"type":"Feature","geometry":{"type":"Point","coordinates":[-83.622052,42.247246]}},{"properties":{"city":"Mount Pleasant","zip":"48858","region":"Midwest","last name":"Castello","geo_score":0.82,"website":null,"facebook group":"https://www.facebook.com/groups/347270991991810/","personal email":"jerichosimon@gmail.com","id":"a68qpmja3kei","geo_precision":"range","listserv":null,"first name":"Ken","address":"400 Ojibway Ct","school":"Central Michigan University","email":"caste1dk@cmich.edu","state":"MI"},"type":"Feature","geometry":{"type":"Point","coordinates":[-84.775636,43.58471]}},{"properties":{"city":"St. Cloud","zip":"56301","region":"Midwest","last name":"Gysberg","geo_score":0.746,"website":null,"facebook group":"https://www.facebook.com/ssdpscsu","personal email":"gyke0901@stcloudstate.edu","id":"a68qpmlhizgx","geo_precision":"range","listserv":null,"first name":"Kevin","address":"720 4th Avenue South","school":"St. Cloud State University","email":"gyke0901@stcloudstate.edu","state":"MN"},"type":"Feature","geometry":{"type":"Point","coordinates":[-94.152686,45.552528]}},{"properties":{"city":"Linn","zip":"65051","region":"Midwest","last name":"Walker","geo_score":0.319,"website":null,"facebook group":"https://www.facebook.com/groups/133031350125598/","personal email":"Samw311@hotmail.com","id":"a68qpmmknvfn","geo_precision":"street","listserv":null,"first name":"Sam","address":"One Technology Drive","school":"Linn State Technical College","email":"Samw311@hotmail.com","state":"MO"},"type":"Feature","geometry":{"type":"Point","coordinates":[-91.852578,38.48737]}},{"properties":{"city":"Columbia","zip":"65216","region":"Midwest","last name":"Warren","geo_score":0.902,"website":null,"facebook group":"http://www.facebook.com/group.php?gid=156573551024590","personal email":"elwarren1@cougars.ccis.edu","id":"a68qpm8matil","geo_precision":"range","listserv":null,"first name":"Erica","address":"1001 Rogers Street","school":"Columbia College","email":"elwarren1@cougars.ccis.edu","state":"MO"},"type":"Feature","geometry":{"type":"Point","coordinates":[-92.32627,38.95655]}},{"properties":{"city":"Columbia","zip":"65202","region":"Midwest","last name":"Slavens","geo_score":0.902,"website":null,"facebook group":"http://www.facebook.com/group.php?sid=39c4bbc4d8c3f0d9c478fa0d77c66e82&amp;gid=50233645355","personal email":"dms87c@mail.missouri.edu","id":"a68qpmh1tsmv","geo_precision":"range","listserv":null,"first name":"Devon","address":"813 Virginia Ave","school":"University of Missouri, Columbia","email":"dms87c@mail.missouri.edu","state":"MO"},"type":"Feature","geometry":{"type":"Point","coordinates":[-92.323607,38.941855]}},{"properties":{"city":"Kirksville","zip":"63501","region":"Midwest","last name":"Curran-Kennedy","geo_score":0.348,"website":"http://ssdp.truman.edu/","facebook group":null,"personal email":"alc4867@truman.edu","id":"a68qpmhvz5u1","geo_precision":"street","listserv":null,"first name":"Alyssa","address":"100 E. Normal","school":"Truman University","email":"alc4867@truman.edu","state":"MO"},"type":"Feature","geometry":{"type":"Point","coordinates":[-92.58262,40.190045]}},{"properties":{"city":"Joplin","zip":"64801","region":"Midwest","last name":"Maddy","geo_score":0.339,"website":null,"facebook group":"http://www.facebook.com/group.php?gid=4264620901","personal email":"mssussdp@yahoo.com","id":"a68qpmizd742","geo_precision":"street","listserv":null,"first name":"Kyle","address":"3950 E. Newman Road","school":"Missouri Southern State University","email":"mssussdp@yahoo.com","state":"MO"},"type":"Feature","geometry":{"type":"Point","coordinates":[-94.485109,37.098397]}},{"properties":{"city":"Cottleville","zip":"63376","region":"Midwest","last name":"Lauderdale","geo_score":0.835,"website":null,"facebook group":null,"personal email":"dwl9t2@mail.missouri.edu","id":"a68qpmarqs4o","geo_precision":"range","listserv":null,"first name":"Duell","address":"4601 Mid Rivers Mall Drive","school":"Saint Charles Community College","email":"dwl9t2@mail.missouri.edu","state":"MO"},"type":"Feature","geometry":{"type":"Point","coordinates":[-90.634018,38.739928]}},{"properties":{"city":"Hiram","zip":"44234","region":"Midwest","last name":"Palaias","geo_score":0.551,"website":null,"facebook group":"Working to make a website","personal email":"palaiasw@my.hiram.edu","id":"a68qpme4kqa5","geo_precision":"street","listserv":null,"first name":"Steve","address":"PO Box 67","school":"Hiram College","email":"palaiasw@my.hiram.edu","state":"OH"},"type":"Feature","geometry":{"type":"Point","coordinates":[-81.630445,41.010051]}},{"properties":{"city":"Kent","zip":"44242","region":"Midwest","last name":"Awadallah","geo_score":0.902,"website":null,"facebook group":"http://www.facebook.com/group.php?sid=959d0ffd40c3e908f6599fd86ce756f3&amp;gid=40006202632","personal email":"tawadall@kent.edu","id":"a68qpm9b89yh","geo_precision":"range","listserv":"kentstatessdp@googlegroups.com","first name":"Talal","address":"1 Eastway Dr.","school":"Kent State University","email":"tawadall@kent.edu","state":"OH"},"type":"Feature","geometry":{"type":"Point","coordinates":[-81.335714,41.146671]}},{"properties":{"city":"Cincinnati","zip":"45221","region":"Midwest","last name":"Knight","geo_score":0.902,"website":null,"facebook group":"https://www.facebook.com/group.php?gid=70551338318","personal email":"knightji@mail.uc.edu","id":"a68qpm9mg4j2","geo_precision":"range","listserv":null,"first name":"Jessica","address":"2600 Clifton Ave.","school":"University of Cincinnati","email":"UCSSDP@gmail.com","state":"OH"},"type":"Feature","geometry":{"type":"Point","coordinates":[-84.520648,39.12968]}},{"properties":{"city":"Columbus","zip":"43210","region":"Midwest","last name":"Harvey","geo_score":0.584,"website":null,"facebook group":null,"personal email":"erinlaws@aol.com","id":"a68qpmejahng","geo_precision":"street","listserv":null,"first name":"Erin","address":"Enarson Hall 154 W 12th Avenue","school":"Ohio State University","email":"erinlaws@aol.com","state":"OH"},"type":"Feature","geometry":{"type":"Point","coordinates":[-83.007435,39.996826]}},{"properties":{"city":"Akron","zip":"44325","region":"Midwest","last name":"Burrows","geo_score":0.756,"website":null,"facebook group":"http://www.facebook.com/group.php?gid=110495635645570","personal email":"aburrows83@yahoo.com","id":"a68qpmaosx55","geo_precision":"street","listserv":null,"first name":"Anthony","address":"302 Buchtel Mall","school":"University of Akron","email":"aburrows83@yahoo.com","state":"OH"},"type":"Feature","geometry":{"type":"Point","coordinates":[-81.514658,41.076555]}},{"properties":{"city":"Oxford","zip":"45056","region":"Midwest","last name":"Schopin","geo_score":0.833,"website":null,"facebook group":null,"personal email":"vsschopin@yahoo.com","id":"a68qpmayaqpa","geo_precision":"range","listserv":null,"first name":"Vinnie","address":"501 East High Street,","school":"Miami University","email":"vsschopin@yahoo.com","state":"OH"},"type":"Feature","geometry":{"type":"Point","coordinates":[-84.734726,39.510384]}},{"properties":{"city":"Cleveland","zip":"44106","region":"Midwest","last name":"Oliver","geo_score":0.902,"website":null,"facebook group":"https://www.facebook.com/pages/Students-for-Sensible-Drug-Policy-CWRU-Chapter/120623187989390","personal email":"txo38@case.edu","id":"a68qpmdml0op","geo_precision":"range","listserv":null,"first name":"Tiffany","address":"10900 Euclid Ave","school":"Case Western Reserve University","email":"txo38@case.edu","state":"OH"},"type":"Feature","geometry":{"type":"Point","coordinates":[-81.610058,41.505144]}},{"properties":{"city":"Madison","zip":"53955","region":"Midwest","last name":"Greimel","geo_score":0.357,"website":null,"facebook group":"http://www.facebook.com/group.php?gid=26117317954","personal email":"mattgreimel@gmail.com","id":"a68qpml777ck","geo_precision":"street","listserv":null,"first name":"Matt","address":"N2323 Pine Hollow Rd","school":"Madison Area Technical College","email":"mattgreimel@gmail.com","state":"WI"},"type":"Feature","geometry":{"type":"Point","coordinates":[-89.390932,43.39358]}},{"properties":{"city":"Madison","zip":"53706","region":"Midwest","last name":"Mason","geo_score":0.902,"website":null,"facebook group":"http://www.facebook.com/group.php?gid=2234943145","personal email":"nlmason@wisc.edu","id":"a68qpmmdh198","geo_precision":"range","listserv":null,"first name":"Natasha","address":"716 Langdon St","school":"University of Wisconsin Madison","email":"ssdpmadison@gmail.com","state":"WI"},"type":"Feature","geometry":{"type":"Point","coordinates":[-89.397519,43.07581]}},{"properties":{"city":"La Crosse","zip":"54601","region":"Midwest","last name":"Allen","geo_score":0.831,"website":null,"facebook group":"http://www.facebook.com/home.php#/group.php?gid=36305427607","personal email":"allen.kyl2@students.uwlax.edu","id":"a68qpmapbnki","geo_precision":"range","listserv":null,"first name":"Kylar","address":"1725 State St.","school":"University of Wisconsin- La Crosse","email":"allen.kyl2@students.uwlax.edu","state":"WI"},"type":"Feature","geometry":{"type":"Point","coordinates":[-91.230811,43.812799]}},{"properties":{"city":"Eau Clair","zip":"54702","region":"Midwest","last name":"Shibline","geo_score":0.902,"website":null,"facebook group":"https://www.facebook.com/group.php?gid=54394445800","personal email":"schibla@uwec.edu","id":"a68qpmanf6pi","geo_precision":"range","listserv":null,"first name":"Amanda","address":"105 Garfield Ave.","school":"University of Wisconsin, Eau Clair","email":"schibla@uwec.edu","state":"WI"},"type":"Feature","geometry":{"type":"Point","coordinates":[-91.502804,44.799006]}},{"properties":{"city":"Appleton","zip":"54911","region":"Midwest","last name":"Johnson","geo_score":0.73,"website":null,"facebook group":null,"personal email":"etjohnson1990@gmail.com","id":"a68qpmczu99b","geo_precision":"zip","listserv":null,"first name":"Evan","address":"711 E. Boldt Way","school":"Lawrence University","email":"etjohnson1990@gmail.com","state":"WI"},"type":"Feature","geometry":{"type":"Point","coordinates":[-88.415105,44.343598]}},{"properties":{"city":"Storrs","zip":"6269","region":"Northeast","last name":"Gallie","geo_score":0.432,"website":null,"facebook group":"http://www.facebook.com/group.php?gid=2230801761","personal email":"michael.gallie@uconn.edu","id":"a68qpmmf5pl9","geo_precision":"city","listserv":"http://groups.google.com/group/uconn-ssdp","first name":"Michael","address":"208 Sprauge","school":"University of Connecticut","email":"uconnssdp@gmail.com","state":"CT"},"type":"Feature","geometry":{"type":"Point","coordinates":[-95.085802,37.340336]}},{"properties":{"city":"Middletown","zip":"6459","region":"Northeast","last name":"Blasenheim","geo_score":0.902,"website":null,"facebook group":"http://www.facebook.com/group.php?gid=256817411917","personal email":"pblasenheim@gmail.com","id":"a68qpme39lwz","geo_precision":"range","listserv":null,"first name":"Paul","address":"70 Wyllys Avenue","school":"Wesleyan University","email":"pblasenheim@gmail.com","state":"CT"},"type":"Feature","geometry":{"type":"Point","coordinates":[-72.656019,41.55747]}},{"properties":{"city":"New Haven","zip":"6515","region":"Northeast","last name":"Gomez","geo_score":0.699,"website":null,"facebook group":"http://www.facebook.com/pages/Southern-SSDP/100113506728882","personal email":"lala.gomez12@gmail.com","id":"a68qpmdxx1ux","geo_precision":"range","listserv":null,"first name":"Laura","address":"501 Crescent Street","school":"Southern Connecticut State University","email":"SouthernSSDP@gmail.com","state":"CT"},"type":"Feature","geometry":{"type":"Point","coordinates":[-72.942731,41.329214]}},{"properties":{"city":"Boston","zip":"2115","region":"Northeast","last name":"Cassidy","geo_score":0.902,"website":null,"facebook group":"http://www.facebook.com/group.php?gid=24464308087&amp;ref=ts","personal email":"cassidy.ryan.t@gmail.com","id":"a68qpmhlx38w","geo_precision":"range","listserv":"http://groups.google.com/group/nussdp","first name":"Ryan","address":"360 Huntington Ave","school":"Northeastern University","email":"northeasternssdp@gmail.com","state":"Mid-Atlantic"},"type":"Feature","geometry":{"type":"Point","coordinates":[-71.089692,42.339929]}},{"properties":{"city":"Boston","zip":"2115","region":"Northeast","last name":"Roberts","geo_score":0.902,"website":null,"facebook group":"https://www.facebook.com/groups/326330260746893/","personal email":"roberts.jules@gmail.com","id":"a68qpmghl203","geo_precision":"range","listserv":null,"first name":"Julie","address":"360 Huntington Ave","school":"Northeastern University Law School","email":"roberts.jules@gmail.com","state":"Mid-Atlantic"},"type":"Feature","geometry":{"type":"Point","coordinates":[-71.089692,42.339929]}},{"properties":{"city":"Boston","zip":"2215","region":"Northeast","last name":"Mackey","geo_score":0.585,"website":null,"facebook group":"http://www.facebook.com/group.php?gid=6062032510","personal email":"kmackey@bu.edu","id":"a68qpmh0nk8f","geo_precision":"zip","listserv":"bussdp-list@bu.edu","first name":"KC","address":"1 Silber Way","school":"Boston University","email":"kmackey@bu.edu","state":"Mid-Atlantic"},"type":"Feature","geometry":{"type":"Point","coordinates":[-71.107653,42.345079]}},{"properties":{"city":"Boston","zip":"2111","region":"Northeast","last name":"Traitz","geo_score":0.71,"website":null,"facebook group":"http://www.facebook.com/home.php?sk=group_103384969738138","personal email":"lauren.traitz@tufts.edu","id":"a68qpmbj83zy","geo_precision":"street","listserv":null,"first name":"Lauren","address":"274 Tremont Street","school":"Tufts University","email":"lauren.traitz@tufts.edu","state":"Mid-Atlantic"},"type":"Feature","geometry":{"type":"Point","coordinates":[-71.064562,42.352382]}},{"properties":{"city":"North Adams","zip":"1247","region":"Northeast","last name":"McGrath","geo_score":0.717,"website":null,"facebook group":"http://www.facebook.com/group.php?gid=159368824075255","personal email":"ssdpmcla@gmail.com","id":"a68qpmjxt83e","geo_precision":"street","listserv":null,"first name":"Brian","address":"375 Church Street","school":"Massachusetts College of Liberal Arts","email":"ssdpmcla@gmail.com","state":"Mid-Atlantic"},"type":"Feature","geometry":{"type":"Point","coordinates":[-73.102945,42.69196]}},{"properties":{"city":"Boston","zip":"2115","region":"Northeast","last name":"Chaney","geo_score":0.902,"website":null,"facebook group":null,"personal email":"Sigmundfloyd@gmail.com","id":"a68qpmcbyb7r","geo_precision":"range","listserv":null,"first name":"Patrick","address":"621 Huntington Ave","school":"Massachusetts College of Art","email":"Sigmundfloyd@gmail.com","state":"Mid-Atlantic"},"type":"Feature","geometry":{"type":"Point","coordinates":[-71.100306,42.335941]}},{"properties":{"city":"Williamstown","zip":"1267","region":"Northeast","last name":"Kruger","geo_score":0.829,"website":"https://calendar.williams.edu/group/students_for_sensible_drug_policy","facebook group":"http://www.facebook.com/group.php?gid=159316148990","personal email":"dmk1@williams.edu","id":"a68qpmeso2u2","geo_precision":"range","listserv":null,"first name":"David","address":"880 Main St","school":"Williams College","email":"dmk1@williams.edu","state":"Mid-Atlantic"},"type":"Feature","geometry":{"type":"Point","coordinates":[-73.201312,42.711688]}},{"properties":{"city":"Boston","zip":"02116-4624","region":"Northeast","last name":"Grange","geo_score":0.902,"website":null,"facebook group":"http://www.facebook.com/group.php?gid=174036131180","personal email":"aag630@gmail.com","id":"a68qpma8nza1","geo_precision":"range","listserv":null,"first name":"Ali","address":"120 Boylston Street","school":"Emerson College","email":"EmersonCollegeSSDP@gmail.com","state":"Mid-Atlantic"},"type":"Feature","geometry":{"type":"Point","coordinates":[-71.065426,42.352438]}},{"properties":{"city":"Farmington","zip":"4938","region":"Northeast","last name":"Anderson","geo_score":0.621,"website":null,"facebook group":"http://www.facebook.com/group.php?gid=12109756396&amp;ref=ts","personal email":"peter.anderson@maine.edu","id":"a68qpmi5xlde","geo_precision":"street","listserv":"http://groups.google.com/group/ssdp-umf","first name":"Pete","address":"246 Main Street","school":"University of Maine at Farmington","email":"ssdpumf@gmail.com","state":"ME"},"type":"Feature","geometry":{"type":"Point","coordinates":[-70.148817,44.667747]}},{"properties":{"city":"Keene","zip":"3431","region":"Northeast","last name":"Rabadeau","geo_score":0.805,"website":null,"facebook group":"https://www.facebook.com/KSCstudentsforsensibledrugpolicy?ref=ts","personal email":"brabadeau@ksc.mailcruiser.com","id":"a68qpm8xbnje","geo_precision":"range","listserv":null,"first name":"Brian","address":"229 Main Street","school":"Keene State College","email":"brabadeau@ksc.mailcruiser.com","state":"NH"},"type":"Feature","geometry":{"type":"Point","coordinates":[-72.277528,42.927974]}},{"properties":{"city":"Durham","zip":"3824","region":"Northeast","last name":"West","geo_score":0.614,"website":null,"facebook group":"http://www.facebook.com/group.php?gid=58781902494","personal email":"eqy3@wildcats.unh.edu","id":"a68qpmhz7nk3","geo_precision":"street","listserv":null,"first name":"Evan","address":"105 Main St.","school":"University of New Hampshire","email":"eqy3@wildcats.unh.edu","state":"NH"},"type":"Feature","geometry":{"type":"Point","coordinates":[-70.934327,43.13802]}},{"properties":{"city":"Rindge","zip":"3461","region":"Northeast","last name":"Campo","geo_score":0.546,"website":null,"facebook group":"http://www.facebook.com/group.php?gid=2202637219","personal email":"CampoM@live.franklinpierce.edu","id":"a68qpmbafrvq","geo_precision":"zip","listserv":null,"first name":"Matt","address":"40 University Drive","school":"Franklin Pierce University","email":"CampoM@live.franklinpierce.edu","state":"NH"},"type":"Feature","geometry":{"type":"Point","coordinates":[-72.031469,42.763418]}},{"properties":{"city":"Camden","zip":"8102","region":"Northeast","last name":"Magjuka-Egan","geo_score":0.902,"website":null,"facebook group":null,"personal email":"gamer14@gmail.com","id":"a68qpmcmg5fb","geo_precision":"range","listserv":null,"first name":"Thomas","address":"303 Cooper Street","school":"Rutgers University, Camden","email":"tmagjuka@camden.rutgers.edu","state":"NJ"},"type":"Feature","geometry":{"type":"Point","coordinates":[-75.123627,39.947416]}},{"properties":{"city":"Highland Park","zip":"8904","region":"Northeast","last name":"Lee","geo_score":0.819,"website":null,"facebook group":"https://www.facebook.com/groups/HPHS.SSDP/","personal email":"Oscaracso123@gmail.com","id":"a68qpmksuk0d","geo_precision":"range","listserv":null,"first name":"Oscar","address":"102 North Fifth Avenue","school":"Highland Park High School","email":"Oscaracso123@gmail.com","state":"NJ"},"type":"Feature","geometry":{"type":"Point","coordinates":[-74.424534,40.501793]}},{"properties":{"city":"Glassboro","zip":"8028","region":"Northeast","last name":"Powell","geo_score":0.644,"website":null,"facebook group":"http://www.facebook.com/RowanSSDP","personal email":"powell83@students.rowan.edu","id":"a68qpmftckg5","geo_precision":"street","listserv":null,"first name":"Samantha","address":"201 Mullica Hill Road","school":"Rowan University","email":"RowanSSDP@gmail.com","state":"NJ"},"type":"Feature","geometry":{"type":"Point","coordinates":[-75.124738,39.710321]}},{"properties":{"city":"New Brunswick","zip":"8901","region":"Northeast","last name":"Germer","geo_score":0.821,"website":null,"facebook group":"http://www.facebook.com/group.php?gid=2447360237&amp;v=info","personal email":"cgermer@eden.rutgers.edu","id":"a68qpmhu2a90","geo_precision":"range","listserv":"http://groups.google.com/group/RU_SSDP?hl=en","first name":"Chelsea","address":"116 College Avenue","school":"Rutgers University, New Brunswick","email":"cgermer@eden.rutgers.edu","state":"NJ"},"type":"Feature","geometry":{"type":"Point","coordinates":[-74.450788,40.502238]}},{"properties":{"city":"Hamilton","zip":"13346","region":"Northeast","last name":"Livingston","geo_score":0.785,"website":null,"facebook group":"http://www.facebook.com/group.php?gid=212875080646&amp;ref=mf","personal email":"aslivingston@gmail.com","id":"a68qpmbsur18","geo_precision":"range","listserv":null,"first name":"Andrew","address":"13 Oak Drive.","school":"Colgate University","email":"colgatessdp@gmail.com","state":"NY"},"type":"Feature","geometry":{"type":"Point","coordinates":[-74.774125,43.104349]}},{"properties":{"city":"New York","zip":"10027","region":"Northeast","last name":"Harper","geo_score":0.902,"website":null,"facebook group":"http://www.facebook.com/columbiassdp","personal email":"bhh2110@columbia.edu","id":"a68qpmk9bgyw","geo_precision":"range","listserv":null,"first name":"Blaine","address":"2960 Broadway","school":"Columbia University","email":"columbiassdp@gmail.com","state":"NY"},"type":"Feature","geometry":{"type":"Point","coordinates":[-73.963371,40.808968]}},{"properties":{"city":"New York","zip":"11211","region":"Northeast","last name":"Medrano","geo_score":0.409,"website":null,"facebook group":null,"personal email":"SSDPJJAY@gmail.com","id":"a68qpmcdu64t","geo_precision":"street","listserv":null,"first name":"Jeni","address":"899 10th Avenue","school":"CUNY John Jay","email":"SSDPJJAY@gmail.com","state":"NY"},"type":"Feature","geometry":{"type":"Point","coordinates":[-73.952134,40.717157]}},{"properties":{"city":"New York","zip":"10012","region":"Northeast","last name":"Foster","geo_score":0.902,"website":null,"facebook group":"http://www.facebook.com/group.php?gid=113511575327255&amp;ref=ts","personal email":"akf255@nyu.edu","id":"a68qpmbzqj9v","geo_precision":"range","listserv":null,"first name":"Alec","address":"60 Washington Square South","school":"New York University","email":"nyu.ssdp@gmail.com","state":"NY"},"type":"Feature","geometry":{"type":"Point","coordinates":[-73.997892,40.730172]}},{"properties":{"city":"Ithaca","zip":"14850","region":"Northeast","last name":"Nison","geo_score":0.821,"website":null,"facebook group":"http://www.facebook.com/group.php?gid=20999148960","personal email":"Evan Nison ","id":"a68qpmlhpit8","geo_precision":"range","listserv":null,"first name":"Evan","address":"953 Danby Road","school":"Ithaca College","email":"enison1@ithaca.edu","state":"NY"},"type":"Feature","geometry":{"type":"Point","coordinates":[-76.501153,42.421305]}},{"properties":{"city":"Queensbury","zip":"12804","region":"Northeast","last name":"Debuque","geo_score":0.78,"website":null,"facebook group":"Adam is working on it.","personal email":"adam.debuque@yahoo.com","id":"a68qpmddnsqa","geo_precision":"range","listserv":null,"first name":"Adam","address":"640 Bay Road","school":"Suny Adairondack","email":"adam.debuque@yahoo.com","state":"NY"},"type":"Feature","geometry":{"type":"Point","coordinates":[-73.657784,43.359016]}},{"properties":{"city":"Albany","zip":"12222","region":"Northeast","last name":"Heitzmann","geo_score":0.805,"website":null,"facebook group":"http://www.facebook.com/group.php?gid=108466012507600","personal email":"gh846768@albany.edu","id":"a68qpmgvta9c","geo_precision":"street","listserv":null,"first name":"George","address":"1400 Washington Ave.","school":"SUNY - Albany","email":"gh846768@albany.edu","state":"NY"},"type":"Feature","geometry":{"type":"Point","coordinates":[-73.824598,42.691412]}},{"properties":{"city":"New Paltz","zip":"12561","region":"Northeast","last name":"Pottak","geo_score":0.585,"website":null,"facebook group":"http://www.facebook.com/group.php?gid=2208610405","personal email":"marcinssdp@gmail.com","id":"a68qpmj562zd","geo_precision":"street","listserv":null,"first name":"Marc","address":"1 Hawk Drive","school":"SUNY, New Paltz","email":"newpaltzssdp@gmail.com","state":"NY"},"type":"Feature","geometry":{"type":"Point","coordinates":[-73.915133,41.966856]}},{"properties":{"city":"Oswego","zip":"13126","region":"Northeast","last name":"Perlin","geo_score":0.581,"website":null,"facebook group":"https://www.facebook.com/pages/Students-for-Sensible-Drug-Policy-SUNY-Oswego-Chapter/106233676110404","personal email":"perlin@oswego.edu","id":"a68qpmmey0k0","geo_precision":"street","listserv":null,"first name":"Daniel","address":"7060 State Route 104","school":"SUNY, Oswego","email":"perlin@oswego.edu","state":"NY"},"type":"Feature","geometry":{"type":"Point","coordinates":[-76.539268,43.447871]}},{"properties":{"city":"Vestal","zip":"13850","region":"Northeast","last name":"Kalin","geo_score":0.805,"website":null,"facebook group":null,"personal email":"jkalin1@binghamton.edu","id":"a68qpmi05wzu","geo_precision":"range","listserv":null,"first name":"Justin","address":"4400 Vestal Parkway East","school":"SUNY, Binghamton University","email":"jkalin1@binghamton.edu","state":"NY"},"type":"Feature","geometry":{"type":"Point","coordinates":[-75.964781,42.0953]}},{"properties":{"city":"West Chester","zip":"19383","region":"Northeast","last name":"Shoudy","geo_score":0.902,"website":null,"facebook group":"http://www.facebook.com/group.php?gid=175761788169","personal email":"JS740701@wcupa.edu","id":"a68qpmluxe26","geo_precision":"range","listserv":null,"first name":"Jack","address":"700 South High Street","school":"West Chester University","email":"wcussdp@gmail.com","state":"PA"},"type":"Feature","geometry":{"type":"Point","coordinates":[-75.59747,39.953238]}},{"properties":{"city":"University Park","zip":"16802","region":"Northeast","last name":"Cooper","geo_score":0.585,"website":null,"facebook group":"https://www.facebook.com/groups/psussdp/","personal email":"aec5186@gmail.com","id":"a68qpminng0t","geo_precision":"zip","listserv":null,"first name":"Anne","address":"1  University Park","school":"Pennsylvania State University","email":"aec5186@gmail.com","state":"PA"},"type":"Feature","geometry":{"type":"Point","coordinates":[-77.862339,40.799672]}},{"properties":{"city":"Reading","zip":"19610","region":"Northeast","last name":"Grinberg","geo_score":0.362,"website":null,"facebook group":null,"personal email":"kag5563@psu.edu","id":"a68qpmgp1ahb","geo_precision":"street","listserv":null,"first name":"Kimberly","address":"Tulpehocken Road, P.O. Box 7009","school":"Pennsylvania State University-Berks","email":"kag5563@psu.edu","state":"PA"},"type":"Feature","geometry":{"type":"Point","coordinates":[-75.961433,40.354562]}},{"properties":{"city":"Pittsburgh","zip":"15213","region":"Northeast","last name":"Robertson","geo_score":0.707,"website":null,"facebook group":"http://www.facebook.com/home.php?sk=group_147806941931992","personal email":"mar137@pitt.edu","id":"a68qpml17xcf","geo_precision":"range","listserv":null,"first name":"Megg","address":"4200 Fifth Ave","school":"University of Pittsburgh","email":"mar137@pitt.edu","state":"PA"},"type":"Feature","geometry":{"type":"Point","coordinates":[-79.954776,40.444418]}},{"properties":{"city":"Carlisle","zip":"17013","region":"Northeast","last name":"Mullane","geo_score":0.304,"website":null,"facebook group":null,"personal email":"mullanmo@dickinson.edu","id":"a68qpmasdaa3","geo_precision":"street","listserv":null,"first name":"Molly","address":"P.O. Box 1773","school":"Dickinson College","email":"mullanmo@dickinson.edu","state":"PA"},"type":"Feature","geometry":{"type":"Point","coordinates":[-77.168956,40.194469]}},{"properties":{"city":"Kingston","zip":"2881","region":"Northeast","last name":"Casey","geo_score":0.902,"website":"http://urissdp.tumblr.com/","facebook group":"https://www.facebook.com/groups/205073126184995/","personal email":"ekc2522@gmail.com","id":"a68qpmfw4koo","geo_precision":"range","listserv":null,"first name":"Eric","address":"8 Ranger Road","school":"University of Rhode Island","email":"urissdpnorml@gmail.com","state":"RI"},"type":"Feature","geometry":{"type":"Point","coordinates":[-71.806831,41.400617]}},{"properties":{"city":"Providence","zip":"2912","region":"Northeast","last name":"Jones","geo_score":0.902,"website":null,"facebook group":"http://www.facebook.com/group.php?gid=2200011962","personal email":"Jarred_Jones@brown.edu","id":"a68qpmctfd0r","geo_precision":"range","listserv":"https://groups.google.com/group/ssdp-brown","first name":"Jared","address":"45 Prospect Street","school":"Brown University","email":"Jarred_Jones@brown.edu","state":"RI"},"type":"Feature","geometry":{"type":"Point","coordinates":[-71.404768,41.827404]}},{"properties":{"city":"Boca Raton","zip":"33431","region":"Southern","last name":"Loayza","geo_score":0.902,"website":null,"facebook group":"http://www.facebook.com/FAUSSDP","personal email":"dloayza@fau.edu","id":"a68qpmm5jsb6","geo_precision":"range","listserv":null,"first name":"Arturo","address":"777 Glades Road","school":"Florida Atlantic University","email":"ssdpfau@gmail.com","state":"FL"},"type":"Feature","geometry":{"type":"Point","coordinates":[-80.102379,26.365289]}},{"properties":{"city":"Tallahassee","zip":"32306","region":"Southern","last name":"Bowes","geo_score":0.468,"website":null,"facebook group":"https://www.facebook.com/groups/ssdpfsu/","personal email":"jon.e.bowes@gmail.com","id":"a68qpm7xoney","geo_precision":"street","listserv":"http://groups.google.com/group/ssdpfsu","first name":"Jon","address":"600 W. College Avenue","school":"Florida State University","email":"ssdpfsu@gmail.com","state":"FL"},"type":"Feature","geometry":{"type":"Point","coordinates":[-84.285685,30.440728]}},{"properties":{"city":"Miami","zip":"33136","region":"Southern","last name":"Kilzi","geo_score":0.837,"website":null,"facebook group":"https://www.facebook.com/groups/121185507900253/","personal email":"AlfredKilzi@gmail.com","id":"a68qpmlwj7sc","geo_precision":"range","listserv":null,"first name":"Alfred","address":"1601 Northwest 12th Avenue","school":"University of Miami","email":"ssdpumiami@gmail.com","state":"FL"},"type":"Feature","geometry":{"type":"Point","coordinates":[-80.215041,25.790459]}},{"properties":{"city":"Daytona Beach","zip":"32114","region":"Southern","last name":"Moo","geo_score":0.902,"website":null,"facebook group":"https://www.facebook.com/pages/Daytona-State-SSDP/180087505351293","personal email":"pjm87@cfl.rr.com","id":"a68qpmafeagd","geo_precision":"range","listserv":null,"first name":"Patrick","address":"1200 West International Speedway Boulevard","school":"Daytona State College","email":"pjm87@cfl.rr.com","state":"FL"},"type":"Feature","geometry":{"type":"Point","coordinates":[-81.049021,29.199634]}},{"properties":{"city":"Miami","zip":"33174","region":"Southern","last name":"Gonzalez","geo_score":0.561,"website":null,"facebook group":"http://www.facebook.com/groups/199307126796922/","personal email":"lgonz100@fiu.edu","id":"a68qpmcydn29","geo_precision":"street","listserv":null,"first name":"Laura","address":"11200 SW 8th St","school":"Florida International University","email":"fiussdp@gmail.com","state":"FL"},"type":"Feature","geometry":{"type":"Point","coordinates":[-80.363925,25.760786]}},{"properties":{"city":"St. Petersburg","zip":"33711","region":"Southern","last name":"Edelstein","geo_score":0.81,"website":null,"facebook group":"https://www.facebook.com/groups/ssdpeckerd/","personal email":"eeedelst@eckerd.edu","id":"a68qpmjawckm","geo_precision":"range","listserv":null,"first name":"Elisa","address":"4200 54th Avenue South","school":"Eckerd College","email":"eeedelst@eckerd.edu","state":"FL"},"type":"Feature","geometry":{"type":"Point","coordinates":[-82.688579,27.719063]}},{"properties":{"city":"Tampa","zip":"33620","region":"Southern","last name":"Eisenberg","geo_score":0.902,"website":null,"facebook group":"http://www.facebook.com/groups/336279873078546/","personal email":"eceisenb@mail.usf.edu","id":"a68qpmjcbra3","geo_precision":"range","listserv":null,"first name":"Evan","address":"4202 E Fowler Ave","school":"University of South Florida","email":"SSDPUSF1@gmail.com","state":"FL"},"type":"Feature","geometry":{"type":"Point","coordinates":[-82.413973,28.054459]}},{"properties":{"city":"Pensacola","zip":"32514","region":"Southern","last name":"Watters","geo_score":0.816,"website":"http://ssdpofuwf.tumblr.com/","facebook group":"https://www.facebook.com/groups/337909069562879/","personal email":"ethan.t.watters@gmail.com","id":"a68qpmi8gtco","geo_precision":"range","listserv":null,"first name":"Ethan","address":"11000 University Parkway","school":"University of West Florida","email":"ssdpuwf@gmail.com","state":"FL"},"type":"Feature","geometry":{"type":"Point","coordinates":[-87.21818,30.543058]}},{"properties":{"city":"Fayetteville","zip":"72701","region":"Southern","last name":"Duke","geo_score":0.754,"website":null,"facebook group":"http://www.facebook.com/groups/2201530668/","personal email":"dukeuark@gmail.com","id":"a68qpmhips1k","geo_precision":"range","listserv":null,"first name":"Stephen","address":"747 W Dickson","school":"University of Arkansas","email":"ssdpuark@gmail.com","state":"AR"},"type":"Feature","geometry":{"type":"Point","coordinates":[-94.169695,36.066547]}},{"properties":{"city":"Bentonville","zip":"72712","region":"Southern","last name":"Malonson","geo_score":0.554,"website":null,"facebook group":"https://www.facebook.com/groups/121771014544370/","personal email":"malonson.ja@gmail.com","id":"a68qpme9olfm","geo_precision":"street","listserv":null,"first name":"Jason","address":"1 College Drive","school":"Northwestern Arkansas Community College","email":"ssdpnwacc@gmail.com","state":"AR"},"type":"Feature","geometry":{"type":"Point","coordinates":[-94.165751,36.366582]}},{"properties":{"city":"Gadsden","zip":"35901","region":"Southern","last name":"Larkin","geo_score":0.722,"website":null,"facebook group":"http://www.facebook.com/groups/bamassdp","personal email":"MJCLarkin7@gmail.com","id":"a68qpmmw31u3","geo_precision":"range","listserv":null,"first name":"Matt","address":"121 North 1st Street","school":"University of Alabama - Tuscaloosa","email":"bamassdp@gmail.com","state":"AL"},"type":"Feature","geometry":{"type":"Point","coordinates":[-85.999641,34.011475]}},{"properties":{"city":"Conway","zip":"72032","region":"Southern","last name":"Yingling","geo_score":0.805,"website":null,"facebook group":null,"personal email":"yinglingek@hendrix.edu","id":"a68qpmn6m9ug","geo_precision":"range","listserv":null,"first name":"Emma","address":"1600 Washington Avenue","school":"Hendrix College","email":null,"state":"AR"},"type":"Feature","geometry":{"type":"Point","coordinates":[-92.444312,35.100902]}},{"properties":{"city":"Houston","zip":"77005","region":"Southern","last name":"Chung","geo_score":0.82,"website":null,"facebook group":null,"personal email":"atc2@rice.edu","id":"a68qpmbrvd5b","geo_precision":"range","listserv":"SSDPmembers@mailman.rice.edu","first name":"Anthony","address":"6100 Main St.","school":"Rice University","email":"ricessdp@gmail.com","state":"TX"},"type":"Feature","geometry":{"type":"Point","coordinates":[-95.393655,29.720637]}},{"properties":{"city":"Austin","zip":"78712","region":"Southern","last name":"Nelson","geo_score":0.604,"website":null,"facebook group":null,"personal email":"ash.nelson@utexas.edu","id":"a68qpmmej9ly","geo_precision":"street","listserv":null,"first name":"Ashley","address":"1 University Station","school":"University of Texas - Austin","email":null,"state":"TX"},"type":"Feature","geometry":{"type":"Point","coordinates":[-97.73934,30.286659]}},{"properties":{"city":"Denton","zip":"76201","region":"Southern","last name":"Ball","geo_score":0.598,"website":null,"facebook group":null,"personal email":"aball91@gmail.com","id":"a68qpmhfj07m","geo_precision":"street","listserv":null,"first name":"Andrew","address":"1155 Union Circle","school":"University of North Texas","email":"aball91@gmail.com","state":"TX"},"type":"Feature","geometry":{"type":"Point","coordinates":[-96.98876,33.311679]}},{"properties":{"city":"San Marcos","zip":"78666","region":"Southern","last name":"Webb","geo_score":0.816,"website":null,"facebook group":"http://www.facebook.com/groups/ssdpunt/","personal email":"cw1435@txstate.edu","id":"a68qpm7xgcrw","geo_precision":"range","listserv":null,"first name":"Christina","address":"601 University Dr","school":"Texas State University - San Marcos","email":"SSDPtxstate@gmail.com","state":"TX"},"type":"Feature","geometry":{"type":"Point","coordinates":[-97.937896,29.885821]}},{"properties":{"city":"Houston","zip":"77004","region":"Southern","last name":"McHugh","geo_score":0.902,"website":null,"facebook group":"http://www.facebook.com/ssdptxstate","personal email":"michaelmchugh23@yahoo.com","id":"a68qpm7d5lny","geo_precision":"range","listserv":null,"first name":"Michael","address":"4800 Calhoun Rd.","school":"University of Houston","email":"sensible.uh@gmail.com","state":"TX"},"type":"Feature","geometry":{"type":"Point","coordinates":[-95.338015,29.721449]}},{"properties":{"city":"Santa Cruz","zip":"95064","region":"West Coast","last name":"Dudley","geo_score":0.902,"website":null,"facebook group":"http://www.facebook.com/groups/295815567100944/","personal email":"clara.dudley@gmail.com","id":"a68qpmg50xyc","geo_precision":"range","listserv":null,"first name":"Clara","address":"1156 HIGH STREET","school":"University of California-Santa Cruz","email":"ssdpsantacruz@gmail.com","state":"CA"},"type":"Feature","geometry":{"type":"Point","coordinates":[-122.055888,36.977484]}},{"properties":{"city":"Merced","zip":"95343","region":"West Coast","last name":"Lau","geo_score":0.902,"website":null,"facebook group":"http://www.facebook.com/group.php?gid=269313602314&amp;ref=ts","personal email":"nlau6@ucmerced.edu","id":"a68qpmj4plrg","geo_precision":"range","listserv":"https://www.facebook.com/UCSantaCruzSSDP","first name":"Nick","address":"5200 Lake Road","school":"University of California - Merced","email":"nlau6@ucmerced.edu","state":"CA"},"type":"Feature","geometry":{"type":"Point","coordinates":[-120.432164,37.365225]}},{"properties":{"city":"San Diego","zip":"92110","region":"West Coast","last name":"Fullmer","geo_score":0.714,"website":null,"facebook group":"https://www.facebook.com/pages/USD-Law-SSDP/189016107872831?ref=ts","personal email":"lisafullmer@sandiego.edu","id":"a68qpm84kpxn","geo_precision":"street","listserv":null,"first name":"Lisa","address":"5998 Alcal Park","school":"University of San Diego School of Law","email":"lisafullmer@sandiego.edu","state":"CA"},"type":"Feature","geometry":{"type":"Point","coordinates":[-117.179858,32.685895]}},{"properties":{"city":"Davis","zip":"95616","region":"West Coast","last name":"Chamberlain","geo_score":0.709,"website":null,"facebook group":"http://www.facebook.com/home.php?sk=group_101873496548584","personal email":"inchamberlain@ucdavis.edu","id":"a68qpmbnr4hb","geo_precision":"street","listserv":null,"first name":"Isabel","address":"1 Shields Avenue","school":"University of California Davis","email":"inchamberlain@ucdavis.edu","state":"CA"},"type":"Feature","geometry":{"type":"Point","coordinates":[-121.063314,38.89776]}},{"properties":{"city":"Los Angeles","zip":"90029","region":"West Coast","last name":"Vasquez","geo_score":0.902,"website":null,"facebook group":"https://www.facebook.com/groups/262999003716907/","personal email":"vazquezrodrigo22@gmail.com","id":"a68qpmkgoew5","geo_precision":"range","listserv":null,"first name":"Rodrigo","address":"855 N Vermont Ave","school":"Los Angeles City College","email":"vazquezrodrigo22@gmail.com","state":"CA"},"type":"Feature","geometry":{"type":"Point","coordinates":[-118.291721,34.086756]}},{"properties":{"city":"Oroville","zip":"95965","region":"West Coast","last name":"Gorman","geo_score":0.472,"website":null,"facebook group":"Kevin isn't on FB. Special Case","personal email":"Kgorman_99@yahoo.com:","id":"a68qpmdhuylw","geo_precision":"street","listserv":null,"first name":"Kevin","address":"3536 Butte Campus Drive","school":"Butte Community College","email":"BCCSSDP@Yahoo.com","state":"CA"},"type":"Feature","geometry":{"type":"Point","coordinates":[-121.592475,39.51755]}},{"properties":{"city":"Chico","zip":"95929","region":"West Coast","last name":"Gervais","geo_score":0.612,"website":null,"facebook group":"http://www.facebook.com/group.php?gid=134611863662&amp;ref=ts","personal email":"joeygervais@gmail.com","id":"a68qpmj27js0","geo_precision":"street","listserv":null,"first name":"Joey","address":"400 West First Street","school":"Chico State University","email":"joeygervais@gmail.com","state":"CA"},"type":"Feature","geometry":{"type":"Point","coordinates":[-121.843034,39.72982]}},{"properties":{"city":"San Francisco","zip":"94102","region":"West Coast","last name":"Stout","geo_score":0.902,"website":null,"facebook group":"https://www.facebook.com/group.php?gid=109564142438261","personal email":"jessestout@gmail.com","id":"a68qpmm8xltg","geo_precision":"range","listserv":null,"first name":"Jesse","address":"200 McAllister St.","school":"University of California Hastings","email":"jessestout@gmail.com","state":"CA"},"type":"Feature","geometry":{"type":"Point","coordinates":[-122.415316,37.780719]}},{"properties":{"city":"San Francisco","zip":"94105","region":"West Coast","last name":"Ford","geo_score":0.902,"website":null,"facebook group":"http://www.ggu.edu/school_of_law/law_student_services/student_organizations","personal email":"krashee@gmail.com","id":"a68qpmgy5ld6","geo_precision":"range","listserv":null,"first name":"Brian","address":"536 Mission St","school":"Golden Gate University","email":"krashee@gmail.com","state":"CA"},"type":"Feature","geometry":{"type":"Point","coordinates":[-122.398346,37.789146]}},{"properties":{"city":"Berkeley","zip":"94704","region":"West Coast","last name":"Jeong","geo_score":0.902,"website":null,"facebook group":"http://www.facebook.com/group.php?gid=28311885848&amp;ref=ts","personal email":"johnjeong@sbcglobal.net","id":"a68qpmjpxnlr","geo_precision":"range","listserv":null,"first name":"John","address":"2198 University Avenue","school":"University of California, Berkeley","email":"jjeong92@berkeley.edu","state":"CA"},"type":"Feature","geometry":{"type":"Point","coordinates":[-122.266159,37.872389]}},{"properties":{"city":"Los Angeles","zip":"90089","region":"West Coast","last name":"Hwang","geo_score":0.634,"website":null,"facebook group":"https://www.facebook.com/pages/USC-Students-for-Sensible-Drug-Policy/305912509452451","personal email":"stevenh.usc@gmail.com","id":"a68qpmic38zi","geo_precision":"street","listserv":null,"first name":"Steven","address":"USC University Park Campus","school":"University of Southern California","email":"stevenh.usc@gmail.com","state":"CA"},"type":"Feature","geometry":{"type":"Point","coordinates":[-118.280388,34.028749]}},{"properties":{"city":"Portland","zip":"97202","region":"West Coast","last name":"Cole-Jansen","geo_score":0.902,"website":null,"facebook group":"http://www.facebook.com/group.php?gid=122709209819&amp;ref=ts","personal email":"racolej@reed.edu","id":"a68qpmcjtb4y","geo_precision":"range","listserv":null,"first name":"Rachel","address":"3203 SE Woodstock Boulevard","school":"Reed College","email":"racolej@reed.edu","state":"OR"},"type":"Feature","geometry":{"type":"Point","coordinates":[-122.630367,45.479183]}},{"properties":{"city":"Corvallis","zip":"97331","region":"West Coast","last name":"Bauer","geo_score":0.707,"website":null,"facebook group":"https://www.facebook.com/OSUSSDP","personal email":"Brownbearbauer@gmail.com","id":"a68qpmgauqll","geo_precision":"street","listserv":null,"first name":"Daniel","address":"1500 Southwest Jefferson Way","school":"Oregon State university","email":"DanielB.ssdp@gmail.com","state":"OR"},"type":"Feature","geometry":{"type":"Point","coordinates":[-123.27995,44.564568]}},{"properties":{"city":"Portland","zip":"97219","region":"West Coast","last name":"Steinman","geo_score":0.816,"website":null,"facebook group":"https://www.facebook.com/NorthwesternSchoolofLawSSDP","personal email":"bradleysteinman@gmail.com","id":"a68qpmhllwv7","geo_precision":"range","listserv":null,"first name":"Bradley","address":"10015 Southwest Terwilliger Boulevard","school":"Lewis &amp; Clark Law School","email":"bradleysteinman@gmail.com","state":"OR"},"type":"Feature","geometry":{"type":"Point","coordinates":[-122.681945,45.453628]}},{"properties":{"city":"Eugene","zip":"97403","region":"West Coast","last name":"Chapman","geo_score":0.577,"website":null,"facebook group":"http://www.facebook.com/group.php?gid=167258786239","personal email":"samuelc@uoregon.edu","id":"a68qpmbeo2sa","geo_precision":"street","listserv":null,"first name":"Sam","address":"5210 University of Oregon","school":"University of Oregon Eugene","email":"samuelc@uoregon.edu","state":"OR"},"type":"Feature","geometry":{"type":"Point","coordinates":[-123.075101,44.024184]}},{"properties":{"city":"Portland","zip":"97201","region":"West Coast","last name":"Bonilla","geo_score":0.902,"website":null,"facebook group":"https://www.facebook.com/groups/144925288912752/","personal email":"romainbonilla@yahoo.com","id":"a68qpmjn8ndu","geo_precision":"range","listserv":null,"first name":"Romain","address":"1825 Southwest Broadway","school":"Portland State University","email":"romainbonilla@yahoo.com","state":"OR"},"type":"Feature","geometry":{"type":"Point","coordinates":[-122.683719,45.511682]}},{"properties":{"city":"Portland","zip":"97219","region":"West Coast","last name":"Van Putten","geo_score":0.337,"website":null,"facebook group":"https://www.facebook.com/groups/lcssdp/","personal email":"lclarkssdp@gmail.com","id":"a68qpm957bfa","geo_precision":"street","listserv":null,"first name":"Christopher","address":"0615 S.W. Palatine Hill Road","school":"Lewis &amp; Clark University","email":"lclarkssdp@gmail.com","state":"OR"},"type":"Feature","geometry":{"type":"Point","coordinates":[-122.68646,45.44448]}},{"properties":{"city":"Salem","zip":"97305","region":"West Coast","last name":"Gwin","geo_score":0.714,"website":null,"facebook group":"https://www.facebook.com/pages/Students-for-Sensible-Drug-Policy-Chemeketa-Chapter/340116589358523","personal email":"agwin@my.chemeketa.edu","id":"a68qpmm0ppyv","geo_precision":"street","listserv":null,"first name":"Andrew","address":"Lancaster Drive Northeast","school":"Chemeketa Community College","email":"agwin@my.chemeketa.edu","state":"OR"},"type":"Feature","geometry":{"type":"Point","coordinates":[-122.98369,44.9509]}},{"properties":{"city":"Ellensburg","zip":"98926","region":"West Coast","last name":"Grimmer","geo_score":0.325,"website":null,"facebook group":"https://www.facebook.com/groups/102051119870736/","personal email":"grimmerb@cwu.edu","id":"a68qpm8hecer","geo_precision":"street","listserv":null,"first name":"Brian","address":"400 E. University Way","school":"Central Washington University","email":"grimmerb@cwu.edu","state":"WA"},"type":"Feature","geometry":{"type":"Point","coordinates":[-120.533797,47.002152]}},{"properties":{"city":"Billingham","zip":"98225","region":"West Coast","last name":"Hilliard","geo_score":0.863,"website":null,"facebook group":"https://www.facebook.com/groups/147876288599186/","personal email":"hilliam@students.wwu.edu","id":"a68qpmdc0n2y","geo_precision":"range","listserv":null,"first name":"Matthew","address":"516 High Street","school":"Western Washington University","email":"hilliam@students.wwu.edu","state":"WA"},"type":"Feature","geometry":{"type":"Point","coordinates":[-122.486603,48.738125]}},{"properties":{"city":"Pullman","zip":"99164","region":"West Coast","last name":"Rollins","geo_score":0.527,"website":null,"facebook group":"http://www.facebook.com/group.php?gid=299310956436&amp;ref=ts","personal email":"chaz.rollins@gmail.com","id":"a68qpm9f921x","geo_precision":"street","listserv":null,"first name":"Chaz","address":"1815 Northeast Wilson Road","school":"Washington State University Pullman","email":"chaz.rollins@gmail.com","state":"WA"},"type":"Feature","geometry":{"type":"Point","coordinates":[-117.592133,47.090691]}},{"properties":{"city":"Lynnwood","zip":"98026","region":"West Coast","last name":"Kurose","geo_score":0.549,"website":null,"facebook group":null,"personal email":"kazkurose@yahoo.com","id":"a68qpmg06dgp","geo_precision":"street","listserv":null,"first name":"Kaz","address":"20000 68th Avenue West","school":"Edmonds Community College","email":"kazkurose@yahoo.com","state":"WA"},"type":"Feature","geometry":{"type":"Point","coordinates":[-122.324943,47.839217]}}],"is_temporal":false,"author":{"url":"","metadata":null,"contact_name":null,"contact_address":null,"source":null,"contact_phone":null},"source":"","pagination":{"sort":null,"start":0,"total":129,"limit":1000000},"state":"complete","tags":"","published":"2014-08-15T04:51:14-04:00","id":239637}