{"type":"FeatureCollection","data_type":"Dataset","url_type":null,"permissions":[{"permissions":{"download":true,"view":true},"group_id":"everyone"}],"classification":null,"title":"I&amp;R Clients","count":979,"stream_id":248517,"contributor":{"url":"http://geocommons.com/users/46932","name":"lherrera"},"data_attributes":null,"calculation_params":null,"icon_link":null,"link":"http://geocommons.com/overlays/248517.json","extent":[-112.074,27.3364,-69.2312,44.9444],"geometry_types":["point"],"unique_name":null,"name":"I&R Clients","feature_count":979,"description":"These are the areas where our I&amp;R clients live.","next_feature":null,"is_raster":false,"short_classification":"Y","stats":{"city":{"count":100,"counts_by_value":{"Naugatuck":5,"Avon":5,"Chester":2,"Saint Paul":1,"Bolton":1,"Tolland":5,"Danbury":12,"West Haven":32,"Stratford":8,"Wolcott":2,"Waterbury":31,"Stonington":2,"Newington":10,"Moosup":4,"Simsbury":5,"Berlin":2,"Middletown":17,"Bantam":1,"Groton":5,"Madison":5,"Cromwell":3,"Willington":1,"Morris":1,"Vernon Rockville":10,"South Windsor":9,"Munfordville":1,"Monroe":2,"North Haven":1,"Unionville":2,"Mansfield Center":3,"Windsor Locks":2,"Enfield":14,"North Branford":3,"Woodbury":3,"Branford":6,"Middlefield":1,"Clinton":2,"Stamford":19,"New Haven":80,"Plainfield":3,"Torrington":16,"Fairfield":5,"Terryville":3,"Meriden":17,"Wethersfield":9,"East Hampton":3,"Willimantic":2,"Voluntown":1,"Darien":2,"East Haven":11,"North Grosvenordale":2,"New London":15,"Uncasville":6,"Ansonia":7,"Hartford":91,"Old Saybrook":1,"Manchester":23,"Burlington":4,"Collinsville":1,"Redding":2,"Jewett City":5,"Bethel":5,"New Canaan":1,"West Hartford":13,"Bristol":28,"Bridgeport":31,"Suffield":3,"Sarasota":1,"Hamden":18,"Waterford":4,"Glastonbury":12,"Trumbull":4,"Wilton":2,"East Hartford":22,"East Windsor":1,"Guilford":6,"Higganum":1,"Southington":6,"Norwalk":13,"Farmington":7,"Coventry":6,"Norwich":10,"Stafford Springs":6,"Derby":5,"Rocky Hill":3,"Garner":1,"Danielson":4,"Bloomfield":7,"Plainville":7,"Queens Village":1,"Brookfield":4,"Windsor":12,"Central Village":1,"Forestdale":1,"North Stonington":2,"Far Rockaway":1,"Olcott":1,"New Britain":43,"Southbury":3,"Chicopee":1},"list":["Wolcott","Manchester","Burlington","Trumbull","Norwich","Hartford","Garner","Suffield","Plainville","Stamford","Waterbury","Enfield","Middletown","Moosup","New Britain","Clinton","Waterford","Bloomfield","Torrington","East Hartford","New Haven","Willimantic","New London","Vernon Rockville","Chicopee","Chester","Voluntown","Olcott","Danbury","Guilford","Derby","Farmington","Groton","West Hartford","Bristol","Branford","East Haven","Mansfield Center","Rocky Hill","Windsor","Hamden","Bridgeport","Simsbury","Avon","Higganum","Coventry","Glastonbury","East Windsor","Stafford Springs","Woodbury","Tolland","West Haven","South Windsor","Central Village","New Canaan","Berlin","North Branford","Cromwell","Wilton","Stratford","Queens Village","East Hampton","Jewett City","Darien","Bantam","North Grosvenordale","Newington","Windsor Locks","Brookfield","Unionville","Monroe","Danielson","Bolton","Meriden","Forestdale","Morris","Plainfield","Ansonia","Terryville","North Haven","Southbury","Collinsville","Stonington","Middlefield","Southington","Norwalk","Saint Paul","Munfordville","North Stonington","Fairfield","Sarasota","Redding","Old Saybrook","Uncasville","Bethel","Willington","Madison","Far Rockaway","Naugatuck","Wethersfield"]},"state":{"count":17,"counts_by_value":{"NY":9,"MN":1,"RI":3,"MO":1,"ME":1,"AZ":1,"OH":1,"KY":1,"NH":2,"MS":1,"NJ":1,"FL":4,"CT":945,"WI":1,"VT":1,"MA":5,"NC":1},"list":["CT","NC","MA","NY","RI","MN","KY","FL","ME","NH","OH","NJ","WI","VT","AZ","MO","MS"]}},"features":[{"properties":{"city":"Wolcott","geo_score":0.857,"id":"a67gipwf7mmz","geo_precision":"city","state":"CT"},"type":"Feature","geometry":{"type":"Point","coordinates":[-72.980578,41.598347]}},{"properties":{"city":"Manchester","geo_score":0.81,"id":"a67giq4x016y","geo_precision":"city","state":"CT"},"type":"Feature","geometry":{"type":"Point","coordinates":[-72.500364,41.785099]}},{"properties":{"city":"Burlington","geo_score":0.857,"id":"a67gipv9sw4z","geo_precision":"city","state":"CT"},"type":"Feature","geometry":{"type":"Point","coordinates":[-72.95826,41.761773]}},{"properties":{"city":"Trumbull","geo_score":0.857,"id":"a67gippmcrhh","geo_precision":"city","state":"CT"},"type":"Feature","geometry":{"type":"Point","coordinates":[-73.206957,41.259996]}},{"properties":{"city":"Norwich","geo_score":0.857,"id":"a67gipxzmnqf","geo_precision":"city","state":"CT"},"type":"Feature","geometry":{"type":"Point","coordinates":[-71.994757,41.499398]}},{"properties":{"city":"Hartford","geo_score":0.857,"id":"a67gipqhe1ab","geo_precision":"city","state":"CT"},"type":"Feature","geometry":{"type":"Point","coordinates":[-72.685093,41.763711]}},{"properties":{"city":"Garner","geo_score":0.857,"id":"a67gipuwa1c0","geo_precision":"city","state":"NC"},"type":"Feature","geometry":{"type":"Point","coordinates":[-78.66304,35.714139]}},{"properties":{"city":"Suffield","geo_score":0.857,"id":"a67gipsyap8p","geo_precision":"city","state":"CT"},"type":"Feature","geometry":{"type":"Point","coordinates":[-72.658135,41.989646]}},{"properties":{"city":"Plainville","geo_score":0.798,"id":"a67gipxacy8x","geo_precision":"city","state":"CT"},"type":"Feature","geometry":{"type":"Point","coordinates":[-71.924893,41.676856]}},{"properties":{"city":"Stamford","geo_score":0.857,"id":"a67giq4lzn22","geo_precision":"city","state":"CT"},"type":"Feature","geometry":{"type":"Point","coordinates":[-73.538734,41.05343]}},{"properties":{"city":"Waterbury","geo_score":0.857,"id":"a67gipsqhe41","geo_precision":"city","state":"CT"},"type":"Feature","geometry":{"type":"Point","coordinates":[-73.051497,41.558153]}},{"properties":{"city":"Enfield","geo_score":0.857,"id":"a67giptsms20","geo_precision":"city","state":"CT"},"type":"Feature","geometry":{"type":"Point","coordinates":[-72.557731,41.984646]}},{"properties":{"city":"Middletown","geo_score":0.857,"id":"a67gipt4bs31","geo_precision":"city","state":"CT"},"type":"Feature","geometry":{"type":"Point","coordinates":[-72.655357,41.550139]}},{"properties":{"city":"Hartford","geo_score":0.857,"id":"a67gipp14nv0","geo_precision":"city","state":"CT"},"type":"Feature","geometry":{"type":"Point","coordinates":[-72.685093,41.763711]}},{"properties":{"city":"Moosup","geo_score":0.857,"id":"a67gipu9msdw","geo_precision":"city","state":"CT"},"type":"Feature","geometry":{"type":"Point","coordinates":[-71.849772,41.704931]}},{"properties":{"city":"New Britain","geo_score":0.857,"id":"a67giq0pffae","geo_precision":"city","state":"CT"},"type":"Feature","geometry":{"type":"Point","coordinates":[-72.778391,41.666049]}},{"properties":{"city":"Clinton","geo_score":0.798,"id":"a67gipteffas","geo_precision":"city","state":"CT"},"type":"Feature","geometry":{"type":"Point","coordinates":[-72.500367,41.266489]}},{"properties":{"city":"Waterford","geo_score":0.857,"id":"a67gipuo5ghl","geo_precision":"city","state":"CT"},"type":"Feature","geometry":{"type":"Point","coordinates":[-72.126498,41.456698]}},{"properties":{"city":"Bloomfield","geo_score":0.857,"id":"a67giq2ybfhm","geo_precision":"city","state":"CT"},"type":"Feature","geometry":{"type":"Point","coordinates":[-72.738939,41.851961]}},{"properties":{"city":"Torrington","geo_score":0.857,"id":"a67giq2tcb2n","geo_precision":"city","state":"CT"},"type":"Feature","geometry":{"type":"Point","coordinates":[-73.126763,41.87484]}},{"properties":{"city":"New Britain","geo_score":0.857,"id":"a67gipqyc84u","geo_precision":"city","state":"CT"},"type":"Feature","geometry":{"type":"Point","coordinates":[-72.778391,41.666049]}},{"properties":{"city":"East Hartford","geo_score":0.81,"id":"a67gipzkp2st","geo_precision":"city","state":"CT"},"type":"Feature","geometry":{"type":"Point","coordinates":[-72.685093,41.763711]}},{"properties":{"city":"Stamford","geo_score":0.857,"id":"a67gipwjbi9d","geo_precision":"city","state":"CT"},"type":"Feature","geometry":{"type":"Point","coordinates":[-73.538734,41.05343]}},{"properties":{"city":"New Haven","geo_score":0.857,"id":"a67giq1zhbkf","geo_precision":"city","state":"CT"},"type":"Feature","geometry":{"type":"Point","coordinates":[-72.928158,41.308153]}},{"properties":{"city":"Willimantic","geo_score":0.857,"id":"a67gipoxvkwu","geo_precision":"city","state":"CT"},"type":"Feature","geometry":{"type":"Point","coordinates":[-72.091889,41.845504]}},{"properties":{"city":"New London","geo_score":0.857,"id":"a67gipt69ffs","geo_precision":"city","state":"CT"},"type":"Feature","geometry":{"type":"Point","coordinates":[-72.10907,41.413998]}},{"properties":{"city":"Vernon Rockville","geo_score":0.771,"id":"a67gipukv6sa","geo_precision":"city","state":"CT"},"type":"Feature","geometry":{"type":"Point","coordinates":[-72.47953,41.81871]}},{"properties":{"city":"Plainville","geo_score":0.798,"id":"a67giq31nnc7","geo_precision":"city","state":"CT"},"type":"Feature","geometry":{"type":"Point","coordinates":[-71.924893,41.676856]}},{"properties":{"city":"Chicopee","geo_score":0.857,"id":"a67giq2ahprt","geo_precision":"city","state":"MA"},"type":"Feature","geometry":{"type":"Point","coordinates":[-72.607867,42.148704]}},{"properties":{"city":"Chester","geo_score":0.857,"id":"a67giq58e36y","geo_precision":"city","state":"CT"},"type":"Feature","geometry":{"type":"Point","coordinates":[-72.461805,41.39027]}},{"properties":{"city":"Hartford","geo_score":0.857,"id":"a67gipzthutk","geo_precision":"city","state":"CT"},"type":"Feature","geometry":{"type":"Point","coordinates":[-72.685093,41.763711]}},{"properties":{"city":"New Britain","geo_score":0.857,"id":"a67giq5cr3v2","geo_precision":"city","state":"CT"},"type":"Feature","geometry":{"type":"Point","coordinates":[-72.778391,41.666049]}},{"properties":{"city":"Voluntown","geo_score":0.857,"id":"a67gipxk6255","geo_precision":"city","state":"CT"},"type":"Feature","geometry":{"type":"Point","coordinates":[-71.866587,41.576894]}},{"properties":{"city":"Enfield","geo_score":0.857,"id":"a67gipuxgeoq","geo_precision":"city","state":"CT"},"type":"Feature","geometry":{"type":"Point","coordinates":[-72.557731,41.984646]}},{"properties":{"city":"New Haven","geo_score":0.857,"id":"a67gippjprxx","geo_precision":"city","state":"CT"},"type":"Feature","geometry":{"type":"Point","coordinates":[-72.928158,41.308153]}},{"properties":{"city":"Olcott","geo_score":0.857,"id":"a67gipxzy46o","geo_precision":"city","state":"NY"},"type":"Feature","geometry":{"type":"Point","coordinates":[-78.726661,43.330443]}},{"properties":{"city":"Danbury","geo_score":0.857,"id":"a67giq4rynp0","geo_precision":"city","state":"CT"},"type":"Feature","geometry":{"type":"Point","coordinates":[-73.471416,41.376242]}},{"properties":{"city":"East Hartford","geo_score":0.81,"id":"a67gipwe58ra","geo_precision":"city","state":"CT"},"type":"Feature","geometry":{"type":"Point","coordinates":[-72.685093,41.763711]}},{"properties":{"city":"Manchester","geo_score":0.81,"id":"a67gipuot78p","geo_precision":"city","state":"CT"},"type":"Feature","geometry":{"type":"Point","coordinates":[-72.500364,41.785099]}},{"properties":{"city":"New Britain","geo_score":0.857,"id":"a67gipysrrbj","geo_precision":"city","state":"CT"},"type":"Feature","geometry":{"type":"Point","coordinates":[-72.778391,41.666049]}},{"properties":{"city":"Guilford","geo_score":0.857,"id":"a67giq4fv0m5","geo_precision":"city","state":"CT"},"type":"Feature","geometry":{"type":"Point","coordinates":[-72.690089,41.338847]}},{"properties":{"city":"Hartford","geo_score":0.857,"id":"a67gipp048w6","geo_precision":"city","state":"CT"},"type":"Feature","geometry":{"type":"Point","coordinates":[-72.685093,41.763711]}},{"properties":{"city":"Derby","geo_score":0.857,"id":"a67gipxkd5ds","geo_precision":"city","state":"CT"},"type":"Feature","geometry":{"type":"Point","coordinates":[-73.084252,41.327246]}},{"properties":{"city":"New Haven","geo_score":0.857,"id":"a67gipzztfl3","geo_precision":"city","state":"CT"},"type":"Feature","geometry":{"type":"Point","coordinates":[-72.928158,41.308153]}},{"properties":{"city":"Trumbull","geo_score":0.857,"id":"a67giprjvwqa","geo_precision":"city","state":"CT"},"type":"Feature","geometry":{"type":"Point","coordinates":[-73.206957,41.259996]}},{"properties":{"city":"Farmington","geo_score":0.857,"id":"a67gipuzoi7f","geo_precision":"city","state":"CT"},"type":"Feature","geometry":{"type":"Point","coordinates":[-72.718832,41.791776]}},{"properties":{"city":"New Haven","geo_score":0.857,"id":"a67giq4w5y7c","geo_precision":"city","state":"CT"},"type":"Feature","geometry":{"type":"Point","coordinates":[-72.928158,41.308153]}},{"properties":{"city":"Groton","geo_score":0.857,"id":"a67giq4vgeaa","geo_precision":"city","state":"CT"},"type":"Feature","geometry":{"type":"Point","coordinates":[-72.038268,41.355405]}},{"properties":{"city":"New Haven","geo_score":0.857,"id":"a67gipqu0er5","geo_precision":"city","state":"CT"},"type":"Feature","geometry":{"type":"Point","coordinates":[-72.928158,41.308153]}},{"properties":{"city":"West Hartford","geo_score":0.81,"id":"a67giptfmofe","geo_precision":"city","state":"CT"},"type":"Feature","geometry":{"type":"Point","coordinates":[-72.685093,41.763711]}},{"properties":{"city":"Bristol","geo_score":0.857,"id":"a67gipzpmba6","geo_precision":"city","state":"CT"},"type":"Feature","geometry":{"type":"Point","coordinates":[-72.939577,41.681198]}},{"properties":{"city":"Branford","geo_score":0.796,"id":"a67gipu2u58o","geo_precision":"city","state":"CT"},"type":"Feature","geometry":{"type":"Point","coordinates":[-72.815113,41.277376]}},{"properties":{"city":"East Haven","geo_score":0.857,"id":"a67gipuqbe6v","geo_precision":"city","state":"CT"},"type":"Feature","geometry":{"type":"Point","coordinates":[-72.865894,41.290997]}},{"properties":{"city":"Hartford","geo_score":0.857,"id":"a67gipwqsb0k","geo_precision":"city","state":"CT"},"type":"Feature","geometry":{"type":"Point","coordinates":[-72.685093,41.763711]}},{"properties":{"city":"Hartford","geo_score":0.857,"id":"a67gipt1vk31","geo_precision":"city","state":"CT"},"type":"Feature","geometry":{"type":"Point","coordinates":[-72.685093,41.763711]}},{"properties":{"city":"New Haven","geo_score":0.857,"id":"a67gipwg4iq8","geo_precision":"city","state":"CT"},"type":"Feature","geometry":{"type":"Point","coordinates":[-72.928158,41.308153]}},{"properties":{"city":"Bristol","geo_score":0.857,"id":"a67gipuuxmoi","geo_precision":"city","state":"CT"},"type":"Feature","geometry":{"type":"Point","coordinates":[-72.939577,41.681198]}},{"properties":{"city":"Hartford","geo_score":0.857,"id":"a67gipujl92x","geo_precision":"city","state":"CT"},"type":"Feature","geometry":{"type":"Point","coordinates":[-72.685093,41.763711]}},{"properties":{"city":"New London","geo_score":0.857,"id":"a67gipvu7der","geo_precision":"city","state":"CT"},"type":"Feature","geometry":{"type":"Point","coordinates":[-72.10907,41.413998]}},{"properties":{"city":"Bristol","geo_score":0.857,"id":"a67giq0xr3ju","geo_precision":"city","state":"CT"},"type":"Feature","geometry":{"type":"Point","coordinates":[-72.939577,41.681198]}},{"properties":{"city":"Mansfield Center","geo_score":0.8,"id":"a67gipvpbx22","geo_precision":"city","state":"CT"},"type":"Feature","geometry":{"type":"Point","coordinates":[-72.185911,41.757599]}},{"properties":{"city":"Hartford","geo_score":0.857,"id":"a67giq4xlja6","geo_precision":"city","state":"CT"},"type":"Feature","geometry":{"type":"Point","coordinates":[-72.685093,41.763711]}},{"properties":{"city":"Hartford","geo_score":0.857,"id":"a67gipx62fl6","geo_precision":"city","state":"CT"},"type":"Feature","geometry":{"type":"Point","coordinates":[-72.685093,41.763711]}},{"properties":{"city":"New Britain","geo_score":0.857,"id":"a67giq030f67","geo_precision":"city","state":"CT"},"type":"Feature","geometry":{"type":"Point","coordinates":[-72.778391,41.666049]}},{"properties":{"city":"Hartford","geo_score":0.857,"id":"a67gips9kfys","geo_precision":"city","state":"CT"},"type":"Feature","geometry":{"type":"Point","coordinates":[-72.685093,41.763711]}},{"properties":{"city":"Rocky Hill","geo_score":0.857,"id":"a67giq2sso9b","geo_precision":"city","state":"CT"},"type":"Feature","geometry":{"type":"Point","coordinates":[-72.670887,41.657249]}},{"properties":{"city":"Manchester","geo_score":0.81,"id":"a67giq4hoadu","geo_precision":"city","state":"CT"},"type":"Feature","geometry":{"type":"Point","coordinates":[-72.500364,41.785099]}},{"properties":{"city":"Windsor","geo_score":0.798,"id":"a67giq1ng6xl","geo_precision":"city","state":"CT"},"type":"Feature","geometry":{"type":"Point","coordinates":[-72.535365,41.890931]}},{"properties":{"city":"Hamden","geo_score":0.857,"id":"a67gipvrp8ew","geo_precision":"city","state":"CT"},"type":"Feature","geometry":{"type":"Point","coordinates":[-72.938747,41.372723]}},{"properties":{"city":"Bridgeport","geo_score":0.857,"id":"a67gipv827g9","geo_precision":"city","state":"CT"},"type":"Feature","geometry":{"type":"Point","coordinates":[-73.204835,41.167041]}},{"properties":{"city":"Bristol","geo_score":0.857,"id":"a67gipy3e6aq","geo_precision":"city","state":"CT"},"type":"Feature","geometry":{"type":"Point","coordinates":[-72.939577,41.681198]}},{"properties":{"city":"New Britain","geo_score":0.857,"id":"a67gipsqtobh","geo_precision":"city","state":"CT"},"type":"Feature","geometry":{"type":"Point","coordinates":[-72.778391,41.666049]}},{"properties":{"city":"Simsbury","geo_score":0.857,"id":"a67gipxvrkz6","geo_precision":"city","state":"CT"},"type":"Feature","geometry":{"type":"Point","coordinates":[-72.819742,41.868647]}},{"properties":{"city":"Hartford","geo_score":0.857,"id":"a67giq5dmszy","geo_precision":"city","state":"CT"},"type":"Feature","geometry":{"type":"Point","coordinates":[-72.685093,41.763711]}},{"properties":{"city":"Hartford","geo_score":0.857,"id":"a67gipujs2fy","geo_precision":"city","state":"CT"},"type":"Feature","geometry":{"type":"Point","coordinates":[-72.685093,41.763711]}},{"properties":{"city":"New Britain","geo_score":0.857,"id":"a67giprvax4f","geo_precision":"city","state":"CT"},"type":"Feature","geometry":{"type":"Point","coordinates":[-72.778391,41.666049]}},{"properties":{"city":"Danbury","geo_score":0.857,"id":"a67gipujzegm","geo_precision":"city","state":"CT"},"type":"Feature","geometry":{"type":"Point","coordinates":[-73.471416,41.376242]}},{"properties":{"city":"Farmington","geo_score":0.857,"id":"a67gipvgvovx","geo_precision":"city","state":"CT"},"type":"Feature","geometry":{"type":"Point","coordinates":[-72.718832,41.791776]}},{"properties":{"city":"Avon","geo_score":0.857,"id":"a67gips6pq8q","geo_precision":"city","state":"CT"},"type":"Feature","geometry":{"type":"Point","coordinates":[-72.728272,41.757944]}},{"properties":{"city":"Higganum","geo_score":0.857,"id":"a67giq1w3h65","geo_precision":"city","state":"CT"},"type":"Feature","geometry":{"type":"Point","coordinates":[-72.578971,41.462718]}},{"properties":{"city":"Coventry","geo_score":0.857,"id":"a67gipxy3zj0","geo_precision":"city","state":"CT"},"type":"Feature","geometry":{"type":"Point","coordinates":[-72.323642,41.778623]}},{"properties":{"city":"Vernon Rockville","geo_score":0.771,"id":"a67gippcpy1r","geo_precision":"city","state":"CT"},"type":"Feature","geometry":{"type":"Point","coordinates":[-72.47953,41.81871]}},{"properties":{"city":"New Haven","geo_score":0.857,"id":"a67giq4tno7k","geo_precision":"city","state":"CT"},"type":"Feature","geometry":{"type":"Point","coordinates":[-72.928158,41.308153]}},{"properties":{"city":"Middletown","geo_score":0.857,"id":"a67giq15ew0r","geo_precision":"city","state":"CT"},"type":"Feature","geometry":{"type":"Point","coordinates":[-72.655357,41.550139]}},{"properties":{"city":"Glastonbury","geo_score":0.807,"id":"a67gipptsgd2","geo_precision":"city","state":"CT"},"type":"Feature","geometry":{"type":"Point","coordinates":[-72.599535,41.700933]}},{"properties":{"city":"East Windsor","geo_score":0.75,"id":"a67gipx8qa04","geo_precision":"city","state":"CT"},"type":"Feature","geometry":{"type":"Point","coordinates":[-72.535365,41.890931]}},{"properties":{"city":"Stafford Springs","geo_score":0.743,"id":"a67giprpotbp","geo_precision":"city","state":"CT"},"type":"Feature","geometry":{"type":"Point","coordinates":[-72.223967,41.787043]}},{"properties":{"city":"Woodbury","geo_score":0.857,"id":"a67giq38g21v","geo_precision":"city","state":"CT"},"type":"Feature","geometry":{"type":"Point","coordinates":[-73.135499,41.733106]}},{"properties":{"city":"Tolland","geo_score":0.857,"id":"a67giq0ttw5x","geo_precision":"city","state":"CT"},"type":"Feature","geometry":{"type":"Point","coordinates":[-72.361039,41.882553]}},{"properties":{"city":"Stamford","geo_score":0.857,"id":"a67gipzgjt54","geo_precision":"city","state":"CT"},"type":"Feature","geometry":{"type":"Point","coordinates":[-73.538734,41.05343]}},{"properties":{"city":"West Haven","geo_score":0.857,"id":"a67gipvnia1v","geo_precision":"city","state":"CT"},"type":"Feature","geometry":{"type":"Point","coordinates":[-72.940335,41.272452]}},{"properties":{"city":"South Windsor","geo_score":0.738,"id":"a67gipsj516h","geo_precision":"city","state":"CT"},"type":"Feature","geometry":{"type":"Point","coordinates":[-72.535365,41.890931]}},{"properties":{"city":"West Haven","geo_score":0.857,"id":"a67giq3codl8","geo_precision":"city","state":"CT"},"type":"Feature","geometry":{"type":"Point","coordinates":[-72.940335,41.272452]}},{"properties":{"city":"Hartford","geo_score":0.857,"id":"a67gipv7a1p2","geo_precision":"city","state":"CT"},"type":"Feature","geometry":{"type":"Point","coordinates":[-72.685093,41.763711]}},{"properties":{"city":"Hartford","geo_score":0.857,"id":"a67gipxyb9jm","geo_precision":"city","state":"CT"},"type":"Feature","geometry":{"type":"Point","coordinates":[-72.685093,41.763711]}},{"properties":{"city":"New Haven","geo_score":0.857,"id":"a67gipywqy6g","geo_precision":"city","state":"CT"},"type":"Feature","geometry":{"type":"Point","coordinates":[-72.928158,41.308153]}},{"properties":{"city":"Waterbury","geo_score":0.857,"id":"a67gipptaqdk","geo_precision":"city","state":"CT"},"type":"Feature","geometry":{"type":"Point","coordinates":[-73.051497,41.558153]}},{"properties":{"city":"Central Village","geo_score":0.782,"id":"a67gipvo28r0","geo_precision":"city","state":"CT"},"type":"Feature","geometry":{"type":"Point","coordinates":[-72.519137,41.780168]}},{"properties":{"city":"New Britain","geo_score":0.857,"id":"a67gipyjat2b","geo_precision":"city","state":"CT"},"type":"Feature","geometry":{"type":"Point","coordinates":[-72.778391,41.666049]}},{"properties":{"city":"New London","geo_score":0.857,"id":"a67gipq4158r","geo_precision":"city","state":"CT"},"type":"Feature","geometry":{"type":"Point","coordinates":[-72.10907,41.413998]}},{"properties":{"city":"New Canaan","geo_score":0.81,"id":"a67gipvs9zk2","geo_precision":"city","state":"CT"},"type":"Feature","geometry":{"type":"Point","coordinates":[-73.295891,42.001585]}},{"properties":{"city":"New Haven","geo_score":0.857,"id":"a67gipw4zor2","geo_precision":"city","state":"CT"},"type":"Feature","geometry":{"type":"Point","coordinates":[-72.928158,41.308153]}},{"properties":{"city":"Berlin","geo_score":0.857,"id":"a67gipwko1ws","geo_precision":"city","state":"CT"},"type":"Feature","geometry":{"type":"Point","coordinates":[-72.745652,41.621488]}},{"properties":{"city":"Hartford","geo_score":0.857,"id":"a67giq19wnmh","geo_precision":"city","state":"CT"},"type":"Feature","geometry":{"type":"Point","coordinates":[-72.685093,41.763711]}},{"properties":{"city":"West Hartford","geo_score":0.81,"id":"a67gipsngzyg","geo_precision":"city","state":"CT"},"type":"Feature","geometry":{"type":"Point","coordinates":[-72.685093,41.763711]}},{"properties":{"city":"Manchester","geo_score":0.81,"id":"a67giq0tl5po","geo_precision":"city","state":"CT"},"type":"Feature","geometry":{"type":"Point","coordinates":[-72.500364,41.785099]}},{"properties":{"city":"Willimantic","geo_score":0.857,"id":"a67gipx1kgi2","geo_precision":"city","state":"CT"},"type":"Feature","geometry":{"type":"Point","coordinates":[-72.091889,41.845504]}},{"properties":{"city":"North Branford","geo_score":0.745,"id":"a67giptvkkrw","geo_precision":"city","state":"CT"},"type":"Feature","geometry":{"type":"Point","coordinates":[-72.815113,41.277376]}},{"properties":{"city":"West Haven","geo_score":0.857,"id":"a67gipyxfjvs","geo_precision":"city","state":"CT"},"type":"Feature","geometry":{"type":"Point","coordinates":[-72.940335,41.272452]}},{"properties":{"city":"Groton","geo_score":0.857,"id":"a67gipq4qbe3","geo_precision":"city","state":"CT"},"type":"Feature","geometry":{"type":"Point","coordinates":[-72.038268,41.355405]}},{"properties":{"city":"Cromwell","geo_score":0.857,"id":"a67giprnytu0","geo_precision":"city","state":"CT"},"type":"Feature","geometry":{"type":"Point","coordinates":[-72.667807,41.608529]}},{"properties":{"city":"Wilton","geo_score":0.857,"id":"a67gipsc7yfi","geo_precision":"city","state":"CT"},"type":"Feature","geometry":{"type":"Point","coordinates":[-73.439165,41.209695]}},{"properties":{"city":"South Windsor","geo_score":0.738,"id":"a67giq55jukn","geo_precision":"city","state":"CT"},"type":"Feature","geometry":{"type":"Point","coordinates":[-72.535365,41.890931]}},{"properties":{"city":"Stratford","geo_score":0.814,"id":"a67gipz496wz","geo_precision":"city","state":"CT"},"type":"Feature","geometry":{"type":"Point","coordinates":[-73.235948,41.206763]}},{"properties":{"city":"New London","geo_score":0.857,"id":"a67giq1rckx1","geo_precision":"city","state":"CT"},"type":"Feature","geometry":{"type":"Point","coordinates":[-72.10907,41.413998]}},{"properties":{"city":"Hartford","geo_score":0.857,"id":"a67gipxxmjws","geo_precision":"city","state":"CT"},"type":"Feature","geometry":{"type":"Point","coordinates":[-72.685093,41.763711]}},{"properties":{"city":"Burlington","geo_score":0.857,"id":"a67giprfpwui","geo_precision":"city","state":"CT"},"type":"Feature","geometry":{"type":"Point","coordinates":[-72.95826,41.761773]}},{"properties":{"city":"Torrington","geo_score":0.857,"id":"a67gipphbk5s","geo_precision":"city","state":"CT"},"type":"Feature","geometry":{"type":"Point","coordinates":[-73.126763,41.87484]}},{"properties":{"city":"Hamden","geo_score":0.857,"id":"a67giq38mfdj","geo_precision":"city","state":"CT"},"type":"Feature","geometry":{"type":"Point","coordinates":[-72.938747,41.372723]}},{"properties":{"city":"Middletown","geo_score":0.857,"id":"a67giq0fu2z3","geo_precision":"city","state":"CT"},"type":"Feature","geometry":{"type":"Point","coordinates":[-72.655357,41.550139]}},{"properties":{"city":"Queens Village","geo_score":0.725,"id":"a67giprcqsyo","geo_precision":"city","state":"NY"},"type":"Feature","geometry":{"type":"Point","coordinates":[-78.215299,43.285058]}},{"properties":{"city":"East Hampton","geo_score":0.821,"id":"a67giprr83in","geo_precision":"city","state":"CT"},"type":"Feature","geometry":{"type":"Point","coordinates":[-71.808682,42.008987]}},{"properties":{"city":"West Haven","geo_score":0.857,"id":"a67giq3idsbt","geo_precision":"city","state":"CT"},"type":"Feature","geometry":{"type":"Point","coordinates":[-72.940335,41.272452]}},{"properties":{"city":"New Haven","geo_score":0.857,"id":"a67gipvfsimo","geo_precision":"city","state":"CT"},"type":"Feature","geometry":{"type":"Point","coordinates":[-72.928158,41.308153]}},{"properties":{"city":"Stafford Springs","geo_score":0.743,"id":"a67gipy7qkzt","geo_precision":"city","state":"CT"},"type":"Feature","geometry":{"type":"Point","coordinates":[-72.223967,41.787043]}},{"properties":{"city":"Jewett City","geo_score":0.857,"id":"a67gipw51txq","geo_precision":"city","state":"CT"},"type":"Feature","geometry":{"type":"Point","coordinates":[-71.982619,41.599562]}},{"properties":{"city":"Torrington","geo_score":0.857,"id":"a67gipzkg189","geo_precision":"city","state":"CT"},"type":"Feature","geometry":{"type":"Point","coordinates":[-73.126763,41.87484]}},{"properties":{"city":"Glastonbury","geo_score":0.807,"id":"a67gippfmglv","geo_precision":"city","state":"CT"},"type":"Feature","geometry":{"type":"Point","coordinates":[-72.599535,41.700933]}},{"properties":{"city":"Hartford","geo_score":0.857,"id":"a67gipqm8oz6","geo_precision":"city","state":"CT"},"type":"Feature","geometry":{"type":"Point","coordinates":[-72.685093,41.763711]}},{"properties":{"city":"Hamden","geo_score":0.857,"id":"a67gipvm8hap","geo_precision":"city","state":"CT"},"type":"Feature","geometry":{"type":"Point","coordinates":[-72.938747,41.372723]}},{"properties":{"city":"Hartford","geo_score":0.857,"id":"a67gipqzboog","geo_precision":"city","state":"CT"},"type":"Feature","geometry":{"type":"Point","coordinates":[-72.685093,41.763711]}},{"properties":{"city":"Stamford","geo_score":0.857,"id":"a67gipqrc1ci","geo_precision":"city","state":"CT"},"type":"Feature","geometry":{"type":"Point","coordinates":[-73.538734,41.05343]}},{"properties":{"city":"New Britain","geo_score":0.857,"id":"a67giq0uvftx","geo_precision":"city","state":"CT"},"type":"Feature","geometry":{"type":"Point","coordinates":[-72.778391,41.666049]}},{"properties":{"city":"Glastonbury","geo_score":0.807,"id":"a67gipxuoo02","geo_precision":"city","state":"CT"},"type":"Feature","geometry":{"type":"Point","coordinates":[-72.599535,41.700933]}},{"properties":{"city":"Hartford","geo_score":0.857,"id":"a67gipqpaot2","geo_precision":"city","state":"CT"},"type":"Feature","geometry":{"type":"Point","coordinates":[-72.685093,41.763711]}},{"properties":{"city":"Stamford","geo_score":0.857,"id":"a67gipy8cppo","geo_precision":"city","state":"CT"},"type":"Feature","geometry":{"type":"Point","coordinates":[-73.538734,41.05343]}},{"properties":{"city":"Glastonbury","geo_score":0.807,"id":"a67gipt0yio4","geo_precision":"city","state":"CT"},"type":"Feature","geometry":{"type":"Point","coordinates":[-72.599535,41.700933]}},{"properties":{"city":"Darien","geo_score":0.857,"id":"a67giptb9156","geo_precision":"city","state":"CT"},"type":"Feature","geometry":{"type":"Point","coordinates":[-73.480765,41.075846]}},{"properties":{"city":"Bantam","geo_score":0.857,"id":"a67giprp8yop","geo_precision":"city","state":"CT"},"type":"Feature","geometry":{"type":"Point","coordinates":[-73.251598,41.714352]}},{"properties":{"city":"New Britain","geo_score":0.857,"id":"a67giq12dpqj","geo_precision":"city","state":"CT"},"type":"Feature","geometry":{"type":"Point","coordinates":[-72.778391,41.666049]}},{"properties":{"city":"Stratford","geo_score":0.814,"id":"a67giptb9pil","geo_precision":"city","state":"CT"},"type":"Feature","geometry":{"type":"Point","coordinates":[-73.235948,41.206763]}},{"properties":{"city":"North Grosvenordale","geo_score":0.786,"id":"a67giq4606mq","geo_precision":"city","state":"CT"},"type":"Feature","geometry":{"type":"Point","coordinates":[-73.314562,41.870928]}},{"properties":{"city":"Rocky Hill","geo_score":0.857,"id":"a67giq21tghf","geo_precision":"city","state":"CT"},"type":"Feature","geometry":{"type":"Point","coordinates":[-72.670887,41.657249]}},{"properties":{"city":"Waterbury","geo_score":0.857,"id":"a67giq2hzrzz","geo_precision":"city","state":"CT"},"type":"Feature","geometry":{"type":"Point","coordinates":[-73.051497,41.558153]}},{"properties":{"city":"Windsor","geo_score":0.798,"id":"a67giptpxr7i","geo_precision":"city","state":"CT"},"type":"Feature","geometry":{"type":"Point","coordinates":[-72.535365,41.890931]}},{"properties":{"city":"Newington","geo_score":0.857,"id":"a67gipxna721","geo_precision":"city","state":"CT"},"type":"Feature","geometry":{"type":"Point","coordinates":[-72.729646,41.685985]}},{"properties":{"city":"Windsor Locks","geo_score":0.798,"id":"a67gipyr7wyd","geo_precision":"city","state":"CT"},"type":"Feature","geometry":{"type":"Point","coordinates":[-72.535365,41.890931]}},{"properties":{"city":"Enfield","geo_score":0.857,"id":"a67giq3s81cs","geo_precision":"city","state":"CT"},"type":"Feature","geometry":{"type":"Point","coordinates":[-72.557731,41.984646]}},{"properties":{"city":"Brookfield","geo_score":0.804,"id":"a67giq16f0qc","geo_precision":"city","state":"CT"},"type":"Feature","geometry":{"type":"Point","coordinates":[-73.38762,41.466206]}},{"properties":{"city":"Windsor","geo_score":0.798,"id":"a67gipsznqg9","geo_precision":"city","state":"CT"},"type":"Feature","geometry":{"type":"Point","coordinates":[-72.535365,41.890931]}},{"properties":{"city":"Hartford","geo_score":0.857,"id":"a67giq3898e8","geo_precision":"city","state":"CT"},"type":"Feature","geometry":{"type":"Point","coordinates":[-72.685093,41.763711]}},{"properties":{"city":"Stamford","geo_score":0.857,"id":"a67gipqwpp9w","geo_precision":"city","state":"CT"},"type":"Feature","geometry":{"type":"Point","coordinates":[-73.538734,41.05343]}},{"properties":{"city":"Bridgeport","geo_score":0.857,"id":"a67giq2ljr2x","geo_precision":"city","state":"CT"},"type":"Feature","geometry":{"type":"Point","coordinates":[-73.204835,41.167041]}},{"properties":{"city":"Unionville","geo_score":0.857,"id":"a67gipxar9ss","geo_precision":"city","state":"CT"},"type":"Feature","geometry":{"type":"Point","coordinates":[-72.933467,41.860009]}},{"properties":{"city":"Monroe","geo_score":0.857,"id":"a67giq0gxzkb","geo_precision":"city","state":"CT"},"type":"Feature","geometry":{"type":"Point","coordinates":[-73.236918,41.341845]}},{"properties":{"city":"Hartford","geo_score":0.857,"id":"a67giq3atxqf","geo_precision":"city","state":"CT"},"type":"Feature","geometry":{"type":"Point","coordinates":[-72.685093,41.763711]}},{"properties":{"city":"Danielson","geo_score":0.857,"id":"a67gipyvy19i","geo_precision":"city","state":"CT"},"type":"Feature","geometry":{"type":"Point","coordinates":[-71.874354,41.864901]}},{"properties":{"city":"Waterbury","geo_score":0.857,"id":"a67gipv88pp0","geo_precision":"city","state":"CT"},"type":"Feature","geometry":{"type":"Point","coordinates":[-73.051497,41.558153]}},{"properties":{"city":"Torrington","geo_score":0.857,"id":"a67gipxbqia8","geo_precision":"city","state":"CT"},"type":"Feature","geometry":{"type":"Point","coordinates":[-73.126763,41.87484]}},{"properties":{"city":"Bolton","geo_score":0.857,"id":"a67gipuljjg4","geo_precision":"city","state":"CT"},"type":"Feature","geometry":{"type":"Point","coordinates":[-72.439278,41.768648]}},{"properties":{"city":"Waterbury","geo_score":0.857,"id":"a67giprqes4b","geo_precision":"city","state":"CT"},"type":"Feature","geometry":{"type":"Point","coordinates":[-73.051497,41.558153]}},{"properties":{"city":"Meriden","geo_score":0.857,"id":"a67gipp6jlm7","geo_precision":"city","state":"CT"},"type":"Feature","geometry":{"type":"Point","coordinates":[-72.801901,41.536498]}},{"properties":{"city":"Bristol","geo_score":0.857,"id":"a67giq372jgv","geo_precision":"city","state":"CT"},"type":"Feature","geometry":{"type":"Point","coordinates":[-72.939577,41.681198]}},{"properties":{"city":"Forestdale","geo_score":0.857,"id":"a67gipplamrj","geo_precision":"city","state":"RI"},"type":"Feature","geometry":{"type":"Point","coordinates":[-71.563057,42.000248]}},{"properties":{"city":"Morris","geo_score":0.857,"id":"a67gipp0t0lm","geo_precision":"city","state":"CT"},"type":"Feature","geometry":{"type":"Point","coordinates":[-73.212587,41.689616]}},{"properties":{"city":"Waterbury","geo_score":0.857,"id":"a67gipwg3dbh","geo_precision":"city","state":"CT"},"type":"Feature","geometry":{"type":"Point","coordinates":[-73.051497,41.558153]}},{"properties":{"city":"Stratford","geo_score":0.814,"id":"a67gipxwswt6","geo_precision":"city","state":"CT"},"type":"Feature","geometry":{"type":"Point","coordinates":[-73.235948,41.206763]}},{"properties":{"city":"Plainfield","geo_score":0.798,"id":"a67gipzn5xz8","geo_precision":"city","state":"CT"},"type":"Feature","geometry":{"type":"Point","coordinates":[-71.924893,41.676856]}},{"properties":{"city":"Stamford","geo_score":0.857,"id":"a67gipwndwje","geo_precision":"city","state":"CT"},"type":"Feature","geometry":{"type":"Point","coordinates":[-73.538734,41.05343]}},{"properties":{"city":"New Britain","geo_score":0.857,"id":"a67giq1652gi","geo_precision":"city","state":"CT"},"type":"Feature","geometry":{"type":"Point","coordinates":[-72.778391,41.666049]}},{"properties":{"city":"Waterbury","geo_score":0.857,"id":"a67gipxmder8","geo_precision":"city","state":"CT"},"type":"Feature","geometry":{"type":"Point","coordinates":[-73.051497,41.558153]}},{"properties":{"city":"New Britain","geo_score":0.857,"id":"a67gipp5na9o","geo_precision":"city","state":"CT"},"type":"Feature","geometry":{"type":"Point","coordinates":[-72.778391,41.666049]}},{"properties":{"city":"New Britain","geo_score":0.857,"id":"a67giptda6y2","geo_precision":"city","state":"CT"},"type":"Feature","geometry":{"type":"Point","coordinates":[-72.778391,41.666049]}},{"properties":{"city":"Hartford","geo_score":0.857,"id":"a67giq0juow5","geo_precision":"city","state":"CT"},"type":"Feature","geometry":{"type":"Point","coordinates":[-72.685093,41.763711]}},{"properties":{"city":"Plainfield","geo_score":0.798,"id":"a67giq4j0bin","geo_precision":"city","state":"CT"},"type":"Feature","geometry":{"type":"Point","coordinates":[-71.924893,41.676856]}},{"properties":{"city":"Windsor Locks","geo_score":0.798,"id":"a67giq01df1r","geo_precision":"city","state":"CT"},"type":"Feature","geometry":{"type":"Point","coordinates":[-72.535365,41.890931]}},{"properties":{"city":"Ansonia","geo_score":0.857,"id":"a67gipw9bhmk","geo_precision":"city","state":"CT"},"type":"Feature","geometry":{"type":"Point","coordinates":[-73.070301,41.342514]}},{"properties":{"city":"Meriden","geo_score":0.857,"id":"a67giq03sv70","geo_precision":"city","state":"CT"},"type":"Feature","geometry":{"type":"Point","coordinates":[-72.801901,41.536498]}},{"properties":{"city":"Terryville","geo_score":0.857,"id":"a67gipraa7wl","geo_precision":"city","state":"CT"},"type":"Feature","geometry":{"type":"Point","coordinates":[-73.022449,41.66353]}},{"properties":{"city":"Middletown","geo_score":0.857,"id":"a67giq53z04d","geo_precision":"city","state":"CT"},"type":"Feature","geometry":{"type":"Point","coordinates":[-72.655357,41.550139]}},{"properties":{"city":"Bridgeport","geo_score":0.857,"id":"a67giq4yoejg","geo_precision":"city","state":"CT"},"type":"Feature","geometry":{"type":"Point","coordinates":[-73.204835,41.167041]}},{"properties":{"city":"New Britain","geo_score":0.857,"id":"a67gipystj5e","geo_precision":"city","state":"CT"},"type":"Feature","geometry":{"type":"Point","coordinates":[-72.778391,41.666049]}},{"properties":{"city":"Meriden","geo_score":0.857,"id":"a67giq05kx95","geo_precision":"city","state":"CT"},"type":"Feature","geometry":{"type":"Point","coordinates":[-72.801901,41.536498]}},{"properties":{"city":"Groton","geo_score":0.857,"id":"a67gipxphp2t","geo_precision":"city","state":"CT"},"type":"Feature","geometry":{"type":"Point","coordinates":[-72.038268,41.355405]}},{"properties":{"city":"Hartford","geo_score":0.857,"id":"a67giptx61pp","geo_precision":"city","state":"CT"},"type":"Feature","geometry":{"type":"Point","coordinates":[-72.685093,41.763711]}},{"properties":{"city":"Hartford","geo_score":0.857,"id":"a67giq1hu2f7","geo_precision":"city","state":"CT"},"type":"Feature","geometry":{"type":"Point","coordinates":[-72.685093,41.763711]}},{"properties":{"city":"West Haven","geo_score":0.857,"id":"a67gipzdwr40","geo_precision":"city","state":"CT"},"type":"Feature","geometry":{"type":"Point","coordinates":[-72.940335,41.272452]}},{"properties":{"city":"Danbury","geo_score":0.857,"id":"a67gipy24avb","geo_precision":"city","state":"CT"},"type":"Feature","geometry":{"type":"Point","coordinates":[-73.471416,41.376242]}},{"properties":{"city":"Simsbury","geo_score":0.857,"id":"a67giq3x2h36","geo_precision":"city","state":"CT"},"type":"Feature","geometry":{"type":"Point","coordinates":[-72.819742,41.868647]}},{"properties":{"city":"Coventry","geo_score":0.857,"id":"a67gipv6i5d5","geo_precision":"city","state":"CT"},"type":"Feature","geometry":{"type":"Point","coordinates":[-72.323642,41.778623]}},{"properties":{"city":"Coventry","geo_score":0.857,"id":"a67gipwfzz4g","geo_precision":"city","state":"CT"},"type":"Feature","geometry":{"type":"Point","coordinates":[-72.323642,41.778623]}},{"properties":{"city":"Meriden","geo_score":0.857,"id":"a67giq2w56hi","geo_precision":"city","state":"CT"},"type":"Feature","geometry":{"type":"Point","coordinates":[-72.801901,41.536498]}},{"properties":{"city":"Bridgeport","geo_score":0.857,"id":"a67gipsvn2ut","geo_precision":"city","state":"CT"},"type":"Feature","geometry":{"type":"Point","coordinates":[-73.204835,41.167041]}},{"properties":{"city":"South Windsor","geo_score":0.738,"id":"a67gippwqdlc","geo_precision":"city","state":"CT"},"type":"Feature","geometry":{"type":"Point","coordinates":[-72.535365,41.890931]}},{"properties":{"city":"Groton","geo_score":0.857,"id":"a67giq5bp7fl","geo_precision":"city","state":"CT"},"type":"Feature","geometry":{"type":"Point","coordinates":[-72.038268,41.355405]}},{"properties":{"city":"North Haven","geo_score":0.857,"id":"a67giq27sjq9","geo_precision":"city","state":"CT"},"type":"Feature","geometry":{"type":"Point","coordinates":[-72.862644,41.384381]}},{"properties":{"city":"Vernon Rockville","geo_score":0.771,"id":"a67gipp8jl26","geo_precision":"city","state":"CT"},"type":"Feature","geometry":{"type":"Point","coordinates":[-72.47953,41.81871]}},{"properties":{"city":"Vernon Rockville","geo_score":0.771,"id":"a67giq4oyh6e","geo_precision":"city","state":"CT"},"type":"Feature","geometry":{"type":"Point","coordinates":[-72.47953,41.81871]}},{"properties":{"city":"Southbury","geo_score":0.857,"id":"a67gipz9ig9p","geo_precision":"city","state":"CT"},"type":"Feature","geometry":{"type":"Point","coordinates":[-73.240839,41.470921]}},{"properties":{"city":"Bristol","geo_score":0.857,"id":"a67gipu5qcak","geo_precision":"city","state":"CT"},"type":"Feature","geometry":{"type":"Point","coordinates":[-72.939577,41.681198]}},{"properties":{"city":"West Hartford","geo_score":0.81,"id":"a67giptean06","geo_precision":"city","state":"CT"},"type":"Feature","geometry":{"type":"Point","coordinates":[-72.685093,41.763711]}},{"properties":{"city":"Collinsville","geo_score":0.857,"id":"a67gippv65at","geo_precision":"city","state":"CT"},"type":"Feature","geometry":{"type":"Point","coordinates":[-72.918127,41.851597]}},{"properties":{"city":"Stonington","geo_score":0.857,"id":"a67giq5gpni6","geo_precision":"city","state":"CT"},"type":"Feature","geometry":{"type":"Point","coordinates":[-71.917915,41.378598]}},{"properties":{"city":"West Hartford","geo_score":0.81,"id":"a67giq1xe4rf","geo_precision":"city","state":"CT"},"type":"Feature","geometry":{"type":"Point","coordinates":[-72.685093,41.763711]}},{"properties":{"city":"Bristol","geo_score":0.857,"id":"a67gipr7zijk","geo_precision":"city","state":"CT"},"type":"Feature","geometry":{"type":"Point","coordinates":[-72.939577,41.681198]}},{"properties":{"city":"New Haven","geo_score":0.857,"id":"a67gipq6x552","geo_precision":"city","state":"CT"},"type":"Feature","geometry":{"type":"Point","coordinates":[-72.928158,41.308153]}},{"properties":{"city":"Middlefield","geo_score":0.857,"id":"a67gipzsdwca","geo_precision":"city","state":"CT"},"type":"Feature","geometry":{"type":"Point","coordinates":[-72.712988,41.515346]}},{"properties":{"city":"Waterbury","geo_score":0.857,"id":"a67gipp8uu4d","geo_precision":"city","state":"CT"},"type":"Feature","geometry":{"type":"Point","coordinates":[-73.051497,41.558153]}},{"properties":{"city":"Hartford","geo_score":0.857,"id":"a67gipwkne6k","geo_precision":"city","state":"CT"},"type":"Feature","geometry":{"type":"Point","coordinates":[-72.685093,41.763711]}},{"properties":{"city":"Southington","geo_score":0.857,"id":"a67giq09jakt","geo_precision":"city","state":"CT"},"type":"Feature","geometry":{"type":"Point","coordinates":[-72.871945,41.604786]}},{"properties":{"city":"New Haven","geo_score":0.857,"id":"a67gipqj3jbu","geo_precision":"city","state":"CT"},"type":"Feature","geometry":{"type":"Point","coordinates":[-72.928158,41.308153]}},{"properties":{"city":"Hartford","geo_score":0.857,"id":"a67gippti3fz","geo_precision":"city","state":"CT"},"type":"Feature","geometry":{"type":"Point","coordinates":[-72.685093,41.763711]}},{"properties":{"city":"Manchester","geo_score":0.81,"id":"a67giq5aq3c9","geo_precision":"city","state":"CT"},"type":"Feature","geometry":{"type":"Point","coordinates":[-72.500364,41.785099]}},{"properties":{"city":"Norwalk","geo_score":0.857,"id":"a67gipy35qv0","geo_precision":"city","state":"CT"},"type":"Feature","geometry":{"type":"Point","coordinates":[-73.442423,41.126146]}},{"properties":{"city":"Stamford","geo_score":0.857,"id":"a67gipp4m5cc","geo_precision":"city","state":"CT"},"type":"Feature","geometry":{"type":"Point","coordinates":[-73.538734,41.05343]}},{"properties":{"city":"Saint Paul","geo_score":0.857,"id":"a67gipws9fot","geo_precision":"city","state":"MN"},"type":"Feature","geometry":{"type":"Point","coordinates":[-93.093274,44.94441]}},{"properties":{"city":"Munfordville","geo_score":0.786,"id":"a67gipxkv0mx","geo_precision":"city","state":"KY"},"type":"Feature","geometry":{"type":"Point","coordinates":[-86.641376,37.26727]}},{"properties":{"city":"West Hartford","geo_score":0.81,"id":"a67giq3inr13","geo_precision":"city","state":"CT"},"type":"Feature","geometry":{"type":"Point","coordinates":[-72.685093,41.763711]}},{"properties":{"city":"Norwalk","geo_score":0.857,"id":"a67giq0bfbkg","geo_precision":"city","state":"CT"},"type":"Feature","geometry":{"type":"Point","coordinates":[-73.442423,41.126146]}},{"properties":{"city":"Vernon Rockville","geo_score":0.771,"id":"a67gipq9a1kp","geo_precision":"city","state":"CT"},"type":"Feature","geometry":{"type":"Point","coordinates":[-72.47953,41.81871]}},{"properties":{"city":"Danbury","geo_score":0.857,"id":"a67gipumrn2l","geo_precision":"city","state":"CT"},"type":"Feature","geometry":{"type":"Point","coordinates":[-73.471416,41.376242]}},{"properties":{"city":"Hartford","geo_score":0.857,"id":"a67giq4k4w7w","geo_precision":"city","state":"CT"},"type":"Feature","geometry":{"type":"Point","coordinates":[-72.685093,41.763711]}},{"properties":{"city":"Hartford","geo_score":0.857,"id":"a67gipx4jeiq","geo_precision":"city","state":"CT"},"type":"Feature","geometry":{"type":"Point","coordinates":[-72.685093,41.763711]}},{"properties":{"city":"Newington","geo_score":0.857,"id":"a67gipro12l2","geo_precision":"city","state":"CT"},"type":"Feature","geometry":{"type":"Point","coordinates":[-72.729646,41.685985]}},{"properties":{"city":"North Stonington","geo_score":0.857,"id":"a67giq18tf5e","geo_precision":"city","state":"CT"},"type":"Feature","geometry":{"type":"Point","coordinates":[-71.880694,41.466851]}},{"properties":{"city":"Hartford","geo_score":0.857,"id":"a67gipr9ld8l","geo_precision":"city","state":"CT"},"type":"Feature","geometry":{"type":"Point","coordinates":[-72.685093,41.763711]}},{"properties":{"city":"New Haven","geo_score":0.857,"id":"a67giq0jbww2","geo_precision":"city","state":"CT"},"type":"Feature","geometry":{"type":"Point","coordinates":[-72.928158,41.308153]}},{"properties":{"city":"Guilford","geo_score":0.857,"id":"a67giq06o1n7","geo_precision":"city","state":"CT"},"type":"Feature","geometry":{"type":"Point","coordinates":[-72.690089,41.338847]}},{"properties":{"city":"Hartford","geo_score":0.857,"id":"a67gipumygys","geo_precision":"city","state":"CT"},"type":"Feature","geometry":{"type":"Point","coordinates":[-72.685093,41.763711]}},{"properties":{"city":"Hartford","geo_score":0.857,"id":"a67gipt3akyz","geo_precision":"city","state":"CT"},"type":"Feature","geometry":{"type":"Point","coordinates":[-72.685093,41.763711]}},{"properties":{"city":"West Haven","geo_score":0.857,"id":"a67giq08ehoi","geo_precision":"city","state":"CT"},"type":"Feature","geometry":{"type":"Point","coordinates":[-72.940335,41.272452]}},{"properties":{"city":"Fairfield","geo_score":0.857,"id":"a67gipp45iue","geo_precision":"city","state":"CT"},"type":"Feature","geometry":{"type":"Point","coordinates":[-73.282408,41.175173]}},{"properties":{"city":"East Haven","geo_score":0.857,"id":"a67gipxtkozq","geo_precision":"city","state":"CT"},"type":"Feature","geometry":{"type":"Point","coordinates":[-72.865894,41.290997]}},{"properties":{"city":"Stamford","geo_score":0.857,"id":"a67gipqrjw0o","geo_precision":"city","state":"CT"},"type":"Feature","geometry":{"type":"Point","coordinates":[-73.538734,41.05343]}},{"properties":{"city":"Danielson","geo_score":0.857,"id":"a67giq3yhlcc","geo_precision":"city","state":"CT"},"type":"Feature","geometry":{"type":"Point","coordinates":[-71.874354,41.864901]}},{"properties":{"city":"Burlington","geo_score":0.857,"id":"a67gipqdxsw4","geo_precision":"city","state":"CT"},"type":"Feature","geometry":{"type":"Point","coordinates":[-72.95826,41.761773]}},{"properties":{"city":"Hartford","geo_score":0.857,"id":"a67gipyrz5zs","geo_precision":"city","state":"CT"},"type":"Feature","geometry":{"type":"Point","coordinates":[-72.685093,41.763711]}},{"properties":{"city":"Stamford","geo_score":0.857,"id":"a67giq252kmf","geo_precision":"city","state":"CT"},"type":"Feature","geometry":{"type":"Point","coordinates":[-73.538734,41.05343]}},{"properties":{"city":"East Hartford","geo_score":0.81,"id":"a67giq2g5t2c","geo_precision":"city","state":"CT"},"type":"Feature","geometry":{"type":"Point","coordinates":[-72.685093,41.763711]}},{"properties":{"city":"Sarasota","geo_score":0.857,"id":"a67gipsp01pw","geo_precision":"city","state":"FL"},"type":"Feature","geometry":{"type":"Point","coordinates":[-82.530653,27.336435]}},{"properties":{"city":"Redding","geo_score":0.857,"id":"a67giq30rv30","geo_precision":"city","state":"CT"},"type":"Feature","geometry":{"type":"Point","coordinates":[-73.383453,41.302596]}},{"properties":{"city":"Windsor","geo_score":0.798,"id":"a67giq42fyiu","geo_precision":"city","state":"CT"},"type":"Feature","geometry":{"type":"Point","coordinates":[-72.535365,41.890931]}},{"properties":{"city":"New Haven","geo_score":0.857,"id":"a67giq1wufc9","geo_precision":"city","state":"CT"},"type":"Feature","geometry":{"type":"Point","coordinates":[-72.928158,41.308153]}},{"properties":{"city":"Old Saybrook","geo_score":0.857,"id":"a67gipwreyon","geo_precision":"city","state":"CT"},"type":"Feature","geometry":{"type":"Point","coordinates":[-72.389129,41.300448]}},{"properties":{"city":"New Haven","geo_score":0.857,"id":"a67giq2sofdw","geo_precision":"city","state":"CT"},"type":"Feature","geometry":{"type":"Point","coordinates":[-72.928158,41.308153]}},{"properties":{"city":"Uncasville","geo_score":0.857,"id":"a67gipxe5imo","geo_precision":"city","state":"CT"},"type":"Feature","geometry":{"type":"Point","coordinates":[-72.069578,41.424507]}},{"properties":{"city":"Monroe","geo_score":0.857,"id":"a67giptsh6xb","geo_precision":"city","state":"CT"},"type":"Feature","geometry":{"type":"Point","coordinates":[-73.236918,41.341845]}},{"properties":{"city":"New London","geo_score":0.857,"id":"a67gippvt5l4","geo_precision":"city","state":"CT"},"type":"Feature","geometry":{"type":"Point","coordinates":[-72.10907,41.413998]}},{"properties":{"city":"Bethel","geo_score":0.857,"id":"a67gipti80xr","geo_precision":"city","state":"CT"},"type":"Feature","geometry":{"type":"Point","coordinates":[-73.39908,41.381244]}},{"properties":{"city":"Hartford","geo_score":0.857,"id":"a67gipusai3w","geo_precision":"city","state":"CT"},"type":"Feature","geometry":{"type":"Point","coordinates":[-72.685093,41.763711]}},{"properties":{"city":"Willington","geo_score":0.816,"id":"a67gipuywgh6","geo_precision":"city","state":"CT"},"type":"Feature","geometry":{"type":"Point","coordinates":[-72.263968,41.875097]}},{"properties":{"city":"New Haven","geo_score":0.857,"id":"a67giq3dyk5d","geo_precision":"city","state":"CT"},"type":"Feature","geometry":{"type":"Point","coordinates":[-72.928158,41.308153]}},{"properties":{"city":"Stratford","geo_score":0.814,"id":"a67gipx0743a","geo_precision":"city","state":"CT"},"type":"Feature","geometry":{"type":"Point","coordinates":[-73.235948,41.206763]}},{"properties":{"city":"Plainville","geo_score":0.798,"id":"a67giq3gswaa","geo_precision":"city","state":"CT"},"type":"Feature","geometry":{"type":"Point","coordinates":[-71.924893,41.676856]}},{"properties":{"city":"Glastonbury","geo_score":0.807,"id":"a67gipu8ioz0","geo_precision":"city","state":"CT"},"type":"Feature","geometry":{"type":"Point","coordinates":[-72.599535,41.700933]}},{"properties":{"city":"East Hartford","geo_score":0.81,"id":"a67giq0mo0o4","geo_precision":"city","state":"CT"},"type":"Feature","geometry":{"type":"Point","coordinates":[-72.685093,41.763711]}},{"properties":{"city":"Madison","geo_score":0.857,"id":"a67giptisvwv","geo_precision":"city","state":"CT"},"type":"Feature","geometry":{"type":"Point","coordinates":[-72.788392,41.350397]}},{"properties":{"city":"Hamden","geo_score":0.857,"id":"a67gipqytynn","geo_precision":"city","state":"CT"},"type":"Feature","geometry":{"type":"Point","coordinates":[-72.938747,41.372723]}},{"properties":{"city":"Bloomfield","geo_score":0.857,"id":"a67gipyfk2u5","geo_precision":"city","state":"CT"},"type":"Feature","geometry":{"type":"Point","coordinates":[-72.738939,41.851961]}},{"properties":{"city":"Far Rockaway","geo_score":0.857,"id":"a67gipy7ko9e","geo_precision":"city","state":"NY"},"type":"Feature","geometry":{"type":"Point","coordinates":[-73.755133,40.605382]}},{"properties":{"city":"Bethel","geo_score":0.857,"id":"a67giput3n8k","geo_precision":"city","state":"CT"},"type":"Feature","geometry":{"type":"Point","coordinates":[-73.39908,41.381244]}},{"properties":{"city":"Bloomfield","geo_score":0.857,"id":"a67giq3836cj","geo_precision":"city","state":"CT"},"type":"Feature","geometry":{"type":"Point","coordinates":[-72.738939,41.851961]}},{"properties":{"city":"Enfield","geo_score":0.857,"id":"a67giq4is7fk","geo_precision":"city","state":"CT"},"type":"Feature","geometry":{"type":"Point","coordinates":[-72.557731,41.984646]}},{"properties":{"city":"Coventry","geo_score":0.857,"id":"a67gipt7t50h","geo_precision":"city","state":"CT"},"type":"Feature","geometry":{"type":"Point","coordinates":[-72.323642,41.778623]}},{"properties":{"city":"Enfield","geo_score":0.857,"id":"a67gipsu4pzj","geo_precision":"city","state":"CT"},"type":"Feature","geometry":{"type":"Point","coordinates":[-72.557731,41.984646]}},{"properties":{"city":"West Haven","geo_score":0.857,"id":"a67gipvcwfef","geo_precision":"city","state":"CT"},"type":"Feature","geometry":{"type":"Point","coordinates":[-72.940335,41.272452]}},{"properties":{"city":"Naugatuck","geo_score":0.795,"id":"a67gipvdxl3l","geo_precision":"city","state":"CT"},"type":"Feature","geometry":{"type":"Point","coordinates":[-73.095386,41.212875]}},{"properties":{"city":"Wethersfield","geo_score":0.857,"id":"a67giq3enn07","geo_precision":"city","state":"CT"},"type":"Feature","geometry":{"type":"Point","coordinates":[-72.667887,41.698899]}},{"properties":{"city":"Bridgeport","geo_score":0.857,"id":"a67giq5dw3hv","geo_precision":"city","state":"CT"},"type":"Feature","geometry":{"type":"Point","coordinates":[-73.204835,41.167041]}},{"properties":{"city":"Southington","geo_score":0.857,"id":"a67gipvzhkkg","geo_precision":"city","state":"CT"},"type":"Feature","geometry":{"type":"Point","coordinates":[-72.871945,41.604786]}},{"properties":{"city":"Hartford","geo_score":0.857,"id":"a67gipy2rv0y","geo_precision":"city","state":"CT"},"type":"Feature","geometry":{"type":"Point","coordinates":[-72.685093,41.763711]}},{"properties":{"city":"Hartford","geo_score":0.857,"id":"a67giq2fkd3z","geo_precision":"city","state":"CT"},"type":"Feature","geometry":{"type":"Point","coordinates":[-72.685093,41.763711]}},{"properties":{"city":"New Haven","geo_score":0.857,"id":"a67gipszk0cv","geo_precision":"city","state":"CT"},"type":"Feature","geometry":{"type":"Point","coordinates":[-72.928158,41.308153]}},{"properties":{"city":"Bridgeport","geo_score":0.857,"id":"a67gipwmnskm","geo_precision":"city","state":"CT"},"type":"Feature","geometry":{"type":"Point","coordinates":[-73.204835,41.167041]}},{"properties":{"city":"Darien","geo_score":0.857,"id":"a67gippsjna7","geo_precision":"city","state":"CT"},"type":"Feature","geometry":{"type":"Point","coordinates":[-73.480765,41.075846]}},{"properties":{"city":"Suffield","geo_score":0.857,"id":"a67gipsh8bsw","geo_precision":"city","state":"CT"},"type":"Feature","geometry":{"type":"Point","coordinates":[-72.658135,41.989646]}},{"properties":{"city":"Jewett City","geo_score":0.857,"id":"a67giq0mejg6","geo_precision":"city","state":"CT"},"type":"Feature","geometry":{"type":"Point","coordinates":[-71.982619,41.599562]}},{"properties":{"city":"New Haven","geo_score":0.857,"id":"a67giptd6m6f","geo_precision":"city","state":"CT"},"type":"Feature","geometry":{"type":"Point","coordinates":[-72.928158,41.308153]}},{"properties":{"city":"Colchester","geo_score":0.857,"id":"a67gipyua94j","geo_precision":"city","state":"CT"},"type":"Feature","geometry":{"type":"Point","coordinates":[-72.338832,41.546443]}},{"properties":{"city":"Bridgeport","geo_score":0.857,"id":"a67gipus23fj","geo_precision":"city","state":"CT"},"type":"Feature","geometry":{"type":"Point","coordinates":[-73.204835,41.167041]}},{"properties":{"city":"Brookfield","geo_score":0.804,"id":"a67giq30xtue","geo_precision":"city","state":"CT"},"type":"Feature","geometry":{"type":"Point","coordinates":[-73.38762,41.466206]}},{"properties":{"city":"New London","geo_score":0.857,"id":"a67gipt2tegj","geo_precision":"city","state":"CT"},"type":"Feature","geometry":{"type":"Point","coordinates":[-72.10907,41.413998]}},{"properties":{"city":"Meriden","geo_score":0.857,"id":"a67gippnf1qj","geo_precision":"city","state":"CT"},"type":"Feature","geometry":{"type":"Point","coordinates":[-72.801901,41.536498]}},{"properties":{"city":"Norwalk","geo_score":0.857,"id":"a67gipzdvcru","geo_precision":"city","state":"CT"},"type":"Feature","geometry":{"type":"Point","coordinates":[-73.442423,41.126146]}},{"properties":{"city":"Glastonbury","geo_score":0.807,"id":"a67gipwymahx","geo_precision":"city","state":"CT"},"type":"Feature","geometry":{"type":"Point","coordinates":[-72.599535,41.700933]}},{"properties":{"city":"Bridgeport","geo_score":0.857,"id":"a67gipp90l3o","geo_precision":"city","state":"CT"},"type":"Feature","geometry":{"type":"Point","coordinates":[-73.204835,41.167041]}},{"properties":{"city":"New Milford","geo_score":0.762,"id":"a67gips0lspb","geo_precision":"city","state":"CT"},"type":"Feature","geometry":{"type":"Point","coordinates":[-73.007604,41.22482]}},{"properties":{"city":"Newington","geo_score":0.857,"id":"a67gipt6frza","geo_precision":"city","state":"CT"},"type":"Feature","geometry":{"type":"Point","coordinates":[-72.729646,41.685985]}},{"properties":{"city":"New Haven","geo_score":0.857,"id":"a67gipt7yqy0","geo_precision":"city","state":"CT"},"type":"Feature","geometry":{"type":"Point","coordinates":[-72.928158,41.308153]}},{"properties":{"city":"Meriden","geo_score":0.857,"id":"a67giprsylws","geo_precision":"city","state":"CT"},"type":"Feature","geometry":{"type":"Point","coordinates":[-72.801901,41.536498]}},{"properties":{"city":"Stafford Springs","geo_score":0.743,"id":"a67giptbig51","geo_precision":"city","state":"CT"},"type":"Feature","geometry":{"type":"Point","coordinates":[-72.223967,41.787043]}},{"properties":{"city":"New Haven","geo_score":0.857,"id":"a67gipsglvb1","geo_precision":"city","state":"CT"},"type":"Feature","geometry":{"type":"Point","coordinates":[-72.928158,41.308153]}},{"properties":{"city":"Fairfield","geo_score":0.857,"id":"a67giprsxstq","geo_precision":"city","state":"CT"},"type":"Feature","geometry":{"type":"Point","coordinates":[-73.282408,41.175173]}},{"properties":{"city":"Danbury","geo_score":0.857,"id":"a67giq2v0y4t","geo_precision":"city","state":"CT"},"type":"Feature","geometry":{"type":"Point","coordinates":[-73.471416,41.376242]}},{"properties":{"city":"Vernon Rockville","geo_score":0.771,"id":"a67giq14vzjr","geo_precision":"city","state":"CT"},"type":"Feature","geometry":{"type":"Point","coordinates":[-72.47953,41.81871]}},{"properties":{"city":"Farmington","geo_score":0.857,"id":"a67giq52p7wi","geo_precision":"city","state":"CT"},"type":"Feature","geometry":{"type":"Point","coordinates":[-72.718832,41.791776]}},{"properties":{"city":"Wallingford","geo_score":0.807,"id":"a67giq4x4sfl","geo_precision":"city","state":"CT"},"type":"Feature","geometry":{"type":"Point","coordinates":[-72.81892,41.449868]}},{"properties":{"city":"Hartford","geo_score":0.857,"id":"a67gipu1odny","geo_precision":"city","state":"CT"},"type":"Feature","geometry":{"type":"Point","coordinates":[-72.685093,41.763711]}},{"properties":{"city":"Hartford","geo_score":0.857,"id":"a67gipw357yu","geo_precision":"city","state":"CT"},"type":"Feature","geometry":{"type":"Point","coordinates":[-72.685093,41.763711]}},{"properties":{"city":"Ellington","geo_score":0.857,"id":"a67giq2033ln","geo_precision":"city","state":"CT"},"type":"Feature","geometry":{"type":"Point","coordinates":[-72.411777,41.849319]}},{"properties":{"city":"South Windsor","geo_score":0.738,"id":"a67gipvg6rqu","geo_precision":"city","state":"CT"},"type":"Feature","geometry":{"type":"Point","coordinates":[-72.535365,41.890931]}},{"properties":{"city":"New Haven","geo_score":0.857,"id":"a67giq4b59vy","geo_precision":"city","state":"CT"},"type":"Feature","geometry":{"type":"Point","coordinates":[-72.928158,41.308153]}},{"properties":{"city":"New Haven","geo_score":0.857,"id":"a67giq2t22tk","geo_precision":"city","state":"CT"},"type":"Feature","geometry":{"type":"Point","coordinates":[-72.928158,41.308153]}},{"properties":{"city":"East Hartford","geo_score":0.81,"id":"a67giq1vgiau","geo_precision":"city","state":"CT"},"type":"Feature","geometry":{"type":"Point","coordinates":[-72.685093,41.763711]}},{"properties":{"city":"Middletown","geo_score":0.857,"id":"a67gipwg86ft","geo_precision":"city","state":"CT"},"type":"Feature","geometry":{"type":"Point","coordinates":[-72.655357,41.550139]}},{"properties":{"city":"Hartford","geo_score":0.857,"id":"a67giq2lr7ih","geo_precision":"city","state":"CT"},"type":"Feature","geometry":{"type":"Point","coordinates":[-72.685093,41.763711]}},{"properties":{"city":"Meriden","geo_score":0.857,"id":"a67gipxfqh5y","geo_precision":"city","state":"CT"},"type":"Feature","geometry":{"type":"Point","coordinates":[-72.801901,41.536498]}},{"properties":{"city":"Simsbury","geo_score":0.857,"id":"a67gipuaay60","geo_precision":"city","state":"CT"},"type":"Feature","geometry":{"type":"Point","coordinates":[-72.819742,41.868647]}},{"properties":{"city":"Pawcatuck","geo_score":0.857,"id":"a67giq36ge1o","geo_precision":"city","state":"CT"},"type":"Feature","geometry":{"type":"Point","coordinates":[-71.895547,41.455191]}},{"properties":{"city":"Middletown","geo_score":0.857,"id":"a67gips2ckb9","geo_precision":"city","state":"CT"},"type":"Feature","geometry":{"type":"Point","coordinates":[-72.655357,41.550139]}},{"properties":{"city":"Windsor","geo_score":0.798,"id":"a67gipt0wmx6","geo_precision":"city","state":"CT"},"type":"Feature","geometry":{"type":"Point","coordinates":[-72.535365,41.890931]}},{"properties":{"city":"New Britain","geo_score":0.857,"id":"a67gipy4xe9u","geo_precision":"city","state":"CT"},"type":"Feature","geometry":{"type":"Point","coordinates":[-72.778391,41.666049]}},{"properties":{"city":"Manchester","geo_score":0.81,"id":"a67gipq2m89a","geo_precision":"city","state":"CT"},"type":"Feature","geometry":{"type":"Point","coordinates":[-72.500364,41.785099]}},{"properties":{"city":"Waterbury","geo_score":0.857,"id":"a67giq23tbmh","geo_precision":"city","state":"CT"},"type":"Feature","geometry":{"type":"Point","coordinates":[-73.051497,41.558153]}},{"properties":{"city":"Waterbury","geo_score":0.857,"id":"a67giprtzxtf","geo_precision":"city","state":"CT"},"type":"Feature","geometry":{"type":"Point","coordinates":[-73.051497,41.558153]}},{"properties":{"city":"Bridgeport","geo_score":0.857,"id":"a67gipvskpvl","geo_precision":"city","state":"CT"},"type":"Feature","geometry":{"type":"Point","coordinates":[-73.204835,41.167041]}},{"properties":{"city":"Bridgeport","geo_score":0.857,"id":"a67giprp2ciq","geo_precision":"city","state":"CT"},"type":"Feature","geometry":{"type":"Point","coordinates":[-73.204835,41.167041]}},{"properties":{"city":"Windsor","geo_score":0.798,"id":"a67gipxj8xle","geo_precision":"city","state":"CT"},"type":"Feature","geometry":{"type":"Point","coordinates":[-72.535365,41.890931]}},{"properties":{"city":"Stamford","geo_score":0.857,"id":"a67giq04rghf","geo_precision":"city","state":"CT"},"type":"Feature","geometry":{"type":"Point","coordinates":[-73.538734,41.05343]}},{"properties":{"city":"Wethersfield","geo_score":0.857,"id":"a67gipt86uhb","geo_precision":"city","state":"CT"},"type":"Feature","geometry":{"type":"Point","coordinates":[-72.667887,41.698899]}},{"properties":{"city":"Manchester","geo_score":0.81,"id":"a67giq1xmw7i","geo_precision":"city","state":"CT"},"type":"Feature","geometry":{"type":"Point","coordinates":[-72.500364,41.785099]}},{"properties":{"city":"Newington","geo_score":0.857,"id":"a67giptnqes9","geo_precision":"city","state":"CT"},"type":"Feature","geometry":{"type":"Point","coordinates":[-72.729646,41.685985]}},{"properties":{"city":"Hamden","geo_score":0.857,"id":"a67giq251zrl","geo_precision":"city","state":"CT"},"type":"Feature","geometry":{"type":"Point","coordinates":[-72.938747,41.372723]}},{"properties":{"city":"Middletown","geo_score":0.857,"id":"a67gippb1lk2","geo_precision":"city","state":"CT"},"type":"Feature","geometry":{"type":"Point","coordinates":[-72.655357,41.550139]}},{"properties":{"city":"Bridgeport","geo_score":0.857,"id":"a67gipvyph6k","geo_precision":"city","state":"CT"},"type":"Feature","geometry":{"type":"Point","coordinates":[-73.204835,41.167041]}},{"properties":{"city":"Quaker Hill","geo_score":0.857,"id":"a67gipuwrp2x","geo_precision":"city","state":"CT"},"type":"Feature","geometry":{"type":"Point","coordinates":[-72.140022,41.401066]}},{"properties":{"city":"Friendship","geo_score":0.857,"id":"a67gipsux5yv","geo_precision":"city","state":"ME"},"type":"Feature","geometry":{"type":"Point","coordinates":[-69.231179,44.010424]}},{"properties":{"city":"Uncasville","geo_score":0.857,"id":"a67giq1ycjvg","geo_precision":"city","state":"CT"},"type":"Feature","geometry":{"type":"Point","coordinates":[-72.069578,41.424507]}},{"properties":{"city":"New Britain","geo_score":0.857,"id":"a67gipzt1pqa","geo_precision":"city","state":"CT"},"type":"Feature","geometry":{"type":"Point","coordinates":[-72.778391,41.666049]}},{"properties":{"city":"Stamford","geo_score":0.857,"id":"a67gipstju4b","geo_precision":"city","state":"CT"},"type":"Feature","geometry":{"type":"Point","coordinates":[-73.538734,41.05343]}},{"properties":{"city":"Meriden","geo_score":0.857,"id":"a67gipz62mb9","geo_precision":"city","state":"CT"},"type":"Feature","geometry":{"type":"Point","coordinates":[-72.801901,41.536498]}},{"properties":{"city":"West Haven","geo_score":0.857,"id":"a67giprhvnci","geo_precision":"city","state":"CT"},"type":"Feature","geometry":{"type":"Point","coordinates":[-72.940335,41.272452]}},{"properties":{"city":"Southington","geo_score":0.857,"id":"a67gipssy1ve","geo_precision":"city","state":"CT"},"type":"Feature","geometry":{"type":"Point","coordinates":[-72.871945,41.604786]}},{"properties":{"city":"Middletown","geo_score":0.857,"id":"a67giq4a6vbi","geo_precision":"city","state":"CT"},"type":"Feature","geometry":{"type":"Point","coordinates":[-72.655357,41.550139]}},{"properties":{"city":"Hamden","geo_score":0.857,"id":"a67giprpkkig","geo_precision":"city","state":"CT"},"type":"Feature","geometry":{"type":"Point","coordinates":[-72.938747,41.372723]}},{"properties":{"city":"Middletown","geo_score":0.857,"id":"a67gipuyga3a","geo_precision":"city","state":"CT"},"type":"Feature","geometry":{"type":"Point","coordinates":[-72.655357,41.550139]}},{"properties":{"city":"New London","geo_score":0.857,"id":"a67gippgg6ym","geo_precision":"city","state":"CT"},"type":"Feature","geometry":{"type":"Point","coordinates":[-72.10907,41.413998]}},{"properties":{"city":"Plantsville","geo_score":0.857,"id":"a67gipprawun","geo_precision":"city","state":"CT"},"type":"Feature","geometry":{"type":"Point","coordinates":[-72.902496,41.577845]}},{"properties":{"city":"New Britain","geo_score":0.857,"id":"a67gipz6cd17","geo_precision":"city","state":"CT"},"type":"Feature","geometry":{"type":"Point","coordinates":[-72.778391,41.666049]}},{"properties":{"city":"Hamden","geo_score":0.857,"id":"a67gipoxzj1y","geo_precision":"city","state":"CT"},"type":"Feature","geometry":{"type":"Point","coordinates":[-72.938747,41.372723]}},{"properties":{"city":"Winsted","geo_score":0.857,"id":"a67giq1ehap4","geo_precision":"city","state":"CT"},"type":"Feature","geometry":{"type":"Point","coordinates":[-73.058157,41.925671]}},{"properties":{"city":"Farmington","geo_score":0.857,"id":"a67gipr731og","geo_precision":"city","state":"CT"},"type":"Feature","geometry":{"type":"Point","coordinates":[-72.718832,41.791776]}},{"properties":{"city":"Wethersfield","geo_score":0.857,"id":"a67gipuijqip","geo_precision":"city","state":"CT"},"type":"Feature","geometry":{"type":"Point","coordinates":[-72.667887,41.698899]}},{"properties":{"city":"East Haven","geo_score":0.857,"id":"a67giq52ep1j","geo_precision":"city","state":"CT"},"type":"Feature","geometry":{"type":"Point","coordinates":[-72.865894,41.290997]}},{"properties":{"city":"Newington","geo_score":0.857,"id":"a67gipppw5w8","geo_precision":"city","state":"CT"},"type":"Feature","geometry":{"type":"Point","coordinates":[-72.729646,41.685985]}},{"properties":{"city":"Winsted","geo_score":0.857,"id":"a67giq1kgll2","geo_precision":"city","state":"CT"},"type":"Feature","geometry":{"type":"Point","coordinates":[-73.058157,41.925671]}},{"properties":{"city":"Windsor","geo_score":0.798,"id":"a67gippqxs3y","geo_precision":"city","state":"CT"},"type":"Feature","geometry":{"type":"Point","coordinates":[-72.535365,41.890931]}},{"properties":{"city":"New Haven","geo_score":0.857,"id":"a67giq18ft1h","geo_precision":"city","state":"CT"},"type":"Feature","geometry":{"type":"Point","coordinates":[-72.928158,41.308153]}},{"properties":{"city":"Broad Brook","geo_score":0.857,"id":"a67gipyiy03b","geo_precision":"city","state":"CT"},"type":"Feature","geometry":{"type":"Point","coordinates":[-72.708388,41.842097]}},{"properties":{"city":"East Haven","geo_score":0.857,"id":"a67giq1extlu","geo_precision":"city","state":"CT"},"type":"Feature","geometry":{"type":"Point","coordinates":[-72.865894,41.290997]}},{"properties":{"city":"East Hartford","geo_score":0.81,"id":"a67gipq8riiw","geo_precision":"city","state":"CT"},"type":"Feature","geometry":{"type":"Point","coordinates":[-72.685093,41.763711]}},{"properties":{"city":"Hartford","geo_score":0.857,"id":"a67gipxob30t","geo_precision":"city","state":"CT"},"type":"Feature","geometry":{"type":"Point","coordinates":[-72.685093,41.763711]}},{"properties":{"city":"New Haven","geo_score":0.857,"id":"a67giq0t5ahv","geo_precision":"city","state":"CT"},"type":"Feature","geometry":{"type":"Point","coordinates":[-72.928158,41.308153]}},{"properties":{"city":"Wethersfield","geo_score":0.857,"id":"a67gipyyht5u","geo_precision":"city","state":"CT"},"type":"Feature","geometry":{"type":"Point","coordinates":[-72.667887,41.698899]}},{"properties":{"city":"Westbrook","geo_score":0.857,"id":"a67gipvgf6pu","geo_precision":"city","state":"CT"},"type":"Feature","geometry":{"type":"Point","coordinates":[-72.463381,41.307899]}},{"properties":{"city":"Hartford","geo_score":0.857,"id":"a67gipu8j8qt","geo_precision":"city","state":"CT"},"type":"Feature","geometry":{"type":"Point","coordinates":[-72.685093,41.763711]}},{"properties":{"city":"Taftville","geo_score":0.857,"id":"a67gipxtrnm4","geo_precision":"city","state":"CT"},"type":"Feature","geometry":{"type":"Point","coordinates":[-72.05522,41.563998]}},{"properties":{"city":"Bethel","geo_score":0.857,"id":"a67giq4ithac","geo_precision":"city","state":"CT"},"type":"Feature","geometry":{"type":"Point","coordinates":[-73.39908,41.381244]}},{"properties":{"city":"Branford","geo_score":0.796,"id":"a67giq27uis5","geo_precision":"city","state":"CT"},"type":"Feature","geometry":{"type":"Point","coordinates":[-72.815113,41.277376]}},{"properties":{"city":"Wolcott","geo_score":0.857,"id":"a67giq14h8zl","geo_precision":"city","state":"CT"},"type":"Feature","geometry":{"type":"Point","coordinates":[-72.980578,41.598347]}},{"properties":{"city":"Hartford","geo_score":0.857,"id":"a67gipqe8hoh","geo_precision":"city","state":"CT"},"type":"Feature","geometry":{"type":"Point","coordinates":[-72.685093,41.763711]}},{"properties":{"city":"Manchester","geo_score":0.81,"id":"a67gipsi6ahj","geo_precision":"city","state":"CT"},"type":"Feature","geometry":{"type":"Point","coordinates":[-72.500364,41.785099]}},{"properties":{"city":"New London","geo_score":0.857,"id":"a67gipy1kj8h","geo_precision":"city","state":"CT"},"type":"Feature","geometry":{"type":"Point","coordinates":[-72.10907,41.413998]}},{"properties":{"city":"East Hartford","geo_score":0.81,"id":"a67gipy1nabl","geo_precision":"city","state":"CT"},"type":"Feature","geometry":{"type":"Point","coordinates":[-72.685093,41.763711]}},{"properties":{"city":"Storrs Mansfield","geo_score":0.743,"id":"a67gipq0q40r","geo_precision":"city","state":"CT"},"type":"Feature","geometry":{"type":"Point","coordinates":[-72.185911,41.757599]}},{"properties":{"city":"Bristol","geo_score":0.857,"id":"a67gipsaitxt","geo_precision":"city","state":"CT"},"type":"Feature","geometry":{"type":"Point","coordinates":[-72.939577,41.681198]}},{"properties":{"city":"Enfield","geo_score":0.857,"id":"a67gipxesoys","geo_precision":"city","state":"CT"},"type":"Feature","geometry":{"type":"Point","coordinates":[-72.557731,41.984646]}},{"properties":{"city":"West Haven","geo_score":0.857,"id":"a67giq2vfm5a","geo_precision":"city","state":"CT"},"type":"Feature","geometry":{"type":"Point","coordinates":[-72.940335,41.272452]}},{"properties":{"city":"Redding","geo_score":0.857,"id":"a67giq3bq5wt","geo_precision":"city","state":"CT"},"type":"Feature","geometry":{"type":"Point","coordinates":[-73.383453,41.302596]}},{"properties":{"city":"New Haven","geo_score":0.857,"id":"a67gipztufgc","geo_precision":"city","state":"CT"},"type":"Feature","geometry":{"type":"Point","coordinates":[-72.928158,41.308153]}},{"properties":{"city":"North Windham","geo_score":0.857,"id":"a67gipzebrcd","geo_precision":"city","state":"CT"},"type":"Feature","geometry":{"type":"Point","coordinates":[-72.040003,41.778469]}},{"properties":{"city":"Broad Brook","geo_score":0.857,"id":"a67gippoc95v","geo_precision":"city","state":"CT"},"type":"Feature","geometry":{"type":"Point","coordinates":[-72.708388,41.842097]}},{"properties":{"city":"Vernon Rockville","geo_score":0.771,"id":"a67gips2h0v8","geo_precision":"city","state":"CT"},"type":"Feature","geometry":{"type":"Point","coordinates":[-72.47953,41.81871]}},{"properties":{"city":"East Hartford","geo_score":0.81,"id":"a67gips4p5u5","geo_precision":"city","state":"CT"},"type":"Feature","geometry":{"type":"Point","coordinates":[-72.685093,41.763711]}},{"properties":{"city":"Port Chester","geo_score":0.857,"id":"a67gipsdq6ks","geo_precision":"city","state":"NY"},"type":"Feature","geometry":{"type":"Point","coordinates":[-73.679799,41.022193]}},{"properties":{"city":"New Britain","geo_score":0.857,"id":"a67giprilse2","geo_precision":"city","state":"CT"},"type":"Feature","geometry":{"type":"Point","coordinates":[-72.778391,41.666049]}},{"properties":{"city":"Coventry","geo_score":0.857,"id":"a67gipyax97p","geo_precision":"city","state":"CT"},"type":"Feature","geometry":{"type":"Point","coordinates":[-72.323642,41.778623]}},{"properties":{"city":"Hartford","geo_score":0.857,"id":"a67gipq2ghv9","geo_precision":"city","state":"CT"},"type":"Feature","geometry":{"type":"Point","coordinates":[-72.685093,41.763711]}},{"properties":{"city":"Stamford","geo_score":0.857,"id":"a67gipr9fkrw","geo_precision":"city","state":"CT"},"type":"Feature","geometry":{"type":"Point","coordinates":[-73.538734,41.05343]}},{"properties":{"city":"Woodbury","geo_score":0.857,"id":"a67giq25fle8","geo_precision":"city","state":"CT"},"type":"Feature","geometry":{"type":"Point","coordinates":[-73.135499,41.733106]}},{"properties":{"city":"South Deerfield","geo_score":0.857,"id":"a67gipqbhpn3","geo_precision":"city","state":"MA"},"type":"Feature","geometry":{"type":"Point","coordinates":[-72.682346,42.464522]}},{"properties":{"city":"Storrs Mansfield","geo_score":0.743,"id":"a67gipppo9pc","geo_precision":"city","state":"CT"},"type":"Feature","geometry":{"type":"Point","coordinates":[-72.185911,41.757599]}},{"properties":{"city":"Bristol","geo_score":0.857,"id":"a67gipr66j83","geo_precision":"city","state":"CT"},"type":"Feature","geometry":{"type":"Point","coordinates":[-72.939577,41.681198]}},{"properties":{"city":"New Haven","geo_score":0.857,"id":"a67giptgje4k","geo_precision":"city","state":"CT"},"type":"Feature","geometry":{"type":"Point","coordinates":[-72.928158,41.308153]}},{"properties":{"city":"Winsted","geo_score":0.857,"id":"a67giptdktat","geo_precision":"city","state":"CT"},"type":"Feature","geometry":{"type":"Point","coordinates":[-73.058157,41.925671]}},{"properties":{"city":"Rocky Hill","geo_score":0.857,"id":"a67gipphds85","geo_precision":"city","state":"CT"},"type":"Feature","geometry":{"type":"Point","coordinates":[-72.670887,41.657249]}},{"properties":{"city":"Vernon Rockville","geo_score":0.771,"id":"a67giq4wsye7","geo_precision":"city","state":"CT"},"type":"Feature","geometry":{"type":"Point","coordinates":[-72.47953,41.81871]}},{"properties":{"city":"Windsor","geo_score":0.798,"id":"a67gipuw7c1w","geo_precision":"city","state":"CT"},"type":"Feature","geometry":{"type":"Point","coordinates":[-72.535365,41.890931]}},{"properties":{"city":"Hartford","geo_score":0.857,"id":"a67giq4tzo7z","geo_precision":"city","state":"CT"},"type":"Feature","geometry":{"type":"Point","coordinates":[-72.685093,41.763711]}},{"properties":{"city":"Deep River","geo_score":0.857,"id":"a67gipshboch","geo_precision":"city","state":"CT"},"type":"Feature","geometry":{"type":"Point","coordinates":[-72.452284,41.368124]}},{"properties":{"city":"Hartford","geo_score":0.857,"id":"a67gippvr87u","geo_precision":"city","state":"CT"},"type":"Feature","geometry":{"type":"Point","coordinates":[-72.685093,41.763711]}},{"properties":{"city":"New Britain","geo_score":0.857,"id":"a67giq1qy8t3","geo_precision":"city","state":"CT"},"type":"Feature","geometry":{"type":"Point","coordinates":[-72.778391,41.666049]}},{"properties":{"city":"Belmont","geo_score":0.857,"id":"a67gipxofk4x","geo_precision":"city","state":"NH"},"type":"Feature","geometry":{"type":"Point","coordinates":[-71.40709,43.455551]}},{"properties":{"city":"Branford","geo_score":0.796,"id":"a67gipsq5dh6","geo_precision":"city","state":"CT"},"type":"Feature","geometry":{"type":"Point","coordinates":[-72.815113,41.277376]}},{"properties":{"city":"New Britain","geo_score":0.857,"id":"a67giq0661xm","geo_precision":"city","state":"CT"},"type":"Feature","geometry":{"type":"Point","coordinates":[-72.778391,41.666049]}},{"properties":{"city":"Waterford","geo_score":0.857,"id":"a67gipxrlh0l","geo_precision":"city","state":"CT"},"type":"Feature","geometry":{"type":"Point","coordinates":[-72.126498,41.456698]}},{"properties":{"city":"Waterbury","geo_score":0.857,"id":"a67giq4ye6ph","geo_precision":"city","state":"CT"},"type":"Feature","geometry":{"type":"Point","coordinates":[-73.051497,41.558153]}},{"properties":{"city":"Stafford Springs","geo_score":0.743,"id":"a67giq4dv2aq","geo_precision":"city","state":"CT"},"type":"Feature","geometry":{"type":"Point","coordinates":[-72.223967,41.787043]}},{"properties":{"city":"New Haven","geo_score":0.857,"id":"a67giq04yljm","geo_precision":"city","state":"CT"},"type":"Feature","geometry":{"type":"Point","coordinates":[-72.928158,41.308153]}},{"properties":{"city":"New Haven","geo_score":0.857,"id":"a67giq090w2s","geo_precision":"city","state":"CT"},"type":"Feature","geometry":{"type":"Point","coordinates":[-72.928158,41.308153]}},{"properties":{"city":"Waterbury","geo_score":0.857,"id":"a67gipsemq88","geo_precision":"city","state":"CT"},"type":"Feature","geometry":{"type":"Point","coordinates":[-73.051497,41.558153]}},{"properties":{"city":"Meriden","geo_score":0.857,"id":"a67giq3gomcy","geo_precision":"city","state":"CT"},"type":"Feature","geometry":{"type":"Point","coordinates":[-72.801901,41.536498]}},{"properties":{"city":"New Milford","geo_score":0.762,"id":"a67gipvphxzz","geo_precision":"city","state":"CT"},"type":"Feature","geometry":{"type":"Point","coordinates":[-73.007604,41.22482]}},{"properties":{"city":"Hartford","geo_score":0.857,"id":"a67gippgwe3l","geo_precision":"city","state":"CT"},"type":"Feature","geometry":{"type":"Point","coordinates":[-72.685093,41.763711]}},{"properties":{"city":"Hartford","geo_score":0.857,"id":"a67gipv1ivxp","geo_precision":"city","state":"CT"},"type":"Feature","geometry":{"type":"Point","coordinates":[-72.685093,41.763711]}},{"properties":{"city":"New Haven","geo_score":0.857,"id":"a67gipyhp3zp","geo_precision":"city","state":"CT"},"type":"Feature","geometry":{"type":"Point","coordinates":[-72.928158,41.308153]}},{"properties":{"city":"Bloomfield","geo_score":0.857,"id":"a67gipuhu3vg","geo_precision":"city","state":"CT"},"type":"Feature","geometry":{"type":"Point","coordinates":[-72.738939,41.851961]}},{"properties":{"city":"Southington","geo_score":0.857,"id":"a67gipwv9ep4","geo_precision":"city","state":"CT"},"type":"Feature","geometry":{"type":"Point","coordinates":[-72.871945,41.604786]}},{"properties":{"city":"Clinton","geo_score":0.798,"id":"a67gipsjs8kj","geo_precision":"city","state":"CT"},"type":"Feature","geometry":{"type":"Point","coordinates":[-72.500367,41.266489]}},{"properties":{"city":"Glastonbury","geo_score":0.807,"id":"a67gipy4wy2k","geo_precision":"city","state":"CT"},"type":"Feature","geometry":{"type":"Point","coordinates":[-72.599535,41.700933]}},{"properties":{"city":"Manchester","geo_score":0.81,"id":"a67gipzmu6x7","geo_precision":"city","state":"CT"},"type":"Feature","geometry":{"type":"Point","coordinates":[-72.500364,41.785099]}},{"properties":{"city":"Danbury","geo_score":0.857,"id":"a67gipuucni9","geo_precision":"city","state":"CT"},"type":"Feature","geometry":{"type":"Point","coordinates":[-73.471416,41.376242]}},{"properties":{"city":"Norwalk","geo_score":0.857,"id":"a67gipx0nssl","geo_precision":"city","state":"CT"},"type":"Feature","geometry":{"type":"Point","coordinates":[-73.442423,41.126146]}},{"properties":{"city":"Enfield","geo_score":0.857,"id":"a67gipt62gbn","geo_precision":"city","state":"CT"},"type":"Feature","geometry":{"type":"Point","coordinates":[-72.557731,41.984646]}},{"properties":{"city":"West Hartford","geo_score":0.81,"id":"a67giq2jyr08","geo_precision":"city","state":"CT"},"type":"Feature","geometry":{"type":"Point","coordinates":[-72.685093,41.763711]}},{"properties":{"city":"Waterbury","geo_score":0.857,"id":"a67giptzykp8","geo_precision":"city","state":"CT"},"type":"Feature","geometry":{"type":"Point","coordinates":[-73.051497,41.558153]}},{"properties":{"city":"Harwinton","geo_score":0.857,"id":"a67gipv20orh","geo_precision":"city","state":"CT"},"type":"Feature","geometry":{"type":"Point","coordinates":[-73.176163,41.649639]}},{"properties":{"city":"New Britain","geo_score":0.857,"id":"a67giq5d4qxl","geo_precision":"city","state":"CT"},"type":"Feature","geometry":{"type":"Point","coordinates":[-72.778391,41.666049]}},{"properties":{"city":"New Britain","geo_score":0.857,"id":"a67giq54fz4k","geo_precision":"city","state":"CT"},"type":"Feature","geometry":{"type":"Point","coordinates":[-72.778391,41.666049]}},{"properties":{"city":"Torrington","geo_score":0.857,"id":"a67giq3aolj3","geo_precision":"city","state":"CT"},"type":"Feature","geometry":{"type":"Point","coordinates":[-73.126763,41.87484]}},{"properties":{"city":"East Haven","geo_score":0.857,"id":"a67gipymay4l","geo_precision":"city","state":"CT"},"type":"Feature","geometry":{"type":"Point","coordinates":[-72.865894,41.290997]}},{"properties":{"city":"Tolland","geo_score":0.857,"id":"a67gipuneu31","geo_precision":"city","state":"CT"},"type":"Feature","geometry":{"type":"Point","coordinates":[-72.361039,41.882553]}},{"properties":{"city":"Dover Plains","geo_score":0.857,"id":"a67giq3xmn0m","geo_precision":"city","state":"NY"},"type":"Feature","geometry":{"type":"Point","coordinates":[-73.687324,41.800316]}},{"properties":{"city":"New Haven","geo_score":0.857,"id":"a67giprmgfi6","geo_precision":"city","state":"CT"},"type":"Feature","geometry":{"type":"Point","coordinates":[-72.928158,41.308153]}},{"properties":{"city":"Manchester","geo_score":0.81,"id":"a67giptwz87y","geo_precision":"city","state":"CT"},"type":"Feature","geometry":{"type":"Point","coordinates":[-72.500364,41.785099]}},{"properties":{"city":"New Haven","geo_score":0.857,"id":"a67giq1usa8l","geo_precision":"city","state":"CT"},"type":"Feature","geometry":{"type":"Point","coordinates":[-72.928158,41.308153]}},{"properties":{"city":"New London","geo_score":0.857,"id":"a67gipzbj44o","geo_precision":"city","state":"CT"},"type":"Feature","geometry":{"type":"Point","coordinates":[-72.10907,41.413998]}},{"properties":{"city":"Hartford","geo_score":0.857,"id":"a67gipywglv6","geo_precision":"city","state":"CT"},"type":"Feature","geometry":{"type":"Point","coordinates":[-72.685093,41.763711]}},{"properties":{"city":"Hartford","geo_score":0.857,"id":"a67giq4bdw6e","geo_precision":"city","state":"CT"},"type":"Feature","geometry":{"type":"Point","coordinates":[-72.685093,41.763711]}},{"properties":{"city":"Litchfield","geo_score":0.857,"id":"a67gipxiblsr","geo_precision":"city","state":"CT"},"type":"Feature","geometry":{"type":"Point","coordinates":[-73.229787,41.791598]}},{"properties":{"city":"East Hartford","geo_score":0.81,"id":"a67giq0bd7t0","geo_precision":"city","state":"CT"},"type":"Feature","geometry":{"type":"Point","coordinates":[-72.685093,41.763711]}},{"properties":{"city":"East Hartford","geo_score":0.81,"id":"a67giq0yr40q","geo_precision":"city","state":"CT"},"type":"Feature","geometry":{"type":"Point","coordinates":[-72.685093,41.763711]}},{"properties":{"city":"Hartford","geo_score":0.857,"id":"a67gipv1vuym","geo_precision":"city","state":"CT"},"type":"Feature","geometry":{"type":"Point","coordinates":[-72.685093,41.763711]}},{"properties":{"city":"New Britain","geo_score":0.857,"id":"a67gipyqwc5v","geo_precision":"city","state":"CT"},"type":"Feature","geometry":{"type":"Point","coordinates":[-72.778391,41.666049]}},{"properties":{"city":"Newington","geo_score":0.857,"id":"a67gipsjmk7n","geo_precision":"city","state":"CT"},"type":"Feature","geometry":{"type":"Point","coordinates":[-72.729646,41.685985]}},{"properties":{"city":"Winsted","geo_score":0.857,"id":"a67gipto6wwm","geo_precision":"city","state":"CT"},"type":"Feature","geometry":{"type":"Point","coordinates":[-73.058157,41.925671]}},{"properties":{"city":"Baltic","geo_score":0.857,"id":"a67gipqshdwv","geo_precision":"city","state":"CT"},"type":"Feature","geometry":{"type":"Point","coordinates":[-72.044306,41.501708]}},{"properties":{"city":"Sandy Hook","geo_score":0.857,"id":"a67giq4vglmh","geo_precision":"city","state":"CT"},"type":"Feature","geometry":{"type":"Point","coordinates":[-73.249671,41.408137]}},{"properties":{"city":"Cromwell","geo_score":0.857,"id":"a67gipycgpjr","geo_precision":"city","state":"CT"},"type":"Feature","geometry":{"type":"Point","coordinates":[-72.667807,41.608529]}},{"properties":{"city":"New Haven","geo_score":0.857,"id":"a67giptynagt","geo_precision":"city","state":"CT"},"type":"Feature","geometry":{"type":"Point","coordinates":[-72.928158,41.308153]}},{"properties":{"city":"Manchester","geo_score":0.81,"id":"a67gipujvp56","geo_precision":"city","state":"CT"},"type":"Feature","geometry":{"type":"Point","coordinates":[-72.500364,41.785099]}},{"properties":{"city":"New London","geo_score":0.857,"id":"a67gips3i8vn","geo_precision":"city","state":"CT"},"type":"Feature","geometry":{"type":"Point","coordinates":[-72.10907,41.413998]}},{"properties":{"city":"Cleveland","geo_score":0.857,"id":"a67giq4c4njd","geo_precision":"city","state":"OH"},"type":"Feature","geometry":{"type":"Point","coordinates":[-81.695409,41.499495]}},{"properties":{"city":"West Hartford","geo_score":0.81,"id":"a67gipxhzowy","geo_precision":"city","state":"CT"},"type":"Feature","geometry":{"type":"Point","coordinates":[-72.685093,41.763711]}},{"properties":{"city":"Waterbury","geo_score":0.857,"id":"a67giq00vjwc","geo_precision":"city","state":"CT"},"type":"Feature","geometry":{"type":"Point","coordinates":[-73.051497,41.558153]}},{"properties":{"city":"Danbury","geo_score":0.857,"id":"a67giq05hdnx","geo_precision":"city","state":"CT"},"type":"Feature","geometry":{"type":"Point","coordinates":[-73.471416,41.376242]}},{"properties":{"city":"North Branford","geo_score":0.745,"id":"a67gipuvj02a","geo_precision":"city","state":"CT"},"type":"Feature","geometry":{"type":"Point","coordinates":[-72.815113,41.277376]}},{"properties":{"city":"New Hartford","geo_score":0.818,"id":"a67giq4qacnt","geo_precision":"city","state":"CT"},"type":"Feature","geometry":{"type":"Point","coordinates":[-72.685093,41.763711]}},{"properties":{"city":"Newington","geo_score":0.857,"id":"a67giq06g5rj","geo_precision":"city","state":"CT"},"type":"Feature","geometry":{"type":"Point","coordinates":[-72.729646,41.685985]}},{"properties":{"city":"West Haven","geo_score":0.857,"id":"a67giq21g78d","geo_precision":"city","state":"CT"},"type":"Feature","geometry":{"type":"Point","coordinates":[-72.940335,41.272452]}},{"properties":{"city":"Waterford","geo_score":0.857,"id":"a67gipvwnqiw","geo_precision":"city","state":"CT"},"type":"Feature","geometry":{"type":"Point","coordinates":[-72.126498,41.456698]}},{"properties":{"city":"Bristol","geo_score":0.857,"id":"a67giq1xbfls","geo_precision":"city","state":"CT"},"type":"Feature","geometry":{"type":"Point","coordinates":[-72.939577,41.681198]}},{"properties":{"city":"Naugatuck","geo_score":0.795,"id":"a67gippbup3n","geo_precision":"city","state":"CT"},"type":"Feature","geometry":{"type":"Point","coordinates":[-73.095386,41.212875]}},{"properties":{"city":"Manchester","geo_score":0.81,"id":"a67gipv1l58j","geo_precision":"city","state":"CT"},"type":"Feature","geometry":{"type":"Point","coordinates":[-72.500364,41.785099]}},{"properties":{"city":"New Britain","geo_score":0.857,"id":"a67gipunz4zd","geo_precision":"city","state":"CT"},"type":"Feature","geometry":{"type":"Point","coordinates":[-72.778391,41.666049]}},{"properties":{"city":"Hamden","geo_score":0.857,"id":"a67gipp6jerm","geo_precision":"city","state":"CT"},"type":"Feature","geometry":{"type":"Point","coordinates":[-72.938747,41.372723]}},{"properties":{"city":"New Britain","geo_score":0.857,"id":"a67giprg4i6j","geo_precision":"city","state":"CT"},"type":"Feature","geometry":{"type":"Point","coordinates":[-72.778391,41.666049]}},{"properties":{"city":"Toms River","geo_score":0.857,"id":"a67gipxh8frd","geo_precision":"city","state":"NJ"},"type":"Feature","geometry":{"type":"Point","coordinates":[-74.215336,39.958851]}},{"properties":{"city":"Unionville","geo_score":0.857,"id":"a67gipu6f9bs","geo_precision":"city","state":"CT"},"type":"Feature","geometry":{"type":"Point","coordinates":[-72.933467,41.860009]}},{"properties":{"city":"Simsbury","geo_score":0.857,"id":"a67giq3qx74g","geo_precision":"city","state":"CT"},"type":"Feature","geometry":{"type":"Point","coordinates":[-72.819742,41.868647]}},{"properties":{"city":"Manchester","geo_score":0.81,"id":"a67gipp9a7ln","geo_precision":"city","state":"CT"},"type":"Feature","geometry":{"type":"Point","coordinates":[-72.500364,41.785099]}},{"properties":{"city":"New Milford","geo_score":0.762,"id":"a67gipsz2dg9","geo_precision":"city","state":"CT"},"type":"Feature","geometry":{"type":"Point","coordinates":[-73.007604,41.22482]}},{"properties":{"city":"New Haven","geo_score":0.857,"id":"a67gipp53wwp","geo_precision":"city","state":"CT"},"type":"Feature","geometry":{"type":"Point","coordinates":[-72.928158,41.308153]}},{"properties":{"city":"Norwalk","geo_score":0.857,"id":"a67giq5ceuta","geo_precision":"city","state":"CT"},"type":"Feature","geometry":{"type":"Point","coordinates":[-73.442423,41.126146]}},{"properties":{"city":"Wallingford","geo_score":0.807,"id":"a67giq2qwgih","geo_precision":"city","state":"CT"},"type":"Feature","geometry":{"type":"Point","coordinates":[-72.81892,41.449868]}},{"properties":{"city":"Plantsville","geo_score":0.857,"id":"a67giq4c20z7","geo_precision":"city","state":"CT"},"type":"Feature","geometry":{"type":"Point","coordinates":[-72.902496,41.577845]}},{"properties":{"city":"Woodside","geo_score":0.857,"id":"a67giq3uczxp","geo_precision":"city","state":"NY"},"type":"Feature","geometry":{"type":"Point","coordinates":[-73.905445,40.748372]}},{"properties":{"city":"New Fairfield","geo_score":0.821,"id":"a67giq551vhw","geo_precision":"city","state":"CT"},"type":"Feature","geometry":{"type":"Point","coordinates":[-73.282408,41.175173]}},{"properties":{"city":"Vernon Rockville","geo_score":0.771,"id":"a67gipupzhks","geo_precision":"city","state":"CT"},"type":"Feature","geometry":{"type":"Point","coordinates":[-72.47953,41.81871]}},{"properties":{"city":"Meriden","geo_score":0.857,"id":"a67giprd62kz","geo_precision":"city","state":"CT"},"type":"Feature","geometry":{"type":"Point","coordinates":[-72.801901,41.536498]}},{"properties":{"city":"Milford","geo_score":0.798,"id":"a67gippmnrqv","geo_precision":"city","state":"CT"},"type":"Feature","geometry":{"type":"Point","coordinates":[-73.007604,41.22482]}},{"properties":{"city":"Enfield","geo_score":0.857,"id":"a67gipucfv1y","geo_precision":"city","state":"CT"},"type":"Feature","geometry":{"type":"Point","coordinates":[-72.557731,41.984646]}},{"properties":{"city":"Hamden","geo_score":0.857,"id":"a67giq35fmcu","geo_precision":"city","state":"CT"},"type":"Feature","geometry":{"type":"Point","coordinates":[-72.938747,41.372723]}},{"properties":{"city":"Norwalk","geo_score":0.857,"id":"a67gipzfidy2","geo_precision":"city","state":"CT"},"type":"Feature","geometry":{"type":"Point","coordinates":[-73.442423,41.126146]}},{"properties":{"city":"East Hartford","geo_score":0.81,"id":"a67gipu9tcwb","geo_precision":"city","state":"CT"},"type":"Feature","geometry":{"type":"Point","coordinates":[-72.685093,41.763711]}},{"properties":{"city":"Meriden","geo_score":0.857,"id":"a67gipssf7fl","geo_precision":"city","state":"CT"},"type":"Feature","geometry":{"type":"Point","coordinates":[-72.801901,41.536498]}},{"properties":{"city":"East Hartford","geo_score":0.81,"id":"a67gipr7whxf","geo_precision":"city","state":"CT"},"type":"Feature","geometry":{"type":"Point","coordinates":[-72.685093,41.763711]}},{"properties":{"city":"Weston","geo_score":0.857,"id":"a67giq46wmm4","geo_precision":"city","state":"CT"},"type":"Feature","geometry":{"type":"Point","coordinates":[-73.376263,41.222945]}},{"properties":{"city":"Janesville","geo_score":0.857,"id":"a67gipvswtbs","geo_precision":"city","state":"WI"},"type":"Feature","geometry":{"type":"Point","coordinates":[-89.112201,42.710981]}},{"properties":{"city":"New Haven","geo_score":0.857,"id":"a67gippia5no","geo_precision":"city","state":"CT"},"type":"Feature","geometry":{"type":"Point","coordinates":[-72.928158,41.308153]}},{"properties":{"city":"Shelton","geo_score":0.857,"id":"a67gipqdlbvq","geo_precision":"city","state":"CT"},"type":"Feature","geometry":{"type":"Point","coordinates":[-73.137143,41.314347]}},{"properties":{"city":"West Haven","geo_score":0.857,"id":"a67gipvptd21","geo_precision":"city","state":"CT"},"type":"Feature","geometry":{"type":"Point","coordinates":[-72.940335,41.272452]}},{"properties":{"city":"Hartford","geo_score":0.857,"id":"a67giq1hcpj7","geo_precision":"city","state":"CT"},"type":"Feature","geometry":{"type":"Point","coordinates":[-72.685093,41.763711]}},{"properties":{"city":"Southbury","geo_score":0.857,"id":"a67gipswyq2f","geo_precision":"city","state":"CT"},"type":"Feature","geometry":{"type":"Point","coordinates":[-73.240839,41.470921]}},{"properties":{"city":"Tolland","geo_score":0.857,"id":"a67giq2wwl6z","geo_precision":"city","state":"CT"},"type":"Feature","geometry":{"type":"Point","coordinates":[-72.361039,41.882553]}},{"properties":{"city":"Essex","geo_score":0.857,"id":"a67gipuobvhc","geo_precision":"city","state":"CT"},"type":"Feature","geometry":{"type":"Point","coordinates":[-72.50426,41.448179]}},{"properties":{"city":"Hartford","geo_score":0.857,"id":"a67gipzn98es","geo_precision":"city","state":"CT"},"type":"Feature","geometry":{"type":"Point","coordinates":[-72.685093,41.763711]}},{"properties":{"city":"Hartford","geo_score":0.857,"id":"a67gipvknd6f","geo_precision":"city","state":"CT"},"type":"Feature","geometry":{"type":"Point","coordinates":[-72.685093,41.763711]}},{"properties":{"city":"Hartford","geo_score":0.857,"id":"a67giq0r4boa","geo_precision":"city","state":"CT"},"type":"Feature","geometry":{"type":"Point","coordinates":[-72.685093,41.763711]}},{"properties":{"city":"Abington","geo_score":0.857,"id":"a67gipzj8gv0","geo_precision":"city","state":"CT"},"type":"Feature","geometry":{"type":"Point","coordinates":[-72.02528,41.847302]}},{"properties":{"city":"Norwich","geo_score":0.857,"id":"a67giq2yk32u","geo_precision":"city","state":"CT"},"type":"Feature","geometry":{"type":"Point","coordinates":[-71.994757,41.499398]}},{"properties":{"city":"Bethany","geo_score":0.857,"id":"a67gippyxojq","geo_precision":"city","state":"CT"},"type":"Feature","geometry":{"type":"Point","coordinates":[-72.996191,41.428088]}},{"properties":{"city":"Waterbury","geo_score":0.857,"id":"a67gippewhjg","geo_precision":"city","state":"CT"},"type":"Feature","geometry":{"type":"Point","coordinates":[-73.051497,41.558153]}},{"properties":{"city":"Glastonbury","geo_score":0.807,"id":"a67gipu9o2pj","geo_precision":"city","state":"CT"},"type":"Feature","geometry":{"type":"Point","coordinates":[-72.599535,41.700933]}},{"properties":{"city":"Enfield","geo_score":0.857,"id":"a67gipri097o","geo_precision":"city","state":"CT"},"type":"Feature","geometry":{"type":"Point","coordinates":[-72.557731,41.984646]}},{"properties":{"city":"Hartford","geo_score":0.857,"id":"a67gipx4g7ct","geo_precision":"city","state":"CT"},"type":"Feature","geometry":{"type":"Point","coordinates":[-72.685093,41.763711]}},{"properties":{"city":"Plainville","geo_score":0.798,"id":"a67gipwjq7un","geo_precision":"city","state":"CT"},"type":"Feature","geometry":{"type":"Point","coordinates":[-71.924893,41.676856]}},{"properties":{"city":"Stafford Springs","geo_score":0.743,"id":"a67gippo2n6o","geo_precision":"city","state":"CT"},"type":"Feature","geometry":{"type":"Point","coordinates":[-72.223967,41.787043]}},{"properties":{"city":"Barkhamsted","geo_score":0.857,"id":"a67giq2efeqj","geo_precision":"city","state":"CT"},"type":"Feature","geometry":{"type":"Point","coordinates":[-72.91399,41.929263]}},{"properties":{"city":"New Britain","geo_score":0.857,"id":"a67gipsqgsue","geo_precision":"city","state":"CT"},"type":"Feature","geometry":{"type":"Point","coordinates":[-72.778391,41.666049]}},{"properties":{"city":"Bridgeport","geo_score":0.857,"id":"a67gipzjijzb","geo_precision":"city","state":"CT"},"type":"Feature","geometry":{"type":"Point","coordinates":[-73.204835,41.167041]}},