{"type":"FeatureCollection","data_type":"Dataset","url_type":null,"permissions":[{"permissions":{"download":true,"view":true},"group_id":"everyone"}],"classification":null,"title":"Darc au Pays 2012 - Wonder Brass Band","count":8,"stream_id":255651,"contributor":{"url":"http://geocommons.com/users/42827","name":"jflacou"},"data_attributes":null,"calculation_params":null,"icon_link":null,"link":"http://geocommons.com/overlays/255651.json","extent":[0.95124,46.4424,2.12085,47.0717],"geometry_types":["point"],"unique_name":null,"name":"Darc au Pays 2012 - Wonder Brass Band","feature_count":8,"description":"","next_feature":null,"is_raster":false,"short_classification":"Y","stats":{},"features":[{"properties":{"name":"Saint-Août","description":"14 août 201218h00 : <a href=\"http://www.wonderbrassband.fr\">Wonder Brass Band</a>","id":"a6ock8smw9h6"},"type":"Feature","geometry":{"type":"Point","coordinates":[1.96561,46.73174]}},{"properties":{"name":"Moulins-sur-Céphons","description":"15 août 201218h00 : <a href=\"http://www.wonderbrassband.fr\">Wonder Brass Band</a>","id":"a6ock8qzgcbw"},"type":"Feature","geometry":{"type":"Point","coordinates":[1.55492,47.0094]}},{"properties":{"name":"St-Christophe-en-Boucherie","description":"16 août 201218h00 : <a href=\"http://www.wonderbrassband.fr\">Wonder Brass Band</a>","id":"a6ock8vbe9n1"},"type":"Feature","geometry":{"type":"Point","coordinates":[2.12085,46.67793]}},{"properties":{"name":"Eguzon-Chantôme","description":"17 août 201218h00 : <a href=\"http://www.wonderbrassband.fr\">Wonder Brass Band</a>","id":"a6ock8pxikcm"},"type":"Feature","geometry":{"type":"Point","coordinates":[1.58184,46.44239]}},{"properties":{"name":"Argy, Château d'Argy","description":"18 août 201218h00 : <a href=\"http://www.wonderbrassband.fr\">Wonder Brass Band</a>","id":"a6ock8gv709i"},"type":"Feature","geometry":{"type":"Point","coordinates":[1.4367,46.9393]}},{"properties":{"name":"Lurais","description":"19 août 201218h00 : <a href=\"http://www.wonderbrassband.fr\">Wonder Brass Band</a>","id":"a6ock8pdsuep"},"type":"Feature","geometry":{"type":"Point","coordinates":[0.95124,46.70465]}},{"properties":{"name":"Crevant, Parc des Parelles","description":"20 août 201218h00 : <a href=\"http://www.wonderbrassband.fr\">Wonder Brass Band</a>","id":"a6ock8rilf7h"},"type":"Feature","geometry":{"type":"Point","coordinates":[1.93527,46.45944]}},{"properties":{"name":"Vatan","description":"21 août 201218h00 : <a href=\"http://www.wonderbrassband.fr\">Wonder Brass Band</a>","id":"a6ock8fwkgwx"},"type":"Feature","geometry":{"type":"Point","coordinates":[1.80882,47.0717]}}],"is_temporal":false,"author":{"url":"","metadata":"","contact_name":"","contact_address":"","source":"","contact_phone":""},"source":"","pagination":{"sort":null,"start":0,"total":8,"limit":1000000},"state":"complete","tags":"","published":"2014-08-14T22:21:52-04:00","id":255651}