{"type":"FeatureCollection","data_type":"Dataset","url_type":null,"permissions":[{"permissions":{"download":true,"view":true},"group_id":"everyone"}],"classification":null,"title":"\nmcampion's places\n","count":245,"stream_id":26850,"contributor":{"url":"http://geocommons.com/users/11444","name":"platial"},"data_attributes":null,"calculation_params":null,"icon_link":null,"link":"http://geocommons.com/overlays/26850.json","extent":[-123.247,-37.81,174.76,56.5],"geometry_types":["point"],"unique_name":null,"name":"\nmcampion's places\n","feature_count":245,"description":"\nA Map by Mcampion\n\n\n","next_feature":null,"is_raster":false,"short_classification":"Y","stats":{},"features":[{"properties":{"name":"Adrian Chao - Business","description":"Posted by Mcampion<img src=\"http://media.geocommons.com/platial/img/2009/10/0/13S1_CHAO,_Adrian_CHAO000005.Jpg\">Hong Kong University of Science and Technology<a title=\"Built for Community Mapping\" href=\"http://www.platial.com\"><img src=\"http://media.geocommons.com/platial/images/logotype_small.jpg\"></a>","id":"a63ugp4gmywv"},"type":"Feature","geometry":{"type":"Point","coordinates":[114.263447,22.336812]}},{"properties":{"name":"Adrian Sung - Economics","description":"Posted by Mcampion<img src=\"http://media.geocommons.com/platial/img/2009/10/0/13A2_SUNG,_Adrian_SUNG000006.Jpg\">exeter univeristy<a title=\"Built for Community Mapping\" href=\"http://www.platial.com\"><img src=\"http://media.geocommons.com/platial/images/logotype_small.jpg\"></a>","id":"a63ugp2btfb7"},"type":"Feature","geometry":{"type":"Point","coordinates":[-3.5356679,50.7344614]}},{"properties":{"name":"Alex Holden - English","description":"Posted by Mcampion<img src=\"http://media.geocommons.com/platial/img/2009/10/0/13T1_HOLDEN,_Alexandra_HOLD000003.Jpg\">Warwick University, UK<a title=\"Built for Community Mapping\" href=\"http://www.platial.com\"><img src=\"http://media.geocommons.com/platial/images/logotype_small.jpg\"></a>","id":"a63ugp0eswmy"},"type":"Feature","geometry":{"type":"Point","coordinates":[-1.556334,52.376614]}},{"properties":{"name":"Alvin Luk - Business","description":"Posted by Mcampion<img src=\"http://media.geocommons.com/platial/img/2009/10/0/13T1_LUK,_Alvin_LUK_000005.Jpg\">University of Leicester, UK<a title=\"Built for Community Mapping\" href=\"http://www.platial.com\"><img src=\"http://media.geocommons.com/platial/images/logotype_small.jpg\"></a>","id":"a63ugotmdka6"},"type":"Feature","geometry":{"type":"Point","coordinates":[-1.1256118,52.6222799]}},{"properties":{"name":"Amanda Lee - Art - Goldsmith's College","description":"Posted by Mcampion<img src=\"http://media.geocommons.com/platial/img/2009/10/0/13H2_LEE,_Amanda_LEE_000051.Jpg\">London,UK<a title=\"Built for Community Mapping\" href=\"http://www.platial.com\"><img src=\"http://media.geocommons.com/platial/images/logotype_small.jpg\"></a>","id":"a63ugoz4s1ye"},"type":"Feature","geometry":{"type":"Point","coordinates":[-0.116667,51.5]}},{"properties":{"name":"Amani Zaveri","description":"Posted by Mcampion<img src=\"http://media.geocommons.com/platial/img/2009/02/4/Amani_ZAVERI_(f).Jpg\">University of Connecticut<a title=\"Built for Community Mapping\" href=\"http://www.platial.com\"><img src=\"http://media.geocommons.com/platial/images/logotype_small.jpg\"></a>","id":"a63ugosckqn7"},"type":"Feature","geometry":{"type":"Point","coordinates":[-72.256739,41.807955]}},{"properties":{"name":"Amy Reed - Public Relations","description":"Posted by Mcampion<img src=\"http://media.geocommons.com/platial/img/2009/02/3/Amy_REED_(f).Jpg\">Leeds Metopolitan University<a title=\"Built for Community Mapping\" href=\"http://www.platial.com\"><img src=\"http://media.geocommons.com/platial/images/logotype_small.jpg\"></a>","id":"a63ugp52fbha"},"type":"Feature","geometry":{"type":"Point","coordinates":[-1.589922,53.8281873]}},{"properties":{"name":"Anders Lui - Politics","description":"Posted by Mcampion<img src=\"http://media.geocommons.com/platial/img/2009/10/0/13T2_LUI,_Anders_LUI_000127.Jpg\">exeter univeristy<a title=\"Built for Community Mapping\" href=\"http://www.platial.com\"><img src=\"http://media.geocommons.com/platial/images/logotype_small.jpg\"></a>","id":"a63ugoxm4lb7"},"type":"Feature","geometry":{"type":"Point","coordinates":[-3.5356679,50.7344614]}},{"properties":{"name":"Andrea Yung - Royal Veterinary College - Veterinary Nursing","description":"Posted by Mcampion<img src=\"http://media.geocommons.com/platial/img/2009/02/3/Andrea_YUNG_(f)_2_.Jpg\">London<a title=\"Built for Community Mapping\" href=\"http://www.platial.com\"><img src=\"http://media.geocommons.com/platial/images/logotype_small.jpg\"></a>","id":"a63ugox607a0"},"type":"Feature","geometry":{"type":"Point","coordinates":[-0.126197,51.500197]}},{"properties":{"name":"Andreas Wu - Film Production","description":"Posted by Mcampion<img src=\"http://media.geocommons.com/platial/img/2009/10/0/13J1_WU,_Andreas_WU__000009.Jpg\">St. John\\'s University, New York<a title=\"Built for Community Mapping\" href=\"http://www.platial.com\"><img src=\"http://media.geocommons.com/platial/images/logotype_small.jpg\"></a>","id":"a63ugoupuhzy"},"type":"Feature","geometry":{"type":"Point","coordinates":[-74.01242,40.715334]}},{"properties":{"name":"Andrew Bridle - Sports Management","description":"Posted by Mcampion<img src=\"http://media.geocommons.com/platial/img/2009/02/3/Andrew_BRIDLE_(f).Jpg\">Cardiff, UK<a title=\"Built for Community Mapping\" href=\"http://www.platial.com\"><img src=\"http://media.geocommons.com/platial/images/logotype_small.jpg\"></a>","id":"a63ugp6u4hz5"},"type":"Feature","geometry":{"type":"Point","coordinates":[-3.2,51.5]}},{"properties":{"name":"Andrew Lam - Accounting","description":"Posted by Mcampion<img src=\"http://media.geocommons.com/platial/img/2009/10/0/13A1_LAM,_Andrew_LAM_000021.Jpg\">Durham University, UK<a title=\"Built for Community Mapping\" href=\"http://www.platial.com\"><img src=\"http://media.geocommons.com/platial/images/logotype_small.jpg\"></a>","id":"a63ugp4a3chu"},"type":"Feature","geometry":{"type":"Point","coordinates":[-1.569641,54.775124]}},{"properties":{"name":"Angela Ma - Arts","description":"Posted by Mcampion<img src=\"http://media.geocommons.com/platial/img/2009/10/0/13A2_MA,_Angela_MA__000212.Jpg\">Chinese University Hong Kong<a title=\"Built for Community Mapping\" href=\"http://www.platial.com\"><img src=\"http://media.geocommons.com/platial/images/logotype_small.jpg\"></a>","id":"a63ugp24tiov"},"type":"Feature","geometry":{"type":"Point","coordinates":[114.2068122,22.4191224]}},{"properties":{"name":"Anri Tanaka - Nutrition","description":"Posted by Mcampion<img src=\"http://media.geocommons.com/platial/img/2009/10/0/13S1_TANAKA,_Anri_TANA000003.Jpg\">King\\'s College, London<a title=\"Built for Community Mapping\" href=\"http://www.platial.com\"><img src=\"http://media.geocommons.com/platial/images/logotype_small.jpg\"></a>","id":"a63ugoviob8o"},"type":"Feature","geometry":{"type":"Point","coordinates":[-0.1164971,51.5121533]}},{"properties":{"name":"Anson Wan - Architecture","description":"Posted by Mcampion<img src=\"http://media.geocommons.com/platial/img/2009/10/0/13J1_WAN,_Anson_WAN_000092.Jpg\">Chinese University Hong Kong<a title=\"Built for Community Mapping\" href=\"http://www.platial.com\"><img src=\"http://media.geocommons.com/platial/images/logotype_small.jpg\"></a>","id":"a63ugp615fte"},"type":"Feature","geometry":{"type":"Point","coordinates":[114.2068122,22.4191224]}},{"properties":{"name":"Anson Wong - Marketing","description":"Posted by Mcampion<img src=\"http://media.geocommons.com/platial/img/2009/10/0/13H1_WONG,_Anson_WONG001675.Jpg\">Boston University, Boston, MA<a title=\"Built for Community Mapping\" href=\"http://www.platial.com\"><img src=\"http://media.geocommons.com/platial/images/logotype_small.jpg\"></a>","id":"a63ugozb2cpt"},"type":"Feature","geometry":{"type":"Point","coordinates":[-71.101871,42.350404]}},{"properties":{"name":"Antoinette Chan - Law - Univ.of Bristol","description":"Posted by Mcampion<img src=\"http://media.geocommons.com/platial/img/2009/10/0/13S1_CHAN,_Antoinette_CHAN000049_2_.Jpg\">Bristol, UK<a title=\"Built for Community Mapping\" href=\"http://www.platial.com\"><img src=\"http://media.geocommons.com/platial/images/logotype_small.jpg\"></a>","id":"a63ugp1b82bm"},"type":"Feature","geometry":{"type":"Point","coordinates":[-2.583333,51.450001]}},{"properties":{"name":"Ashley Cooper - Performance","description":"Posted by Mcampion<img src=\"http://media.geocommons.com/platial/img/2009/10/0/13M2_COOPER,_Ashley_COOP000010.Jpg\">London,UK<a title=\"Built for Community Mapping\" href=\"http://www.platial.com\"><img src=\"http://media.geocommons.com/platial/images/logotype_small.jpg\"></a>","id":"a63ugp59vdo1"},"type":"Feature","geometry":{"type":"Point","coordinates":[-0.116667,51.5]}},{"properties":{"name":"Benson Wong - Accounting","description":"Posted by Mcampion<img src=\"http://media.geocommons.com/platial/img/2009/10/0/13M2_WONG,_Benson_WONG001658.Jpg\">University of Nottingham, UK<a title=\"Built for Community Mapping\" href=\"http://www.platial.com\"><img src=\"http://media.geocommons.com/platial/images/logotype_small.jpg\"></a>","id":"a63ugoubv3s4"},"type":"Feature","geometry":{"type":"Point","coordinates":[-1.191556,52.94429]}},{"properties":{"name":"Berangere Altier - Liberal Arts","description":"Posted by Mcampion<img src=\"http://media.geocommons.com/platial/img/2009/10/0/13A2_ALTIER,_Berangere_ALTI000001.Jpg\">Loyola Marymount University, Los Angeles<a title=\"Built for Community Mapping\" href=\"http://www.platial.com\"><img src=\"http://media.geocommons.com/platial/images/logotype_small.jpg\"></a>","id":"a63ugp34jjlg"},"type":"Feature","geometry":{"type":"Point","coordinates":[-118.415787,33.966696]}},{"properties":{"name":"Bhavdeep Dhingra - Automotive &amp; Motorsport","description":"Posted by Mcampion<img src=\"http://media.geocommons.com/platial/img/2009/02/3/Bhavdeep_DHINGRA_(f)_3_.Jpg\">City University of Hong Kong<a title=\"Built for Community Mapping\" href=\"http://www.platial.com\"><img src=\"http://media.geocommons.com/platial/images/logotype_small.jpg\"></a>","id":"a63ugoth3bcd"},"type":"Feature","geometry":{"type":"Point","coordinates":[114.173262,22.336363]}},{"properties":{"name":"Bonnie Leong - Design","description":"Posted by Mcampion<img src=\"http://media.geocommons.com/platial/img/2009/02/3/Bonnie_LEONG(f).Jpg\">Hong Kong Polytechnic University<a title=\"Built for Community Mapping\" href=\"http://www.platial.com\"><img src=\"http://media.geocommons.com/platial/images/logotype_small.jpg\"></a>","id":"a63ugp0smrvf"},"type":"Feature","geometry":{"type":"Point","coordinates":[114.179575,22.303518]}},{"properties":{"name":"Boris Wong - Pharmacy","description":"Posted by Mcampion<img src=\"http://media.geocommons.com/platial/img/2009/02/3/Boris_WONG_(f).Jpg\">Loughborough<a title=\"Built for Community Mapping\" href=\"http://www.platial.com\"><img src=\"http://media.geocommons.com/platial/images/logotype_small.jpg\"></a>","id":"a63ugp28e2sj"},"type":"Feature","geometry":{"type":"Point","coordinates":[-1.2,52.766666]}},{"properties":{"name":"Brian Koo - Architectural","description":"Posted by Mcampion<img src=\"http://media.geocommons.com/platial/img/2009/02/3/Brian_KOO_(f).Jpg\">HKU SPACE<a title=\"Built for Community Mapping\" href=\"http://www.platial.com\"><img src=\"http://media.geocommons.com/platial/images/logotype_small.jpg\"></a>","id":"a63ugp6epvy0"},"type":"Feature","geometry":{"type":"Point","coordinates":[114.211002,22.324276]}},{"properties":{"name":"Bryan Chapman - Architectural Engineering","description":"Posted by Mcampion<img src=\"http://media.geocommons.com/platial/img/2009/02/3/Bryan_CHAPMAN(f).Jpg\">Bath<a title=\"Built for Community Mapping\" href=\"http://www.platial.com\"><img src=\"http://media.geocommons.com/platial/images/logotype_small.jpg\"></a>","id":"a63ugoyor6as"},"type":"Feature","geometry":{"type":"Point","coordinates":[-2.357483,51.381443]}},{"properties":{"name":"Cahrles Ng - Art and Design","description":"Posted by Mcampion<img src=\"http://media.geocommons.com/platial/img/2009/02/4/Charles_NG_(f).Jpg\">Pratt Institute, New York<a title=\"Built for Community Mapping\" href=\"http://www.platial.com\"><img src=\"http://media.geocommons.com/platial/images/logotype_small.jpg\"></a>","id":"a63ugp4h8s3s"},"type":"Feature","geometry":{"type":"Point","coordinates":[-73.964069,40.691184]}},{"properties":{"name":"Campbell Sewell - Science","description":"Posted by Mcampion<img src=\"http://media.geocommons.com/platial/img/2009/02/3/Campbell_SEWELL_(f)_2_.Jpg\">Monash, Australia<a title=\"Built for Community Mapping\" href=\"http://www.platial.com\"><img src=\"http://media.geocommons.com/platial/images/logotype_small.jpg\"></a>","id":"a63ugoxiogxs"},"type":"Feature","geometry":{"type":"Point","coordinates":[140.557623,-34.238211]}},{"properties":{"name":"Carly Cheung - Queen Mary College - Law","description":"Posted by Mcampion<img src=\"http://media.geocommons.com/platial/img/2009/10/0/13A1_CHUNG,_Carly_CHUN000019_2_.Jpg\">London,UK<a title=\"Built for Community Mapping\" href=\"http://www.platial.com\"><img src=\"http://media.geocommons.com/platial/images/logotype_small.jpg\"></a>","id":"a63ugoxyktnu"},"type":"Feature","geometry":{"type":"Point","coordinates":[-0.116667,51.5]}},{"properties":{"name":"Catherine Keighley - Fashion","description":"Posted by Mcampion<img src=\"http://media.geocommons.com/platial/img/2009/10/0/13T1_KEIGHLEY,_Catherine_KEIG000003.Jpg\">Lodx<a title=\"Built for Community Mapping\" href=\"http://www.platial.com\"><img src=\"http://media.geocommons.com/platial/images/logotype_small.jpg\"></a>","id":"a63ugp7se5bq"},"type":"Feature","geometry":{"type":"Point","coordinates":[-0.126236,51.500152]}},{"properties":{"name":"Chan Young Jung - Medicine","description":"Posted by McampionYonsei University, Korea<a title=\"Built for Community Mapping\" href=\"http://www.platial.com\"><img src=\"http://media.geocommons.com/platial/images/logotype_small.jpg\"></a>","id":"a63ugouxnbax"},"type":"Feature","geometry":{"type":"Point","coordinates":[126.9377235,37.5641455]}},{"properties":{"name":"Charlene Cann - Applying","description":"Posted by Mcampion<img src=\"http://media.geocommons.com/platial/img/2009/10/0/13J1_CANN,_Charlene_CANN000003.Jpg\">Australia<a title=\"Built for Community Mapping\" href=\"http://www.platial.com\"><img src=\"http://media.geocommons.com/platial/images/logotype_small.jpg\"></a>","id":"a63ugows1ufn"},"type":"Feature","geometry":{"type":"Point","coordinates":[136.004555,-32.402641]}},{"properties":{"name":"Charlie Kim - Business","description":"Posted by Mcampion<img src=\"http://media.geocommons.com/platial/img/2009/10/0/13S2_KIM,_Charlie_KIM_000021.Jpg\">USC<a title=\"Built for Community Mapping\" href=\"http://www.platial.com\"><img src=\"http://media.geocommons.com/platial/images/logotype_small.jpg\"></a>","id":"a63ugowpl0uw"},"type":"Feature","geometry":{"type":"Point","coordinates":[-118.283301,34.018503]}},{"properties":{"name":"Charlotte Webb - Primary Education","description":"Posted by Mcampion<img src=\"http://media.geocommons.com/platial/img/2009/10/0/13T2_WEBB,_Charlotte_WEBB000004.Jpg\">Oxford Brookes University, UK<a title=\"Built for Community Mapping\" href=\"http://www.platial.com\"><img src=\"http://media.geocommons.com/platial/images/logotype_small.jpg\"></a>","id":"a63ugou9839o"},"type":"Feature","geometry":{"type":"Point","coordinates":[-1.2228136,51.7544655]}},{"properties":{"name":"Cherie Wong - Instituo Europeo di Design - Fashion","description":"Posted by Mcampion<img src=\"http://media.geocommons.com/platial/img/2009/10/0/13T2_WONG,_Cherie_WONG001188.Jpg\">Milan<a title=\"Built for Community Mapping\" href=\"http://www.platial.com\"><img src=\"http://media.geocommons.com/platial/images/logotype_small.jpg\"></a>","id":"a63ugp675ivw"},"type":"Feature","geometry":{"type":"Point","coordinates":[9.188199,45.463668]}},{"properties":{"name":"Cherry Ho - Business","description":"Posted by Mcampion<img src=\"http://media.geocommons.com/platial/img/2009/10/0/13M1_HO,_Cherry_HO__000031.Jpg\">King\\'s College, London<a title=\"Built for Community Mapping\" href=\"http://www.platial.com\"><img src=\"http://media.geocommons.com/platial/images/logotype_small.jpg\"></a>","id":"a63ugozk7sv6"},"type":"Feature","geometry":{"type":"Point","coordinates":[-0.1164971,51.5121533]}},{"properties":{"name":"Chin Chin Wong - Technology","description":"Posted by Mcampion<img src=\"http://media.geocommons.com/platial/img/2009/10/0/13S2_WONG,_Chin_Chin_WONG001784.Jpg\">Hong Kong Polytechnic University<a title=\"Built for Community Mapping\" href=\"http://www.platial.com\"><img src=\"http://media.geocommons.com/platial/images/logotype_small.jpg\"></a>","id":"a63ugp6oxazh"},"type":"Feature","geometry":{"type":"Point","coordinates":[114.179575,22.303518]}},{"properties":{"name":"Chris Wong - Physics","description":"Posted by Mcampion<img src=\"http://media.geocommons.com/platial/img/2009/10/0/13T2_WONG,_Christopher_WONG000068.Jpg\">University College Lodon<a title=\"Built for Community Mapping\" href=\"http://www.platial.com\"><img src=\"http://media.geocommons.com/platial/images/logotype_small.jpg\"></a>","id":"a63ugp164pg5"},"type":"Feature","geometry":{"type":"Point","coordinates":[-0.1337464,51.5246053]}},{"properties":{"name":"Christy Takeuchi - History","description":"Posted by Mcampion<img src=\"http://media.geocommons.com/platial/img/2009/02/3/Christy_TAKEUCHI_(f).Jpg\">Durham, uk<a title=\"Built for Community Mapping\" href=\"http://www.platial.com\"><img src=\"http://media.geocommons.com/platial/images/logotype_small.jpg\"></a>","id":"a63ugp0cn7lt"},"type":"Feature","geometry":{"type":"Point","coordinates":[-1.566667,54.766666]}},{"properties":{"name":"Chu Yu Lau - Social Science","description":"Posted by Mcampion<img src=\"http://media.geocommons.com/platial/img/2009/02/3/Chun_Yu_LAU_(f)_2_.Jpg\">HKU SPACE<a title=\"Built for Community Mapping\" href=\"http://www.platial.com\"><img src=\"http://media.geocommons.com/platial/images/logotype_small.jpg\"></a>","id":"a63ugoymv4li"},"type":"Feature","geometry":{"type":"Point","coordinates":[114.211002,22.324276]}},{"properties":{"name":"Chun Hei Chow - Engineering","description":"Posted by Mcampion<img src=\"http://media.geocommons.com/platial/img/2009/10/0/13T2_CHOW,_Chun_Hei_CHOW000010.Jpg\">Warwick University, UK<a title=\"Built for Community Mapping\" href=\"http://www.platial.com\"><img src=\"http://media.geocommons.com/platial/images/logotype_small.jpg\"></a>","id":"a63ugozkkvhd"},"type":"Feature","geometry":{"type":"Point","coordinates":[-1.556334,52.376614]}},{"properties":{"name":"Cindy Lo - Economics","description":"Posted by Mcampion<img src=\"http://media.geocommons.com/platial/img/2009/10/0/13J2_LO,_Cindy_LO__000018.Jpg\">New York University<a title=\"Built for Community Mapping\" href=\"http://www.platial.com\"><img src=\"http://media.geocommons.com/platial/images/logotype_small.jpg\"></a>","id":"a63ugozcmsxv"},"type":"Feature","geometry":{"type":"Point","coordinates":[-73.99655,40.728294]}},{"properties":{"name":"Claire Randell - UCCA - Film Production","description":"Posted by Mcampion<img src=\"http://media.geocommons.com/platial/img/2009/10/0/13S2_RANDELL,_Claire_RAND000003.Jpg\">Kent, UK<a title=\"Built for Community Mapping\" href=\"http://www.platial.com\"><img src=\"http://media.geocommons.com/platial/images/logotype_small.jpg\"></a>","id":"a63ugotyjfwk"},"type":"Feature","geometry":{"type":"Point","coordinates":[0.75,51.25]}},{"properties":{"name":"Claudia Yung - Fashion","description":"Posted by Mcampion<img src=\"http://media.geocommons.com/platial/img/2009/10/0/13M1_YUNG,_Claudia_YUNG000005.Jpg\">Parsons, New york<a title=\"Built for Community Mapping\" href=\"http://www.platial.com\"><img src=\"http://media.geocommons.com/platial/images/logotype_small.jpg\"></a>","id":"a63ugp7wd180"},"type":"Feature","geometry":{"type":"Point","coordinates":[-73.9941667,40.7352778]}},{"properties":{"name":"Cosmo Ng","description":"Posted by Mcampion<img src=\"http://media.geocommons.com/platial/img/2009/02/3/Cosmo_NG_(f).Jpg\">Auckland, NZ<a title=\"Built for Community Mapping\" href=\"http://www.platial.com\"><img src=\"http://media.geocommons.com/platial/images/logotype_small.jpg\"></a>","id":"a63ugp18r5lb"},"type":"Feature","geometry":{"type":"Point","coordinates":[174.759994,-36.849998]}},{"properties":{"name":"Courtney Yeung - Commerce","description":"Posted by Mcampion<img src=\"http://media.geocommons.com/platial/img/2009/02/3/Courtney_Yeung_(f).Jpg\">Concordia, Canada<a title=\"Built for Community Mapping\" href=\"http://www.platial.com\"><img src=\"http://media.geocommons.com/platial/images/logotype_small.jpg\"></a>","id":"a63ugoxlm9ua"},"type":"Feature","geometry":{"type":"Point","coordinates":[-73.6360079,45.4584047]}},{"properties":{"name":"Cynthia Tong - English &amp; Education","description":"Posted by Mcampion<img src=\"http://media.geocommons.com/platial/img/2009/02/3/Cynthia_TONG_(f)_3_.Jpg\">The University Of Hong Kong, Hong Kong Island, Hong Kong<a title=\"Built for Community Mapping\" href=\"http://www.platial.com\"><img src=\"http://media.geocommons.com/platial/images/logotype_small.jpg\"></a>","id":"a63ugowfo5ap"},"type":"Feature","geometry":{"type":"Point","coordinates":[114.1390612,22.2815427]}},{"properties":{"name":"Daniella Means - Management","description":"Posted by Mcampion<img src=\"http://media.geocommons.com/platial/img/2009/02/3/Daniella_MEANS_(f).Jpg\">Nottingham<a title=\"Built for Community Mapping\" href=\"http://www.platial.com\"><img src=\"http://media.geocommons.com/platial/images/logotype_small.jpg\"></a>","id":"a63ugoxixbsp"},"type":"Feature","geometry":{"type":"Point","coordinates":[-1.1493,52.955073]}},{"properties":{"name":"Darryl Yu","description":"Posted by Mcampion<img src=\"http://media.geocommons.com/platial/img/2009/02/4/Darryl_YU(f).Jpg\">Fordham University, New York<a title=\"Built for Community Mapping\" href=\"http://www.platial.com\"><img src=\"http://media.geocommons.com/platial/images/logotype_small.jpg\"></a>","id":"a63ugp2if65y"},"type":"Feature","geometry":{"type":"Point","coordinates":[-73.886392,40.862243]}},{"properties":{"name":"David Fishwick - History","description":"Posted by Mcampion<img src=\"http://media.geocommons.com/platial/img/2009/02/4/David_FISHWICK_(f)_2_.Jpg\">worcester, uk<a title=\"Built for Community Mapping\" href=\"http://www.platial.com\"><img src=\"http://media.geocommons.com/platial/images/logotype_small.jpg\"></a>","id":"a63ugowjbrua"},"type":"Feature","geometry":{"type":"Point","coordinates":[-2.2,52.200001]}},{"properties":{"name":"David Foster - Economics","description":"Posted by Mcampion<img src=\"http://media.geocommons.com/platial/img/2009/10/0/13H2_FOSTER,_David_FOST000007.Jpg\">Brunel University, Hillingdon, Greater London, UK<a title=\"Built for Community Mapping\" href=\"http://www.platial.com\"><img src=\"http://media.geocommons.com/platial/images/logotype_small.jpg\"></a>","id":"a63ugotr42qy"},"type":"Feature","geometry":{"type":"Point","coordinates":[-0.4727778,51.5327778]}},{"properties":{"name":"Dawn Yung - Business","description":"Posted by Mcampion<img src=\"http://media.geocommons.com/platial/img/2009/10/0/13S1_YUNG,_Dawn_YUNG000006.Jpg\">Winchester, UK<a title=\"Built for Community Mapping\" href=\"http://www.platial.com\"><img src=\"http://media.geocommons.com/platial/images/logotype_small.jpg\"></a>","id":"a63ugp2p7ho5"},"type":"Feature","geometry":{"type":"Point","coordinates":[-1.316667,51.016666]}},{"properties":{"name":"Derek Lai - Aviation Engineering","description":"Posted by Mcampion<img src=\"http://media.geocommons.com/platial/img/2009/02/4/Derek_LAI_(f).Jpg\">Kingston University, London<a title=\"Built for Community Mapping\" href=\"http://www.platial.com\"><img src=\"http://media.geocommons.com/platial/images/logotype_small.jpg\"></a>","id":"a63ugou7lzm4"},"type":"Feature","geometry":{"type":"Point","coordinates":[-0.2685,51.42935]}},{"properties":{"name":"Derryck See - Software Engineering","description":"Posted by Mcampion<img src=\"http://media.geocommons.com/platial/img/2009/02/3/Derryck_SEE_(f)_2_.Jpg\">Florida Institute of Technology<a title=\"Built for Community Mapping\" href=\"http://www.platial.com\"><img src=\"http://media.geocommons.com/platial/images/logotype_small.jpg\"></a>","id":"a63ugoukxvvp"},"type":"Feature","geometry":{"type":"Point","coordinates":[-80.624483,28.065772]}},{"properties":{"name":"Dhanesh Bharvani","description":"Posted by Mcampion<img src=\"http://media.geocommons.com/platial/img/2009/10/0/13H2_BHARVANI,_Dhanesh_BHAR000006.Jpg\">emory university<a title=\"Built for Community Mapping\" href=\"http://www.platial.com\"><img src=\"http://media.geocommons.com/platial/images/logotype_small.jpg\"></a>","id":"a63ugp1sct94"},"type":"Feature","geometry":{"type":"Point","coordinates":[-84.323333,33.791111]}},{"properties":{"name":"Dickson Jim - Applying","description":"Posted by Mcampion<img src=\"http://media.geocommons.com/platial/img/2009/10/0/13H1_JIM,_Dickson_JIM_000006.Jpg\">Australia<a title=\"Built for Community Mapping\" href=\"http://www.platial.com\"><img src=\"http://media.geocommons.com/platial/images/logotype_small.jpg\"></a>","id":"a63ugp813elh"},"type":"Feature","geometry":{"type":"Point","coordinates":[136.004555,-32.402641]}},{"properties":{"name":"Dominic Lee - Business","description":"Posted by Mcampion<img src=\"http://media.geocommons.com/platial/img/2009/10/0/13S1_LEE,_Dominic_LEE_000053.Jpg\">Hong Kong University of Science and Technology<a title=\"Built for Community Mapping\" href=\"http://www.platial.com\"><img src=\"http://media.geocommons.com/platial/images/logotype_small.jpg\"></a>","id":"a63ugoum579h"},"type":"Feature","geometry":{"type":"Point","coordinates":[114.263447,22.336812]}},{"properties":{"name":"Edmund Rolston - Drama","description":"Posted by Mcampion<img src=\"http://media.geocommons.com/platial/img/2009/02/3/Edmund_ROLSTON(f).Jpg\">Loughborough<a title=\"Built for Community Mapping\" href=\"http://www.platial.com\"><img src=\"http://media.geocommons.com/platial/images/logotype_small.jpg\"></a>","id":"a63ugouxljd2"},"type":"Feature","geometry":{"type":"Point","coordinates":[-1.2,52.766666]}},{"properties":{"name":"Edward Murchie - Law - Univ.of Bristol","description":"Posted by Mcampion<img src=\"http://media.geocommons.com/platial/img/2009/10/0/13J1_MURCHIE,_Edward_MURC000003_3_.Jpg\">Bristol, UK<a title=\"Built for Community Mapping\" href=\"http://www.platial.com\"><img src=\"http://media.geocommons.com/platial/images/logotype_small.jpg\"></a>","id":"a63ugoziq5m1"},"type":"Feature","geometry":{"type":"Point","coordinates":[-2.583333,51.450001]}},{"properties":{"name":"Edwina Leung - Film","description":"Posted by Mcampion<img src=\"http://media.geocommons.com/platial/img/2009/02/3/Edwina_LEUNG_(f)_2_.Jpg\">University of British Columbia<a title=\"Built for Community Mapping\" href=\"http://www.platial.com\"><img src=\"http://media.geocommons.com/platial/images/logotype_small.jpg\"></a>","id":"a63ugp1d0ah9"},"type":"Feature","geometry":{"type":"Point","coordinates":[-123.24307,49.25727]}},{"properties":{"name":"Elsa Chan - Liberal Arts","description":"Posted by Mcampion<img src=\"http://media.geocommons.com/platial/img/2009/10/0/13H2_CHAN,_Elsa_CHAN000048.Jpg\">UCLA<a title=\"Built for Community Mapping\" href=\"http://www.platial.com\"><img src=\"http://media.geocommons.com/platial/images/logotype_small.jpg\"></a>","id":"a63ugozstqmx"},"type":"Feature","geometry":{"type":"Point","coordinates":[-118.443046,34.071988]}},{"properties":{"name":"Emma Harvey - Sports Science","description":"Posted by Mcampion<img src=\"http://media.geocommons.com/platial/img/2009/10/0/13T1_HARVEY,_Emma_HARV000005.Jpg\">UWIC, Cardiff, UK<a title=\"Built for Community Mapping\" href=\"http://www.platial.com\"><img src=\"http://media.geocommons.com/platial/images/logotype_small.jpg\"></a>","id":"a63ugoy71m1p"},"type":"Feature","geometry":{"type":"Point","coordinates":[-3.16236,51.51047]}},{"properties":{"name":"Eric Lee - Economics","description":"Posted by Mcampion<img src=\"http://media.geocommons.com/platial/img/2009/10/0/13M1_LEE,_Eric_LEE_000047.Jpg\">The University Of Hong Kong, Hong Kong Island, Hong Kong<a title=\"Built for Community Mapping\" href=\"http://www.platial.com\"><img src=\"http://media.geocommons.com/platial/images/logotype_small.jpg\"></a>","id":"a63ugoz4e8pr"},"type":"Feature","geometry":{"type":"Point","coordinates":[114.1390612,22.2815427]}},{"properties":{"name":"Eric Lee - Economics","description":"Posted by McampionThe University Of Hong Kong, Hong Kong Island, Hong Kong<a title=\"Built for Community Mapping\" href=\"http://www.platial.com\"><img src=\"http://media.geocommons.com/platial/images/logotype_small.jpg\"></a>","id":"a63ugp3wtlq4"},"type":"Feature","geometry":{"type":"Point","coordinates":[114.1390612,22.2815427]}},{"properties":{"name":"Eric Tsang - Business","description":"Posted by Mcampion<img src=\"http://media.geocommons.com/platial/img/2009/10/0/13T1_TSANG,_Eric_TSAN000012.Jpg\">York University, Canada<a title=\"Built for Community Mapping\" href=\"http://www.platial.com\"><img src=\"http://media.geocommons.com/platial/images/logotype_small.jpg\"></a>","id":"a63ugp11afmw"},"type":"Feature","geometry":{"type":"Point","coordinates":[-79.483552,43.7791845]}},{"properties":{"name":"Erica Ying - Law","description":"Posted by Mcampion<img src=\"http://media.geocommons.com/platial/img/2009/10/0/13A2_YING,_Erica_YING000003.Jpg\">Chinese University Hong Kong<a title=\"Built for Community Mapping\" href=\"http://www.platial.com\"><img src=\"http://media.geocommons.com/platial/images/logotype_small.jpg\"></a>","id":"a63ugp6fh4rk"},"type":"Feature","geometry":{"type":"Point","coordinates":[114.2068122,22.4191224]}},{"properties":{"name":"Erika Kawahara - Liberal Arts","description":"Posted by Mcampion<img src=\"http://media.geocommons.com/platial/img/2009/10/0/13J2_KAWAHARA,_Erika_KAWA000009.Jpg\">Georgetown University, Washington, DC<a title=\"Built for Community Mapping\" href=\"http://www.platial.com\"><img src=\"http://media.geocommons.com/platial/images/logotype_small.jpg\"></a>","id":"a63ugoz09vnb"},"type":"Feature","geometry":{"type":"Point","coordinates":[-77.075946,38.912065]}},{"properties":{"name":"Ernest Kao - Law - Brunel University","description":"Posted by Mcampion<img src=\"http://media.geocommons.com/platial/img/2009/02/4/Ernest_KAO_(f).Jpg\">Brunel, London<a title=\"Built for Community Mapping\" href=\"http://www.platial.com\"><img src=\"http://media.geocommons.com/platial/images/logotype_small.jpg\"></a>","id":"a63ugp6b376i"},"type":"Feature","geometry":{"type":"Point","coordinates":[-0.0522778,51.5005149]}},{"properties":{"name":"Esther Cho - Liberal Arts","description":"Posted by Mcampion<img src=\"http://media.geocommons.com/platial/img/2009/10/0/13H1_CHO,_Esther_CHO_000004.Jpg\">Univeristy of Washington, Washington<a title=\"Built for Community Mapping\" href=\"http://www.platial.com\"><img src=\"http://media.geocommons.com/platial/images/logotype_small.jpg\"></a>","id":"a63ugp80nkls"},"type":"Feature","geometry":{"type":"Point","coordinates":[-122.306179,47.65391]}},{"properties":{"name":"Ewa Pieczonka - European Legal Studies","description":"Posted by Mcampion<img src=\"http://media.geocommons.com/platial/img/2009/02/4/Ewa_PIECZONKA(f)_2_.Jpg\">Westminster University, London<a title=\"Built for Community Mapping\" href=\"http://www.platial.com\"><img src=\"http://media.geocommons.com/platial/images/logotype_small.jpg\"></a>","id":"a63ugozg74lp"},"type":"Feature","geometry":{"type":"Point","coordinates":[-0.325984,51.5773673]}},{"properties":{"name":"Felix Leung - Ecology and Environmental Biology","description":"Posted by Mcampion<img src=\"http://media.geocommons.com/platial/img/2009/02/3/Felix_LEUNG_(f)_2_.Jpg\">Imperial College London<a title=\"Built for Community Mapping\" href=\"http://www.platial.com\"><img src=\"http://media.geocommons.com/platial/images/logotype_small.jpg\"></a>","id":"a63ugp4g7flc"},"type":"Feature","geometry":{"type":"Point","coordinates":[-0.1776,51.49979]}},{"properties":{"name":"Fiona Chow - Sociology","description":"Posted by Mcampion<img src=\"http://media.geocommons.com/platial/img/2009/02/3/Fiona_CHOW_(f)_2_.Jpg\">University of Toronto<a title=\"Built for Community Mapping\" href=\"http://www.platial.com\"><img src=\"http://media.geocommons.com/platial/images/logotype_small.jpg\"></a>","id":"a63ugox3ro4y"},"type":"Feature","geometry":{"type":"Point","coordinates":[-79.461483,43.785128]}},{"properties":{"name":"Fiona Fung - Law","description":"Posted by Mcampion<img src=\"http://media.geocommons.com/platial/img/2009/10/0/13A2_FUNG,_Fiona_FUNG000249.Jpg\">Keele University. UK<a title=\"Built for Community Mapping\" href=\"http://www.platial.com\"><img src=\"http://media.geocommons.com/platial/images/logotype_small.jpg\"></a>","id":"a63ugp1s91vz"},"type":"Feature","geometry":{"type":"Point","coordinates":[-2.2715907,53.0033991]}},{"properties":{"name":"Fiona Gourlay-Grant - Scriptwriting and Performance","description":"Posted by Mcampion<img src=\"http://media.geocommons.com/platial/img/2009/02/3/Fiona_GOURLAY_GRANT_(f)_2_.Jpg\">East Anglia, UK<a title=\"Built for Community Mapping\" href=\"http://www.platial.com\"><img src=\"http://media.geocommons.com/platial/images/logotype_small.jpg\"></a>","id":"a63ugp2pjel9"},"type":"Feature","geometry":{"type":"Point","coordinates":[1.239957,52.627308]}},{"properties":{"name":"Florence Li - Medicine","description":"Posted by Mcampion<img src=\"http://media.geocommons.com/platial/img/2009/02/3/Florence_LI_(f).Jpg\">Sheffield<a title=\"Built for Community Mapping\" href=\"http://www.platial.com\"><img src=\"http://media.geocommons.com/platial/images/logotype_small.jpg\"></a>","id":"a63ugp7bvzfe"},"type":"Feature","geometry":{"type":"Point","coordinates":[-1.464807,53.38304]}},{"properties":{"name":"Gabriel Ma - Music","description":"Posted by Mcampion<img src=\"http://media.geocommons.com/platial/img/2009/10/0/13T2_MA,_Gabriel_MA__000017.Jpg\">Indiana University, Bloomington<a title=\"Built for Community Mapping\" href=\"http://www.platial.com\"><img src=\"http://media.geocommons.com/platial/images/logotype_small.jpg\"></a>","id":"a63ugp7hrtiz"},"type":"Feature","geometry":{"type":"Point","coordinates":[-86.526944,39.166757]}},{"properties":{"name":"Gareth Lai - Business","description":"Posted by Mcampion<img src=\"http://media.geocommons.com/platial/img/2009/10/0/13T1_LAI,_Gareth_Christopher_LAI_000283.Jpg\">The University Of Hong Kong, Hong Kong Island, Hong Kong<a title=\"Built for Community Mapping\" href=\"http://www.platial.com\"><img src=\"http://media.geocommons.com/platial/images/logotype_small.jpg\"></a>","id":"a63ugp09ahdn"},"type":"Feature","geometry":{"type":"Point","coordinates":[114.1390612,22.2815427]}},{"properties":{"name":"Gary Lau - Business Studies","description":"Posted by Mcampion<img src=\"http://media.geocommons.com/platial/img/2009/02/3/Gary_LAU(f).Jpg\">Manchester University<a title=\"Built for Community Mapping\" href=\"http://www.platial.com\"><img src=\"http://media.geocommons.com/platial/images/logotype_small.jpg\"></a>","id":"a63ugp5jrkbl"},"type":"Feature","geometry":{"type":"Point","coordinates":[-2.233202,53.465596]}},{"properties":{"name":"Genevieve Lam - Politics","description":"Posted by Mcampion<img src=\"http://media.geocommons.com/platial/img/2009/10/0/13H1_LAM,_Genevieve_LAM_000372.Jpg\">University of Hull, UK<a title=\"Built for Community Mapping\" href=\"http://www.platial.com\"><img src=\"http://media.geocommons.com/platial/images/logotype_small.jpg\"></a>","id":"a63ugov3z9jz"},"type":"Feature","geometry":{"type":"Point","coordinates":[-0.3681636,53.769761]}},{"properties":{"name":"Georgina Taylor - Marketing","description":"Posted by Mcampion<img src=\"http://media.geocommons.com/platial/img/2009/10/0/13J2_TAYLOR,_Georgina_TAYL000007.Jpg\">Oxford Brookes University, UK<a title=\"Built for Community Mapping\" href=\"http://www.platial.com\"><img src=\"http://media.geocommons.com/platial/images/logotype_small.jpg\"></a>","id":"a63ugp54zypw"},"type":"Feature","geometry":{"type":"Point","coordinates":[-1.2228136,51.7544655]}},{"properties":{"name":"Hamish Campbell - Performing Arts","description":"Posted by Mcampion<img src=\"http://media.geocommons.com/platial/img/2009/10/0/13M1_CAMPBELL,_Hamish_CAMP000006.Jpg\">Brunel University, London<a title=\"Built for Community Mapping\" href=\"http://www.platial.com\"><img src=\"http://media.geocommons.com/platial/images/logotype_small.jpg\"></a>","id":"a63ugoxum67k"},"type":"Feature","geometry":{"type":"Point","coordinates":[-0.46803,51.53375]}},{"properties":{"name":"Hannah Tsoi - Philosophy &amp; Politics","description":"Posted by Mcampion<img src=\"http://media.geocommons.com/platial/img/2009/02/3/Hannah_TSOI(f).Jpg\">Durham, uk<a title=\"Built for Community Mapping\" href=\"http://www.platial.com\"><img src=\"http://media.geocommons.com/platial/images/logotype_small.jpg\"></a>","id":"a63ugp558i1b"},"type":"Feature","geometry":{"type":"Point","coordinates":[-1.566667,54.766666]}},{"properties":{"name":"Heather Ho - Foundation Design","description":"Posted by Mcampion<img src=\"http://media.geocommons.com/platial/img/2009/10/0/13M1_HO,_Heather_HO__000032.Jpg\">Lodx<a title=\"Built for Community Mapping\" href=\"http://www.platial.com\"><img src=\"http://media.geocommons.com/platial/images/logotype_small.jpg\"></a>","id":"a63ugp5p2b21"},"type":"Feature","geometry":{"type":"Point","coordinates":[-0.126236,51.500152]}},{"properties":{"name":"Helen Lee - Marketing","description":"Posted by Mcampion<img src=\"http://media.geocommons.com/platial/img/2009/10/0/13A2_LEE,_Helen_LEE_000049.Jpg\">New York University<a title=\"Built for Community Mapping\" href=\"http://www.platial.com\"><img src=\"http://media.geocommons.com/platial/images/logotype_small.jpg\"></a>","id":"a63ugp17hmc2"},"type":"Feature","geometry":{"type":"Point","coordinates":[-73.99655,40.728294]}},{"properties":{"name":"Helen Siu - Architecture","description":"Posted by Mcampion<img src=\"http://media.geocommons.com/platial/img/2009/10/0/13T2_SIU,_Helen_SIU_000061.Jpg\">University College Lodon<a title=\"Built for Community Mapping\" href=\"http://www.platial.com\"><img src=\"http://media.geocommons.com/platial/images/logotype_small.jpg\"></a>","id":"a63ugosp1rra"},"type":"Feature","geometry":{"type":"Point","coordinates":[-0.1337464,51.5246053]}},{"properties":{"name":"Ho Yool Yoon - Economics","description":"Posted by Mcampion<img src=\"http://media.geocommons.com/platial/img/2009/02/3/Ho_Yool_YOON_(f)_2_.Jpg\">New York University<a title=\"Built for Community Mapping\" href=\"http://www.platial.com\"><img src=\"http://media.geocommons.com/platial/images/logotype_small.jpg\"></a>","id":"a63ugp8c81ee"},"type":"Feature","geometry":{"type":"Point","coordinates":[-73.99655,40.728294]}},{"properties":{"name":"Horace Chan - Sciences","description":"Posted by Mcampion<img src=\"http://media.geocommons.com/platial/img/2009/10/0/13H1_CHAN,_Horace_CHAN001998.Jpg\">The University Of Hong Kong, Hong Kong Island, Hong Kong<a title=\"Built for Community Mapping\" href=\"http://www.platial.com\"><img src=\"http://media.geocommons.com/platial/images/logotype_small.jpg\"></a>","id":"a63ugp67hldc"},"type":"Feature","geometry":{"type":"Point","coordinates":[114.1390612,22.2815427]}},{"properties":{"name":"Hughie Doherty - Product Design","description":"Posted by Mcampion<img src=\"http://media.geocommons.com/platial/img/2009/02/3/Hughie_DOHERTY_(f).Jpg\">Lougborough<a title=\"Built for Community Mapping\" href=\"http://www.platial.com\"><img src=\"http://media.geocommons.com/platial/images/logotype_small.jpg\"></a>","id":"a63ugp3fbiki"},"type":"Feature","geometry":{"type":"Point","coordinates":[-1.2043467,52.7707741]}},{"properties":{"name":"Indrani Banerjee - Physics","description":"Posted by Mcampion<img src=\"http://media.geocommons.com/platial/img/2009/10/0/13M2_BANERJEE,_Indrani_BANE000003.Jpg\">University of Edinburgh<a title=\"Built for Community Mapping\" href=\"http://www.platial.com\"><img src=\"http://media.geocommons.com/platial/images/logotype_small.jpg\"></a>","id":"a63ugp36zeaq"},"type":"Feature","geometry":{"type":"Point","coordinates":[-3.1760149,55.9215851]}},{"properties":{"name":"Iris Chan - Accounting","description":"Posted by Mcampion<img src=\"http://media.geocommons.com/platial/img/2009/10/0/13J1_CHAN,_Iris_CHAN001412.Jpg\">exeter univeristy<a title=\"Built for Community Mapping\" href=\"http://www.platial.com\"><img src=\"http://media.geocommons.com/platial/images/logotype_small.jpg\"></a>","id":"a63ugovd3tje"},"type":"Feature","geometry":{"type":"Point","coordinates":[-3.5356679,50.7344614]}},{"properties":{"name":"Ivan Law - Accounting and Finance","description":"Posted by Mcampion<img src=\"http://media.geocommons.com/platial/img/2009/02/4/Ivan_LAW_(f).Jpg\">Warwick, warwickshire, uk<a title=\"Built for Community Mapping\" href=\"http://www.platial.com\"><img src=\"http://media.geocommons.com/platial/images/logotype_small.jpg\"></a>","id":"a63ugp0kc49k"},"type":"Feature","geometry":{"type":"Point","coordinates":[-1.5844711,52.2819432]}},{"properties":{"name":"Jack Li - Physics","description":"Posted by Mcampion<img src=\"http://media.geocommons.com/platial/img/2009/10/0/13A2_LI,_Jack_LI__000553.Jpg\">Universiyt of British Columbia<a title=\"Built for Community Mapping\" href=\"http://www.platial.com\"><img src=\"http://media.geocommons.com/platial/images/logotype_small.jpg\"></a>","id":"a63ugp4hi16g"},"type":"Feature","geometry":{"type":"Point","coordinates":[-123.247468,49.266923]}},{"properties":{"name":"Jacqueline Lam - Arts","description":"Posted by Mcampion<img src=\"http://media.geocommons.com/platial/img/2009/10/0/13S2_LAM,_Jacqueline_LAM_000022.Jpg\">DOF<a title=\"Built for Community Mapping\" href=\"http://www.platial.com\"><img src=\"http://media.geocommons.com/platial/images/logotype_small.jpg\"></a>","id":"a63ugoygixov"},"type":"Feature","geometry":{"type":"Point","coordinates":[-79.396736,43.661717]}},{"properties":{"name":"Jade Shin - Business","description":"Posted by Mcampion<img src=\"http://media.geocommons.com/platial/img/2009/10/0/13J1_SHIN,_Jade_SHIN000009.Jpg\">New York University<a title=\"Built for Community Mapping\" href=\"http://www.platial.com\"><img src=\"http://media.geocommons.com/platial/images/logotype_small.jpg\"></a>","id":"a63ugosmtgcv"},"type":"Feature","geometry":{"type":"Point","coordinates":[-73.99655,40.728294]}},{"properties":{"name":"Jade Siu - Int'l Business &amp; Global Mgt","description":"Posted by Mcampion<img src=\"http://media.geocommons.com/platial/img/2009/02/3/Jade_SIU_(f)_3_.Jpg\">The University Of Hong Kong, Hong Kong Island, Hong Kong<a title=\"Built for Community Mapping\" href=\"http://www.platial.com\"><img src=\"http://media.geocommons.com/platial/images/logotype_small.jpg\"></a>","id":"a63ugp5wwn51"},"type":"Feature","geometry":{"type":"Point","coordinates":[114.1390612,22.2815427]}},{"properties":{"name":"James Atkinson - Sport","description":"Posted by Mcampion<img src=\"http://media.geocommons.com/platial/img/2009/02/3/James_ATKINSON_(f).Jpg\">Durham, uk<a title=\"Built for Community Mapping\" href=\"http://www.platial.com\"><img src=\"http://media.geocommons.com/platial/images/logotype_small.jpg\"></a>","id":"a63ugp5zhtvr"},"type":"Feature","geometry":{"type":"Point","coordinates":[-1.566667,54.766666]}},{"properties":{"name":"Jason Fu - Business Studies and Economics","description":"Posted by Mcampion<img src=\"http://media.geocommons.com/platial/img/2009/02/3/Jason_FU(f).Jpg\">Manchester University<a title=\"Built for Community Mapping\" href=\"http://www.platial.com\"><img src=\"http://media.geocommons.com/platial/images/logotype_small.jpg\"></a>","id":"a63ugp0rya64"},"type":"Feature","geometry":{"type":"Point","coordinates":[-2.233202,53.465596]}},{"properties":{"name":"Jelyn Advincula - Journalism","description":"Posted by Mcampion<img src=\"http://media.geocommons.com/platial/img/2009/10/0/13J2_ADVINCULA,_Jelyn_ADVI000001.Jpg\">University of Toronto<a title=\"Built for Community Mapping\" href=\"http://www.platial.com\"><img src=\"http://media.geocommons.com/platial/images/logotype_small.jpg\"></a>","id":"a63ugp2qyy52"},"type":"Feature","geometry":{"type":"Point","coordinates":[-79.461483,43.785128]}},{"properties":{"name":"Jenefer Davies - Psychology","description":"Posted by Mcampion<img src=\"http://media.geocommons.com/platial/img/2009/10/0/13J2_DAVIES,_Jenefer_DAVI000003.Jpg\">exeter univeristy<a title=\"Built for Community Mapping\" href=\"http://www.platial.com\"><img src=\"http://media.geocommons.com/platial/images/logotype_small.jpg\"></a>","id":"a63ugoxv3p50"},"type":"Feature","geometry":{"type":"Point","coordinates":[-3.5356679,50.7344614]}},{"properties":{"name":"Jennifer Rust - Performing Arts","description":"Posted by Mcampion<img src=\"http://media.geocommons.com/platial/img/2009/10/0/13T1_RUST,_Jennifer_RUST000004.Jpg\">Lancaster University, UK<a title=\"Built for Community Mapping\" href=\"http://www.platial.com\"><img src=\"http://media.geocommons.com/platial/images/logotype_small.jpg\"></a>","id":"a63ugozorhmd"},"type":"Feature","geometry":{"type":"Point","coordinates":[-2.7866524,54.0102461]}},{"properties":{"name":"Jeon, Joo Hyung - Chemistry - UCL","description":"Posted by Mcampion<img src=\"http://media.geocommons.com/platial/img/2009/02/4/JEON_Joo_Hyung(f).Jpg\">University College Lodon<a title=\"Built for Community Mapping\" href=\"http://www.platial.com\"><img src=\"http://media.geocommons.com/platial/images/logotype_small.jpg\"></a>","id":"a63ugp4juvns"},"type":"Feature","geometry":{"type":"Point","coordinates":[-0.1337464,51.5246053]}},{"properties":{"name":"Jeremiah Cheung - Commerce","description":"Posted by Mcampion<img src=\"http://media.geocommons.com/platial/img/2009/02/3/Jeremish_CHEUNG_(f).Jpg\">Melbourne<a title=\"Built for Community Mapping\" href=\"http://www.platial.com\"><img src=\"http://media.geocommons.com/platial/images/logotype_small.jpg\"></a>","id":"a63ugoshk2ns"},"type":"Feature","geometry":{"type":"Point","coordinates":[144.960006,-37.810001]}},{"properties":{"name":"Jeremy Ho - Sciences","description":"Posted by Mcampion<img src=\"http://media.geocommons.com/platial/img/2009/10/0/13H1_HO,_Jeremy_HO__000035.Jpg\">University of Toronto<a title=\"Built for Community Mapping\" href=\"http://www.platial.com\"><img src=\"http://media.geocommons.com/platial/images/logotype_small.jpg\"></a>","id":"a63ugozac81x"},"type":"Feature","geometry":{"type":"Point","coordinates":[-79.461483,43.785128]}},{"properties":{"name":"Jeroen Van De Ven - Information Technology","description":"Posted by Mcampion<img src=\"http://media.geocommons.com/platial/img/2009/10/0/13T1_VAN_DE_VEN,_Jeroen_VAND000044.Jpg\">Eindhoven University of Technology<a title=\"Built for Community Mapping\" href=\"http://www.platial.com\"><img src=\"http://media.geocommons.com/platial/images/logotype_small.jpg\"></a>","id":"a63ugp2pccqc"},"type":"Feature","geometry":{"type":"Point","coordinates":[5.4854106,51.4477692]}},{"properties":{"name":"Jessica Chow - Environmental Studies","description":"Posted by Mcampion<img src=\"http://media.geocommons.com/platial/img/2009/02/3/Jessica_CHOW_(f).Jpg\">Tufts University<a title=\"Built for Community Mapping\" href=\"http://www.platial.com\"><img src=\"http://media.geocommons.com/platial/images/logotype_small.jpg\"></a>","id":"a63ugoueq4qq"},"type":"Feature","geometry":{"type":"Point","coordinates":[-71.120551,42.405844]}},{"properties":{"name":"Jessica Ho - Law","description":"Posted by Mcampion<img src=\"http://media.geocommons.com/platial/img/2009/02/3/Jessica_HO_(f).Jpg\">Bristol<a title=\"Built for Community Mapping\" href=\"http://www.platial.com\"><img src=\"http://media.geocommons.com/platial/images/logotype_small.jpg\"></a>","id":"a63ugotxnlkx"},"type":"Feature","geometry":{"type":"Point","coordinates":[-2.591902,51.455313]}},{"properties":{"name":"Jessica Kwok - Arts","description":"Posted by Mcampion<img src=\"http://media.geocommons.com/platial/img/2009/10/0/13H2_KWOK,_Jessica_KWOK000042.Jpg\">The University Of Hong Kong, Hong Kong Island, Hong Kong<a title=\"Built for Community Mapping\" href=\"http://www.platial.com\"><img src=\"http://media.geocommons.com/platial/images/logotype_small.jpg\"></a>","id":"a63ugox74z3m"},"type":"Feature","geometry":{"type":"Point","coordinates":[114.1390612,22.2815427]}},{"properties":{"name":"Joanna Hirst - Anthropology","description":"Posted by Mcampion<img src=\"http://media.geocommons.com/platial/img/2009/10/0/13A1_HIRST,_Joanna_HIRS000003.Jpg\">London School of Economics<a title=\"Built for Community Mapping\" href=\"http://www.platial.com\"><img src=\"http://media.geocommons.com/platial/images/logotype_small.jpg\"></a>","id":"a63ugozzkhn3"},"type":"Feature","geometry":{"type":"Point","coordinates":[-0.116864,51.513502]}},{"properties":{"name":"Jocelyn Yang - Marketing Communication","description":"Posted by Mcampion<img src=\"http://media.geocommons.com/platial/img/2009/02/3/Jocelyn_YANG_(f)_3_.Jpg\">University of the West of England, Bristol<a title=\"Built for Community Mapping\" href=\"http://www.platial.com\"><img src=\"http://media.geocommons.com/platial/images/logotype_small.jpg\"></a>","id":"a63ugp1j9g4b"},"type":"Feature","geometry":{"type":"Point","coordinates":[-2.545705,51.499875]}},{"properties":{"name":"Joey Tam - Civil Engineering and Law","description":"Posted by Mcampion<img src=\"http://media.geocommons.com/platial/img/2009/02/3/Joey_TAM_(f)_3_.Jpg\">The University Of Hong Kong, Hong Kong Island, Hong Kong<a title=\"Built for Community Mapping\" href=\"http://www.platial.com\"><img src=\"http://media.geocommons.com/platial/images/logotype_small.jpg\"></a>","id":"a63ugozjmdjy"},"type":"Feature","geometry":{"type":"Point","coordinates":[114.1390612,22.2815427]}},{"properties":{"name":"Joey Wong - Geography","description":"Posted by Mcampion<img src=\"http://media.geocommons.com/platial/img/2009/10/0/13S2_WONG,_Joey_WONG001783.Jpg\">King\\'s College, London<a title=\"Built for Community Mapping\" href=\"http://www.platial.com\"><img src=\"http://media.geocommons.com/platial/images/logotype_small.jpg\"></a>","id":"a63ugotpst7r"},"type":"Feature","geometry":{"type":"Point","coordinates":[-0.1164971,51.5121533]}},{"properties":{"name":"Jonathan Lam - Management","description":"Posted by Mcampion<img src=\"http://media.geocommons.com/platial/img/2009/02/4/Jonathan_LAM_(f).Jpg\">Warwick, warwickshire, uk<a title=\"Built for Community Mapping\" href=\"http://www.platial.com\"><img src=\"http://media.geocommons.com/platial/images/logotype_small.jpg\"></a>","id":"a63ugp6ncb1a"},"type":"Feature","geometry":{"type":"Point","coordinates":[-1.5844711,52.2819432]}},{"properties":{"name":"Jonathan Sze - Business Management","description":"Posted by Mcampion<img src=\"http://media.geocommons.com/platial/img/2009/02/3/Jonathan_SZE_(f)_2_.Jpg\">University of Newcastle, UK<a title=\"Built for Community Mapping\" href=\"http://www.platial.com\"><img src=\"http://media.geocommons.com/platial/images/logotype_small.jpg\"></a>","id":"a63ugp6n076y"},"type":"Feature","geometry":{"type":"Point","coordinates":[-1.6155884,54.9812844]}},{"properties":{"name":"Joseph Cheng - Multi Media","description":"Posted by Mcampion<img src=\"http://media.geocommons.com/platial/img/2009/02/3/Joseph_CHENG_(f)_3_.Jpg\">City University of Hong Kong<a title=\"Built for Community Mapping\" href=\"http://www.platial.com\"><img src=\"http://media.geocommons.com/platial/images/logotype_small.jpg\"></a>","id":"a63ugoyo4mhk"},"type":"Feature","geometry":{"type":"Point","coordinates":[114.173262,22.336363]}},{"properties":{"name":"Joseph poole - Biomedical Sciences","description":"Posted by Mcampion<img src=\"http://media.geocommons.com/platial/img/2009/10/0/13M2_POOLE,_Joseph_POOL000003.Jpg\">University of Leeds, UK<a title=\"Built for Community Mapping\" href=\"http://www.platial.com\"><img src=\"http://media.geocommons.com/platial/images/logotype_small.jpg\"></a>","id":"a63ugp2dng3o"},"type":"Feature","geometry":{"type":"Point","coordinates":[-1.5528149,53.8089426]}},{"properties":{"name":"Joshua Lin - Liberal Arts","description":"Posted by Mcampion<img src=\"http://media.geocommons.com/platial/img/2009/10/0/13S2_LIN,_Joshua_LIN_000004.Jpg\">Biola University<a title=\"Built for Community Mapping\" href=\"http://www.platial.com\"><img src=\"http://media.geocommons.com/platial/images/logotype_small.jpg\"></a>","id":"a63ugozosjkv"},"type":"Feature","geometry":{"type":"Point","coordinates":[-118.017149,33.906035]}},{"properties":{"name":"Joy Wong - Mathematics","description":"Posted by Mcampion<img src=\"http://media.geocommons.com/platial/img/2009/10/0/13T1_WONG,_Joy_WONG001786.Jpg\">Imperial College, London, UK<a title=\"Built for Community Mapping\" href=\"http://www.platial.com\"><img src=\"http://media.geocommons.com/platial/images/logotype_small.jpg\"></a>","id":"a63ugowggr9d"},"type":"Feature","geometry":{"type":"Point","coordinates":[-0.1743665,51.499212]}},{"properties":{"name":"Juhi Mirchandani - History &amp; Economics","description":"Posted by Mcampion<img src=\"http://media.geocommons.com/platial/img/2009/02/3/Juhi_MIRCHANDANI_(f).Jpg\">Vanderbilt University<a title=\"Built for Community Mapping\" href=\"http://www.platial.com\"><img src=\"http://media.geocommons.com/platial/images/logotype_small.jpg\"></a>","id":"a63ugovoutob"},"type":"Feature","geometry":{"type":"Point","coordinates":[-86.798676,36.141889]}},{"properties":{"name":"Justin Ho - Economics","description":"Posted by Mcampion<img src=\"http://media.geocommons.com/platial/img/2009/10/0/13M1_HO,_Justin_HO__000033.Jpg\">London School of Economics<a title=\"Built for Community Mapping\" href=\"http://www.platial.com\"><img src=\"http://media.geocommons.com/platial/images/logotype_small.jpg\"></a>","id":"a63ugp7ddlsx"},"type":"Feature","geometry":{"type":"Point","coordinates":[-0.116864,51.513502]}},{"properties":{"name":"Justin Park - Economics","description":"Posted by Mcampion<img src=\"http://media.geocommons.com/platial/img/2009/02/3/Justin_PARK(f).Jpg\">New York University<a title=\"Built for Community Mapping\" href=\"http://www.platial.com\"><img src=\"http://media.geocommons.com/platial/images/logotype_small.jpg\"></a>","id":"a63ugp1gwl16"},"type":"Feature","geometry":{"type":"Point","coordinates":[-73.99655,40.728294]}},{"properties":{"name":"Karen Chan - Medicine","description":"Posted by Mcampion<img src=\"http://media.geocommons.com/platial/img/2009/10/0/13J1_CHAN,_Karen_CHAN001308.Jpg\">University of Manchester, UK<a title=\"Built for Community Mapping\" href=\"http://www.platial.com\"><img src=\"http://media.geocommons.com/platial/images/logotype_small.jpg\"></a>","id":"a63ugp45ce39"},"type":"Feature","geometry":{"type":"Point","coordinates":[-2.2331934,53.4656236]}},{"properties":{"name":"Katherine Jo","description":"Posted by Mcampion<img src=\"http://media.geocommons.com/platial/img/2009/02/3/Katherine_JO_(f).Jpg\">Emory University Atlanta<a title=\"Built for Community Mapping\" href=\"http://www.platial.com\"><img src=\"http://media.geocommons.com/platial/images/logotype_small.jpg\"></a>","id":"a63ugox3dh1o"},"type":"Feature","geometry":{"type":"Point","coordinates":[-84.325959,33.789742]}},{"properties":{"name":"Kathleen Savage - English","description":"Posted by Mcampion<img src=\"http://media.geocommons.com/platial/img/2009/10/0/13H1_SAVAGE,_Kathleen_SAVA000015.Jpg\">St. Francis Xavier University, Canada<a title=\"Built for Community Mapping\" href=\"http://www.platial.com\"><img src=\"http://media.geocommons.com/platial/images/logotype_small.jpg\"></a>","id":"a63ugoseye9o"},"type":"Feature","geometry":{"type":"Point","coordinates":[-61.995503,45.618042]}},{"properties":{"name":"Katrina Duck - Fashion","description":"Posted by Mcampion<img src=\"http://media.geocommons.com/platial/img/2009/10/0/13T1_DUCK,_Katrina_DUCK000006.Jpg\">University of Leeds, UK<a title=\"Built for Community Mapping\" href=\"http://www.platial.com\"><img src=\"http://media.geocommons.com/platial/images/logotype_small.jpg\"></a>","id":"a63ugp7sysle"},"type":"Feature","geometry":{"type":"Point","coordinates":[-1.5528149,53.8089426]}},{"properties":{"name":"Keira McCosh - Film Production","description":"Posted by Mcampion<img src=\"http://media.geocommons.com/platial/img/2009/10/0/13J2_MCCOSH,_Keira_MCCO000003.Jpg\">Manchester Metropolitan University, UK<a title=\"Built for Community Mapping\" href=\"http://www.platial.com\"><img src=\"http://media.geocommons.com/platial/images/logotype_small.jpg\"></a>","id":"a63ugp3zvoqj"},"type":"Feature","geometry":{"type":"Point","coordinates":[-2.2398328,53.4705106]}},{"properties":{"name":"Kelvin Siu - Business","description":"Posted by Mcampion<img src=\"http://media.geocommons.com/platial/img/2009/10/0/13S1_SIU_Kelvin_SIU_000072.Jpg\">Macquarie University<a title=\"Built for Community Mapping\" href=\"http://www.platial.com\"><img src=\"http://media.geocommons.com/platial/images/logotype_small.jpg\"></a>","id":"a63ugp4ok0lq"},"type":"Feature","geometry":{"type":"Point","coordinates":[151.1138889,-33.7752778]}},{"properties":{"name":"Kenji Niimura - Psychology","description":"Posted by Mcampion<img src=\"http://media.geocommons.com/platial/img/2009/02/3/Kenji_NIMURA_(f).Jpg\">Aoyama, Japan<a title=\"Built for Community Mapping\" href=\"http://www.platial.com\"><img src=\"http://media.geocommons.com/platial/images/logotype_small.jpg\"></a>","id":"a63ugoyjundw"},"type":"Feature","geometry":{"type":"Point","coordinates":[136.903015,35.262581]}},{"properties":{"name":"Kenton Sin - Architecture","description":"Posted by Mcampion<img src=\"http://media.geocommons.com/platial/img/2009/02/3/Kenton_SIN(f).Jpg\">City University of Hong Kong<a title=\"Built for Community Mapping\" href=\"http://www.platial.com\"><img src=\"http://media.geocommons.com/platial/images/logotype_small.jpg\"></a>","id":"a63ugozz19rg"},"type":"Feature","geometry":{"type":"Point","coordinates":[114.173262,22.336363]}},{"properties":{"name":"Kevin Kwok - Liberal Arts","description":"Posted by Mcampion<img src=\"http://media.geocommons.com/platial/img/2009/10/0/13A1_KWOK,_Kevin_KWOK000004.Jpg\">University of Chicago<a title=\"Built for Community Mapping\" href=\"http://www.platial.com\"><img src=\"http://media.geocommons.com/platial/images/logotype_small.jpg\"></a>","id":"a63ugp523xhx"},"type":"Feature","geometry":{"type":"Point","coordinates":[-87.598891,41.790051]}},{"properties":{"name":"Kim, Sang Joon - Business - Wharton School","description":"Posted by Mcampion<img src=\"http://media.geocommons.com/platial/img/2009/02/4/Sang_Joon_KIM__(f).Jpg\">University of Pennsylvainia<a title=\"Built for Community Mapping\" href=\"http://www.platial.com\"><img src=\"http://media.geocommons.com/platial/images/logotype_small.jpg\"></a>","id":"a63ugp0vgs97"},"type":"Feature","geometry":{"type":"Point","coordinates":[-75.191849,39.952197]}},{"properties":{"name":"Kiran Jayaprakash - Medicine","description":"Posted by Mcampion<img src=\"http://media.geocommons.com/platial/img/2009/02/3/Kiran_JAYAPRAKASH_(f).Jpg\">Dundee, Scotland<a title=\"Built for Community Mapping\" href=\"http://www.platial.com\"><img src=\"http://media.geocommons.com/platial/images/logotype_small.jpg\"></a>","id":"a63ugos4bz7k"},"type":"Feature","geometry":{"type":"Point","coordinates":[-2.966667,56.5]}},{"properties":{"name":"Kwang Mun Bae - Pharmacy","description":"Posted by Mcampion<img src=\"http://media.geocommons.com/platial/img/2009/10/0/13S2_BAE,_Kwang_Moon_BAE_000004.Jpg\">King\\'s College, London<a title=\"Built for Community Mapping\" href=\"http://www.platial.com\"><img src=\"http://media.geocommons.com/platial/images/logotype_small.jpg\"></a>","id":"a63ugoxk5x6b"},"type":"Feature","geometry":{"type":"Point","coordinates":[-0.1164971,51.5121533]}},{"properties":{"name":"Kyung Tae Park - Aeronautical Materials","description":"Posted by Mcampion<img src=\"http://media.geocommons.com/platial/img/2009/02/3/Kyung_Tae_PARK_(f).Jpg\">Imperial College London<a title=\"Built for Community Mapping\" href=\"http://www.platial.com\"><img src=\"http://media.geocommons.com/platial/images/logotype_small.jpg\"></a>","id":"a63ugozk8f34"},"type":"Feature","geometry":{"type":"Point","coordinates":[-0.1776,51.49979]}},{"properties":{"name":"Laura Pearson - Film","description":"Posted by Mcampion<img src=\"http://media.geocommons.com/platial/img/2009/02/3/Laura__PEARSON(f).Jpg\">Leeds Trinity<a title=\"Built for Community Mapping\" href=\"http://www.platial.com\"><img src=\"http://media.geocommons.com/platial/images/logotype_small.jpg\"></a>","id":"a63ugp03d2an"},"type":"Feature","geometry":{"type":"Point","coordinates":[-1.682566,53.903339]}},{"properties":{"name":"Lavinia Fung - Liberal Arts","description":"Posted by Mcampion<img src=\"http://media.geocommons.com/platial/img/2009/10/0/13T1_FUNG,_Lavinia_FUNG000010.Jpg\">Renmin University, china<a title=\"Built for Community Mapping\" href=\"http://www.platial.com\"><img src=\"http://media.geocommons.com/platial/images/logotype_small.jpg\"></a>","id":"a63ugp1dq41f"},"type":"Feature","geometry":{"type":"Point","coordinates":[116.314108,39.970981]}},{"properties":{"name":"Lavinia de Luca - English","description":"Posted by Mcampion<img src=\"http://media.geocommons.com/platial/img/2009/10/0/13A1_DE_LUCA,_Lavinia_DELU000001.Jpg\">Winchester, UK<a title=\"Built for Community Mapping\" href=\"http://www.platial.com\"><img src=\"http://media.geocommons.com/platial/images/logotype_small.jpg\"></a>","id":"a63ugoveulxr"},"type":"Feature","geometry":{"type":"Point","coordinates":[-1.316667,51.016666]}},{"properties":{"name":"Leo Choy - Economics","description":"Posted by Mcampion<img src=\"http://media.geocommons.com/platial/img/2009/02/3/Leo_CHOY_(f).Jpg\">Manchester University<a title=\"Built for Community Mapping\" href=\"http://www.platial.com\"><img src=\"http://media.geocommons.com/platial/images/logotype_small.jpg\"></a>","id":"a63ugp8hn7pj"},"type":"Feature","geometry":{"type":"Point","coordinates":[-2.233202,53.465596]}},{"properties":{"name":"Lesley Chan - Falmouth College of Art - Illustration","description":"Posted by Mcampion<img src=\"http://media.geocommons.com/platial/img/2009/02/3/Lesley_CHAN(f).Jpg\">Falmouth UK<a title=\"Built for Community Mapping\" href=\"http://www.platial.com\"><img src=\"http://media.geocommons.com/platial/images/logotype_small.jpg\"></a>","id":"a63ugoyksgmk"},"type":"Feature","geometry":{"type":"Point","coordinates":[-5.07108,50.156009]}},{"properties":{"name":"Lizzy Stokes - Liberal Arts","description":"Posted by Mcampion<img src=\"http://media.geocommons.com/platial/img/2009/10/0/13H2_STOKES,_Elizabeth_STOK000003.Jpg\">University of Pennsylvainia<a title=\"Built for Community Mapping\" href=\"http://www.platial.com\"><img src=\"http://media.geocommons.com/platial/images/logotype_small.jpg\"></a>","id":"a63ugp3ru433"},"type":"Feature","geometry":{"type":"Point","coordinates":[-75.191849,39.952197]}},{"properties":{"name":"Lok Wai Wong - Engineering","description":"Posted by Mcampion<img src=\"http://media.geocommons.com/platial/img/2009/10/0/13M1_WONG,_Lok_Wai_WONG000067.Jpg\">University of Manchester, UK<a title=\"Built for Community Mapping\" href=\"http://www.platial.com\"><img src=\"http://media.geocommons.com/platial/images/logotype_small.jpg\"></a>","id":"a63ugp11n49y"},"type":"Feature","geometry":{"type":"Point","coordinates":[-2.2331934,53.4656236]}},{"properties":{"name":"Louise Choi - Applying","description":"Posted by Mcampion<img src=\"http://media.geocommons.com/platial/img/2009/10/0/13J1_CHOI,_Louise_CHOI000013.Jpg\">Australia<a title=\"Built for Community Mapping\" href=\"http://www.platial.com\"><img src=\"http://media.geocommons.com/platial/images/logotype_small.jpg\"></a>","id":"a63ugourzrhp"},"type":"Feature","geometry":{"type":"Point","coordinates":[136.004555,-32.402641]}},{"properties":{"name":"Lucina Kwok - Economics","description":"Posted by Mcampion<img src=\"http://media.geocommons.com/platial/img/2009/02/3/Lucina_KWOK_(f)_3_.Jpg\">London School of Economics<a title=\"Built for Community Mapping\" href=\"http://www.platial.com\"><img src=\"http://media.geocommons.com/platial/images/logotype_small.jpg\"></a>","id":"a63ugp5ik15u"},"type":"Feature","geometry":{"type":"Point","coordinates":[-0.116864,51.513502]}},{"properties":{"name":"Luke Tarrant - Law","description":"Posted by Mcampion<img src=\"http://media.geocommons.com/platial/img/2009/10/0/13J2_TARRANT,_Luke_TARR000003.Jpg\">exeter univeristy<a title=\"Built for Community Mapping\" href=\"http://www.platial.com\"><img src=\"http://media.geocommons.com/platial/images/logotype_small.jpg\"></a>","id":"a63ugoxn9b3n"},"type":"Feature","geometry":{"type":"Point","coordinates":[-3.5356679,50.7344614]}},{"properties":{"name":"Maja Howard - Foundation At and Design","description":"Posted by Mcampion<img src=\"http://media.geocommons.com/platial/img/2009/10/0/13A2_HOWARD,_Maja_HOWA000004.Jpg\">Ravensbourne, UK<a title=\"Built for Community Mapping\" href=\"http://www.platial.com\"><img src=\"http://media.geocommons.com/platial/images/logotype_small.jpg\"></a>","id":"a63ugov8jmik"},"type":"Feature","geometry":{"type":"Point","coordinates":[0.072364,51.597705]}},{"properties":{"name":"Margaux Sheridan - Psychology","description":"Posted by Mcampion<img src=\"http://media.geocommons.com/platial/img/2009/02/4/Margaux_SHERIDAN(f).Jpg\">Queens University, Kingston<a title=\"Built for Community Mapping\" href=\"http://www.platial.com\"><img src=\"http://media.geocommons.com/platial/images/logotype_small.jpg\"></a>","id":"a63ugp1jrhm0"},"type":"Feature","geometry":{"type":"Point","coordinates":[-76.493837,44.226267]}},{"properties":{"name":"Marissa Chu - Art Foundation","description":"Posted by Mcampion<img src=\"http://media.geocommons.com/platial/img/2009/10/0/13A2_CHU,_Marrissa_CHU_000118.Jpg\">Kent, UK<a title=\"Built for Community Mapping\" href=\"http://www.platial.com\"><img src=\"http://media.geocommons.com/platial/images/logotype_small.jpg\"></a>","id":"a63ugp03u49e"},"type":"Feature","geometry":{"type":"Point","coordinates":[0.75,51.25]}},{"properties":{"name":"Mark Dellora - War Studies","description":"Posted by Mcampion<img src=\"http://media.geocommons.com/platial/img/2009/10/0/13M2_DELLORA,_Mark_DELL000004.Jpg\">King\\'s College, London<a title=\"Built for Community Mapping\" href=\"http://www.platial.com\"><img src=\"http://media.geocommons.com/platial/images/logotype_small.jpg\"></a>","id":"a63ugow2td7l"},"type":"Feature","geometry":{"type":"Point","coordinates":[-0.1164971,51.5121533]}},{"properties":{"name":"Matthew Lun - Economics","description":"Posted by Mcampion<img src=\"http://media.geocommons.com/platial/img/2009/02/3/Matthew_LUN_(f)_5_.Jpg\">The University Of Hong Kong, Hong Kong Island, Hong Kong<a title=\"Built for Community Mapping\" href=\"http://www.platial.com\"><img src=\"http://media.geocommons.com/platial/images/logotype_small.jpg\"></a>","id":"a63ugosj476x"},"type":"Feature","geometry":{"type":"Point","coordinates":[114.1390612,22.2815427]}},{"properties":{"name":"Michael Palmiero - Media - Northumbria University","description":"Posted by Mcampion<img src=\"http://media.geocommons.com/platial/img/2009/02/4/Michael_PALMIERO(f).Jpg\">Northumbria University, Newcastle<a title=\"Built for Community Mapping\" href=\"http://www.platial.com\"><img src=\"http://media.geocommons.com/platial/images/logotype_small.jpg\"></a>","id":"a63ugotfbfxp"},"type":"Feature","geometry":{"type":"Point","coordinates":[-1.60958,54.97876]}},{"properties":{"name":"Michael Sam - Engineering - Polytechnic Inst. of NYU","description":"Posted by Mcampion<img src=\"http://media.geocommons.com/platial/img/2009/02/4/Michael_SAM_(f).Jpg\">new york<a title=\"Built for Community Mapping\" href=\"http://www.platial.com\"><img src=\"http://media.geocommons.com/platial/images/logotype_small.jpg\"></a>","id":"a63ugp3e1j4v"},"type":"Feature","geometry":{"type":"Point","coordinates":[-74.006389,40.714167]}},{"properties":{"name":"Michelle Cheng - Interior Architecture","description":"Posted by Mcampion<img src=\"http://media.geocommons.com/platial/img/2009/02/3/Michelle_CHENG(f).Jpg\">UWIC Cardiff<a title=\"Built for Community Mapping\" href=\"http://www.platial.com\"><img src=\"http://media.geocommons.com/platial/images/logotype_small.jpg\"></a>","id":"a63ugoxa4dhe"},"type":"Feature","geometry":{"type":"Point","coordinates":[-3.15104,51.4975]}},{"properties":{"name":"Michelle Li - Travel Tourism &amp; Events","description":"Posted by Mcampion<img src=\"http://media.geocommons.com/platial/img/2009/02/3/Michelle_LI(f)_2_.Jpg\">HKU SPACE<a title=\"Built for Community Mapping\" href=\"http://www.platial.com\"><img src=\"http://media.geocommons.com/platial/images/logotype_small.jpg\"></a>","id":"a63ugouciuv6"},"type":"Feature","geometry":{"type":"Point","coordinates":[114.211002,22.324276]}},{"properties":{"name":"Miko Iwanaga - French","description":"Posted by Mcampion<img src=\"http://media.geocommons.com/platial/img/2009/10/0/13S1_IWANAGA,_Miko_IWAN000003.Jpg\">The University Of Hong Kong, Hong Kong Island, Hong Kong<a title=\"Built for Community Mapping\" href=\"http://www.platial.com\"><img src=\"http://media.geocommons.com/platial/images/logotype_small.jpg\"></a>","id":"a63ugozkvx76"},"type":"Feature","geometry":{"type":"Point","coordinates":[114.1390612,22.2815427]}},{"properties":{"name":"Molly Campbell - Drama - Brunel University","description":"Posted by Mcampion<img src=\"http://media.geocommons.com/platial/img/2009/02/4/Molly_CAMPBELL(f).Jpg\">Brunel University, London<a title=\"Built for Community Mapping\" href=\"http://www.platial.com\"><img src=\"http://media.geocommons.com/platial/images/logotype_small.jpg\"></a>","id":"a63ugp4ufppf"},"type":"Feature","geometry":{"type":"Point","coordinates":[-0.46803,51.53375]}},{"properties":{"name":"Monica Kam - English","description":"Posted by Mcampion<img src=\"http://media.geocommons.com/platial/img/2009/02/3/Monica_KAM_(f).Jpg\">University College London<a title=\"Built for Community Mapping\" href=\"http://www.platial.com\"><img src=\"http://media.geocommons.com/platial/images/logotype_small.jpg\"></a>","id":"a63ugp0ke6a0"},"type":"Feature","geometry":{"type":"Point","coordinates":[-0.133746,51.524605]}},{"properties":{"name":"Monique Ching - Film Production","description":"Posted by Mcampion<img src=\"http://media.geocommons.com/platial/img/2009/02/4/Monique_CHING(f).Jpg\">Emerson College, Boston<a title=\"Built for Community Mapping\" href=\"http://www.platial.com\"><img src=\"http://media.geocommons.com/platial/images/logotype_small.jpg\"></a>","id":"a63ugoy1fkxw"},"type":"Feature","geometry":{"type":"Point","coordinates":[-71.065994,42.351807]}},{"properties":{"name":"Monique Wyrley-Birch - Architecture","description":"Posted by Mcampion<img src=\"http://media.geocommons.com/platial/img/2009/10/0/13A2_WYRLEY_BIRCH,_Monique_WYRL000003.Jpg\">Oxford Brookes University, UK<a title=\"Built for Community Mapping\" href=\"http://www.platial.com\"><img src=\"http://media.geocommons.com/platial/images/logotype_small.jpg\"></a>","id":"a63ugoy5xkfa"},"type":"Feature","geometry":{"type":"Point","coordinates":[-1.2228136,51.7544655]}},{"properties":{"name":"Natalie Ng - Art - Central St. Martin's","description":"Posted by Mcampion<img src=\"http://media.geocommons.com/platial/img/2009/10/0/13J1_NG,_Natalie_NG__000036.Jpg\">Lodx<a title=\"Built for Community Mapping\" href=\"http://www.platial.com\"><img src=\"http://media.geocommons.com/platial/images/logotype_small.jpg\"></a>","id":"a63ugp56v6l7"},"type":"Feature","geometry":{"type":"Point","coordinates":[-0.126236,51.500152]}},{"properties":{"name":"Nathan Cheung - Economics","description":"Posted by Mcampion<img src=\"http://media.geocommons.com/platial/img/2009/02/3/Nathan_CHEUNG_(f)_2_.Jpg\">Melbourne<a title=\"Built for Community Mapping\" href=\"http://www.platial.com\"><img src=\"http://media.geocommons.com/platial/images/logotype_small.jpg\"></a>","id":"a63ugp1yf06g"},"type":"Feature","geometry":{"type":"Point","coordinates":[144.960006,-37.810001]}},{"properties":{"name":"Navjot Kaur - Design","description":"Posted by Mcampion<img src=\"http://media.geocommons.com/platial/img/2009/02/4/Navjot_KAUR(f).Jpg\">Pratt Institute, New York<a title=\"Built for Community Mapping\" href=\"http://www.platial.com\"><img src=\"http://media.geocommons.com/platial/images/logotype_small.jpg\"></a>","id":"a63ugp3wa0u3"},"type":"Feature","geometry":{"type":"Point","coordinates":[-73.964069,40.691184]}},{"properties":{"name":"Niall Rowark - Business","description":"Posted by Mcampion<img src=\"http://media.geocommons.com/platial/img/2009/02/3/Niall_ROWARK(f)_2_.Jpg\">University of Newcastle, UK<a title=\"Built for Community Mapping\" href=\"http://www.platial.com\"><img src=\"http://media.geocommons.com/platial/images/logotype_small.jpg\"></a>","id":"a63ugp2ggdp8"},"type":"Feature","geometry":{"type":"Point","coordinates":[-1.6155884,54.9812844]}},{"properties":{"name":"Nicholas Mo - Film Production","description":"Posted by Mcampion<img src=\"http://media.geocommons.com/platial/img/2009/10/0/13H1_MO,_Nicholas_MO__000004.Jpg\">Pace University, New York<a title=\"Built for Community Mapping\" href=\"http://www.platial.com\"><img src=\"http://media.geocommons.com/platial/images/logotype_small.jpg\"></a>","id":"a63ugp0umt4n"},"type":"Feature","geometry":{"type":"Point","coordinates":[-74.005166,40.711538]}},{"properties":{"name":"Nick Hatzer - Film Production","description":"Posted by Mcampion<img src=\"http://media.geocommons.com/platial/img/2009/10/0/13A2_HATZER,_Nicholas_HATZ000004.Jpg\">University of Glamorgan, UK<a title=\"Built for Community Mapping\" href=\"http://www.platial.com\"><img src=\"http://media.geocommons.com/platial/images/logotype_small.jpg\"></a>","id":"a63ugp3x8n2z"},"type":"Feature","geometry":{"type":"Point","coordinates":[-3.3258245,51.5879213]}},{"properties":{"name":"Nicky Gordon - Liberal Arts","description":"Posted by Mcampion<img src=\"http://media.geocommons.com/platial/img/2009/10/0/13T2_GORDON,_Nicky_GORD000003_2_.Jpg\">Harvard University<a title=\"Built for Community Mapping\" href=\"http://www.platial.com\"><img src=\"http://media.geocommons.com/platial/images/logotype_small.jpg\"></a>","id":"a63ugp0s76bk"},"type":"Feature","geometry":{"type":"Point","coordinates":[-71.116818,42.374554]}},{"properties":{"name":"Nikita Prabhakar - Liberal Arts","description":"Posted by Mcampion<img src=\"http://media.geocommons.com/platial/img/2009/10/0/13T2_PRABHAKAR,_Nikita_PRAB000004.Jpg\">Barnard College<a title=\"Built for Community Mapping\" href=\"http://www.platial.com\"><img src=\"http://media.geocommons.com/platial/images/logotype_small.jpg\"></a>","id":"a63ugox86kjf"},"type":"Feature","geometry":{"type":"Point","coordinates":[-73.963551,40.809519]}},{"properties":{"name":"Noel Lee - Liberal Arts","description":"Posted by Mcampion<img src=\"http://media.geocommons.com/platial/img/2009/10/0/13H1_LEE,_Noel_LEE_000052_2_.Jpg\">Stanford University<a title=\"Built for Community Mapping\" href=\"http://www.platial.com\"><img src=\"http://media.geocommons.com/platial/images/logotype_small.jpg\"></a>","id":"a63ugos7qxb8"},"type":"Feature","geometry":{"type":"Point","coordinates":[-122.171071,37.431985]}},{"properties":{"name":"Paeonia Lau - Optometry","description":"Posted by Mcampion<img src=\"http://media.geocommons.com/platial/img/2009/02/3/Peony_LAU_(f).Jpg\">Hong Kong Polytechnic University<a title=\"Built for Community Mapping\" href=\"http://www.platial.com\"><img src=\"http://media.geocommons.com/platial/images/logotype_small.jpg\"></a>","id":"a63ugp4pfhfu"},"type":"Feature","geometry":{"type":"Point","coordinates":[114.179575,22.303518]}},{"properties":{"name":"Pauline Hilley - Natural Sciences","description":"Posted by Mcampion<img src=\"http://media.geocommons.com/platial/img/2009/10/0/13A2_HILLEY,_Pauline_HILL000033.Jpg\">Durham University, UK<a title=\"Built for Community Mapping\" href=\"http://www.platial.com\"><img src=\"http://media.geocommons.com/platial/images/logotype_small.jpg\"></a>","id":"a63ugp0m5nnt"},"type":"Feature","geometry":{"type":"Point","coordinates":[-1.569641,54.775124]}},{"properties":{"name":"Peron Li - Liberal Arts","description":"Posted by Mcampion<img src=\"http://media.geocommons.com/platial/img/2009/10/0/13J2_LI,_Peron_LI__000014.Jpg\">USC<a title=\"Built for Community Mapping\" href=\"http://www.platial.com\"><img src=\"http://media.geocommons.com/platial/images/logotype_small.jpg\"></a>","id":"a63ugoss6wda"},"type":"Feature","geometry":{"type":"Point","coordinates":[-118.283301,34.018503]}},{"properties":{"name":"Peter Chan - Political Science","description":"Posted by Mcampion<img src=\"http://media.geocommons.com/platial/img/2009/10/0/13T2_CHAN,_Peter_CHAN001310.Jpg\">University of St. Andrews, UK<a title=\"Built for Community Mapping\" href=\"http://www.platial.com\"><img src=\"http://media.geocommons.com/platial/images/logotype_small.jpg\"></a>","id":"a63ugowjt5bw"},"type":"Feature","geometry":{"type":"Point","coordinates":[-2.7999902,56.340278]}},{"properties":{"name":"Philip Ma - Accounting &amp; Finance","description":"Posted by Mcampion<img src=\"http://media.geocommons.com/platial/img/2009/02/3/Philip_MA_(f).Jpg\">London School of Economics<a title=\"Built for Community Mapping\" href=\"http://www.platial.com\"><img src=\"http://media.geocommons.com/platial/images/logotype_small.jpg\"></a>","id":"a63ugp63772l"},"type":"Feature","geometry":{"type":"Point","coordinates":[-0.116864,51.513502]}},{"properties":{"name":"Phoebe Strapp - London College of Fashion","description":"Posted by Mcampion<img src=\"http://media.geocommons.com/platial/img/2009/10/0/13T1_STRAPP,_Phoebe_STRA000012.Jpg\">London,UK<a title=\"Built for Community Mapping\" href=\"http://www.platial.com\"><img src=\"http://media.geocommons.com/platial/images/logotype_small.jpg\"></a>","id":"a63ugovqh62f"},"type":"Feature","geometry":{"type":"Point","coordinates":[-0.116667,51.5]}},{"properties":{"name":"Prudence Kwok - Business","description":"Posted by Mcampion<img src=\"http://media.geocommons.com/platial/img/2009/10/0/13H1_KWOK,_Prudence_KWOK000202.Jpg\">The University Of Hong Kong, Hong Kong Island, Hong Kong<a title=\"Built for Community Mapping\" href=\"http://www.platial.com\"><img src=\"http://media.geocommons.com/platial/images/logotype_small.jpg\"></a>","id":"a63ugowf1a84"},"type":"Feature","geometry":{"type":"Point","coordinates":[114.1390612,22.2815427]}},{"properties":{"name":"Qing Wu - English - Bath Spa University","description":"Posted by Mcampion<img src=\"http://media.geocommons.com/platial/img/2009/10/0/13A1_WU,_Qing_WU__000008.Jpg\">Bath, UK<a title=\"Built for Community Mapping\" href=\"http://www.platial.com\"><img src=\"http://media.geocommons.com/platial/images/logotype_small.jpg\"></a>","id":"a63ugp4xl8an"},"type":"Feature","geometry":{"type":"Point","coordinates":[-2.357483,51.381443]}},{"properties":{"name":"Rachel Cabirol - Hotel Management","description":"Posted by Mcampion<img src=\"http://media.geocommons.com/platial/img/2009/10/0/13H2_CABIROL,_Rachel_CABI000001.Jpg\">University of Plymouth, UK<a title=\"Built for Community Mapping\" href=\"http://www.platial.com\"><img src=\"http://media.geocommons.com/platial/images/logotype_small.jpg\"></a>","id":"a63ugp5m356q"},"type":"Feature","geometry":{"type":"Point","coordinates":[-4.1373469,50.3751818]}},{"properties":{"name":"Rachel Lo - Law","description":"Posted by Mcampion<img src=\"http://media.geocommons.com/platial/img/2009/10/0/13T1_LO,_Rachel_LO__000293.Jpg\">University of Nottingham, UK<a title=\"Built for Community Mapping\" href=\"http://www.platial.com\"><img src=\"http://media.geocommons.com/platial/images/logotype_small.jpg\"></a>","id":"a63ugp58h388"},"type":"Feature","geometry":{"type":"Point","coordinates":[-1.191556,52.94429]}},{"properties":{"name":"Raisha Karnani - Communications","description":"Posted by Mcampion<img src=\"http://media.geocommons.com/platial/img/2009/02/3/Raisha_Karnani(f).Jpg\">Toronto<a title=\"Built for Community Mapping\" href=\"http://www.platial.com\"><img src=\"http://media.geocommons.com/platial/images/logotype_small.jpg\"></a>","id":"a63ugp35tjna"},"type":"Feature","geometry":{"type":"Point","coordinates":[-79.392486,43.723057]}},{"properties":{"name":"Rashmi Pillai - Marketing","description":"Posted by Mcampion<img src=\"http://media.geocommons.com/platial/img/2009/02/4/Rashmi_PILLAI_(f).Jpg\">Aston University<a title=\"Built for Community Mapping\" href=\"http://www.platial.com\"><img src=\"http://media.geocommons.com/platial/images/logotype_small.jpg\"></a>","id":"a63ugp52sruv"},"type":"Feature","geometry":{"type":"Point","coordinates":[-1.8903548,52.4874129]}},{"properties":{"name":"Regine Lun - Natural Sciences","description":"Posted by Mcampion<img src=\"http://media.geocommons.com/platial/img/2009/02/3/Regine_LUN_(f).Jpg\">University College Lodon<a title=\"Built for Community Mapping\" href=\"http://www.platial.com\"><img src=\"http://media.geocommons.com/platial/images/logotype_small.jpg\"></a>","id":"a63ugosc7zvw"},"type":"Feature","geometry":{"type":"Point","coordinates":[-0.1337464,51.5246053]}},{"properties":{"name":"Reynold Ng - Food Management","description":"Posted by Mcampion<img src=\"http://media.geocommons.com/platial/img/2009/10/0/13A1_NG,_Reynold_NG__000023.Jpg\">Hong Kong Instititue of Vocational Education<a title=\"Built for Community Mapping\" href=\"http://www.platial.com\"><img src=\"http://media.geocommons.com/platial/images/logotype_small.jpg\"></a>","id":"a63ugp601i89"},"type":"Feature","geometry":{"type":"Point","coordinates":[114.2397359,22.2714812]}},{"properties":{"name":"Richard Park - Economics","description":"Posted by Mcampion<img src=\"http://media.geocommons.com/platial/img/2009/10/0/13T2_PARK,_Richard_PARK000014.Jpg\">Boston University, Boston, MA<a title=\"Built for Community Mapping\" href=\"http://www.platial.com\"><img src=\"http://media.geocommons.com/platial/images/logotype_small.jpg\"></a>","id":"a63ugp5tdznu"},"type":"Feature","geometry":{"type":"Point","coordinates":[-71.101871,42.350404]}},{"properties":{"name":"Roger Wong - Business","description":"Posted by Mcampion<img src=\"http://media.geocommons.com/platial/img/2009/02/3/Roger_WONG_(f)_2_.Jpg\">Toronto<a title=\"Built for Community Mapping\" href=\"http://www.platial.com\"><img src=\"http://media.geocommons.com/platial/images/logotype_small.jpg\"></a>","id":"a63ugp8jd0lb"},"type":"Feature","geometry":{"type":"Point","coordinates":[-79.392486,43.723057]}},{"properties":{"name":"Ronald Wu - Business","description":"Posted by Mcampion<img src=\"http://media.geocommons.com/platial/img/2009/10/0/13J2_WU,_Ronald_WU__000018.Jpg\">Durham University, UK<a title=\"Built for Community Mapping\" href=\"http://www.platial.com\"><img src=\"http://media.geocommons.com/platial/images/logotype_small.jpg\"></a>","id":"a63ugp0lyv55"},"type":"Feature","geometry":{"type":"Point","coordinates":[-1.569641,54.775124]}},{"properties":{"name":"Rose Lee - Communications, Media","description":"Posted by Mcampion<img src=\"http://media.geocommons.com/platial/img/2009/02/3/Rose_LEE(f).Jpg\">USC<a title=\"Built for Community Mapping\" href=\"http://www.platial.com\"><img src=\"http://media.geocommons.com/platial/images/logotype_small.jpg\"></a>","id":"a63ugosj3m3u"},"type":"Feature","geometry":{"type":"Point","coordinates":[-118.283301,34.018503]}},{"properties":{"name":"Ryan Chen - Business Management","description":"Posted by Mcampion<img src=\"http://media.geocommons.com/platial/img/2009/02/3/Ryan_CHEN(f).Jpg\">Boston<a title=\"Built for Community Mapping\" href=\"http://www.platial.com\"><img src=\"http://media.geocommons.com/platial/images/logotype_small.jpg\"></a>","id":"a63ugoxsraez"},"type":"Feature","geometry":{"type":"Point","coordinates":[-71.060278,42.358333]}},{"properties":{"name":"Sam Furness - Sociology","description":"Posted by Mcampion<img src=\"http://media.geocommons.com/platial/img/2009/02/3/Sam_FURNESS_(f).Jpg\">Bristol<a title=\"Built for Community Mapping\" href=\"http://www.platial.com\"><img src=\"http://media.geocommons.com/platial/images/logotype_small.jpg\"></a>","id":"a63ugoyw7pvt"},"type":"Feature","geometry":{"type":"Point","coordinates":[-2.591902,51.455313]}},{"properties":{"name":"Sam Kindler - Psychology","description":"Posted by Mcampion<img src=\"http://media.geocommons.com/platial/img/2009/10/0/13S2_KINDLER,_Samuel_KIND000005.Jpg\">University of Leicester, UK<a title=\"Built for Community Mapping\" href=\"http://www.platial.com\"><img src=\"http://media.geocommons.com/platial/images/logotype_small.jpg\"></a>","id":"a63ugp8dm8c0"},"type":"Feature","geometry":{"type":"Point","coordinates":[-1.1256118,52.6222799]}},{"properties":{"name":"Sam Koon - Mathematics","description":"Posted by Mcampion<img src=\"http://media.geocommons.com/platial/img/2009/02/3/Sam_KOON(f).Jpg\">University of Waterloo<a title=\"Built for Community Mapping\" href=\"http://www.platial.com\"><img src=\"http://media.geocommons.com/platial/images/logotype_small.jpg\"></a>","id":"a63ugp7u6o9e"},"type":"Feature","geometry":{"type":"Point","coordinates":[-80.554179,43.474909]}},{"properties":{"name":"Samantha Keylock - Product Design","description":"Posted by Mcampion<img src=\"http://media.geocommons.com/platial/img/2009/02/3/Samantha_KEYLOCK_.Jpg\">Leeds, UK<a title=\"Built for Community Mapping\" href=\"http://www.platial.com\"><img src=\"http://media.geocommons.com/platial/images/logotype_small.jpg\"></a>","id":"a63ugp8ktkjt"},"type":"Feature","geometry":{"type":"Point","coordinates":[-1.583333,53.799999]}},{"properties":{"name":"Samara Melwani - Psychology","description":"Posted by Mcampion<img src=\"http://media.geocommons.com/platial/img/2009/10/0/13S2_MELWANI,_Samara_MELW000004.Jpg\">University of Toronto<a title=\"Built for Community Mapping\" href=\"http://www.platial.com\"><img src=\"http://media.geocommons.com/platial/images/logotype_small.jpg\"></a>","id":"a63ugp4s6zmt"},"type":"Feature","geometry":{"type":"Point","coordinates":[-79.461483,43.785128]}},{"properties":{"name":"Sanchi Kumar - Jerome Fisher Program","description":"Posted by Mcampion<img src=\"http://media.geocommons.com/platial/img/2009/02/4/Sanchit_KUMAR_(f).Jpg\">University of Pennsylvainia<a title=\"Built for Community Mapping\" href=\"http://www.platial.com\"><img src=\"http://media.geocommons.com/platial/images/logotype_small.jpg\"></a>","id":"a63ugp1l73of"},"type":"Feature","geometry":{"type":"Point","coordinates":[-75.191849,39.952197]}},{"properties":{"name":"Sarah Jack - Law","description":"Posted by Mcampion<img src=\"http://media.geocommons.com/platial/img/2009/02/3/Sarah_JACK(f).Jpg\">Nottingham<a title=\"Built for Community Mapping\" href=\"http://www.platial.com\"><img src=\"http://media.geocommons.com/platial/images/logotype_small.jpg\"></a>","id":"a63ugoz97c3l"},"type":"Feature","geometry":{"type":"Point","coordinates":[-1.1493,52.955073]}},{"properties":{"name":"Sarah Woolcott-Brown - Psychology - UWE","description":"Posted by Mcampion<img src=\"http://media.geocommons.com/platial/img/2009/10/0/13T1_WOOLCOTT_BROWN,_Sarah_WOOL000003.Jpg\">Bristol, Angleterre<a title=\"Built for Community Mapping\" href=\"http://www.platial.com\"><img src=\"http://media.geocommons.com/platial/images/logotype_small.jpg\"></a>","id":"a63ugowzrewz"},"type":"Feature","geometry":{"type":"Point","coordinates":[-2.591902,51.455313]}},{"properties":{"name":"Scott Yiu - Natural Sciences","description":"Posted by Mcampion<img src=\"http://media.geocommons.com/platial/img/2009/10/0/13H1_YIU,_Scott_YIU_000002.Jpg\">University of Cambridge, UK<a title=\"Built for Community Mapping\" href=\"http://www.platial.com\"><img src=\"http://media.geocommons.com/platial/images/logotype_small.jpg\"></a>","id":"a63ugp4e27xc"},"type":"Feature","geometry":{"type":"Point","coordinates":[0.1161815,52.2011672]}},{"properties":{"name":"Shan Shan Yeung - Law - Univ.of Bristol","description":"Posted by Mcampion<img src=\"http://media.geocommons.com/platial/img/2009/10/0/13M2_YEUNG,_Tsz_Shan_YEUN000015_2_.Jpg\">Bristol, UK<a title=\"Built for Community Mapping\" href=\"http://www.platial.com\"><img src=\"http://media.geocommons.com/platial/images/logotype_small.jpg\"></a>","id":"a63ugp2g6jjf"},"type":"Feature","geometry":{"type":"Point","coordinates":[-2.583333,51.450001]}},{"properties":{"name":"Shinya Watanabe - Liberal Arts","description":"Posted by Mcampion<img src=\"http://media.geocommons.com/platial/img/2009/10/0/13A1_WATANABE,_Shinya_WATA000008.Jpg\">University of Chicago<a title=\"Built for Community Mapping\" href=\"http://www.platial.com\"><img src=\"http://media.geocommons.com/platial/images/logotype_small.jpg\"></a>","id":"a63ugoz8b7sb"},"type":"Feature","geometry":{"type":"Point","coordinates":[-87.598891,41.790051]}},{"properties":{"name":"Shirley Cheung - Mathematics","description":"Posted by Mcampion<img src=\"http://media.geocommons.com/platial/img/2009/10/0/13S1_CHEUNG,_Shirley_CHEU000404.Jpg\">University College Lodon<a title=\"Built for Community Mapping\" href=\"http://www.platial.com\"><img src=\"http://media.geocommons.com/platial/images/logotype_small.jpg\"></a>","id":"a63ugp2dqwbv"},"type":"Feature","geometry":{"type":"Point","coordinates":[-0.1337464,51.5246053]}},{"properties":{"name":"Shubhank Bajpai - Mechanical Engineering","description":"Posted by Mcampion<img src=\"http://media.geocommons.com/platial/img/2009/02/4/Shubhank_BAJPAI_(f).Jpg\">Purdue University, West Lafayette, IN<a title=\"Built for Community Mapping\" href=\"http://www.platial.com\"><img src=\"http://media.geocommons.com/platial/images/logotype_small.jpg\"></a>","id":"a63ugoxv0lon"},"type":"Feature","geometry":{"type":"Point","coordinates":[-86.914246,40.431195]}},{"properties":{"name":"Shurabhi Das - Psychology","description":"Posted by Mcampion<img src=\"http://media.geocommons.com/platial/img/2009/10/0/13S2_DAS,_Shurabhi_DAS_000003.Jpg\">New York University<a title=\"Built for Community Mapping\" href=\"http://www.platial.com\"><img src=\"http://media.geocommons.com/platial/images/logotype_small.jpg\"></a>","id":"a63ugp68vo62"},"type":"Feature","geometry":{"type":"Point","coordinates":[-73.99655,40.728294]}},{"properties":{"name":"Simran Khatwani - Music","description":"Posted by Mcampion<img src=\"http://media.geocommons.com/platial/img/2009/10/0/13M2_KHATWANI,_Simran_KHAT000004.Jpg\">Indiana University, Bloomington<a title=\"Built for Community Mapping\" href=\"http://www.platial.com\"><img src=\"http://media.geocommons.com/platial/images/logotype_small.jpg\"></a>","id":"a63ugp374l11"},"type":"Feature","geometry":{"type":"Point","coordinates":[-86.526944,39.166757]}},{"properties":{"name":"Sophia Ma - Sciences","description":"Posted by Mcampion<img src=\"http://media.geocommons.com/platial/img/2009/10/0/13A1_MA,_Sophia_MA__000018.Jpg\">The University Of Hong Kong, Hong Kong Island, Hong Kong<a title=\"Built for Community Mapping\" href=\"http://www.platial.com\"><img src=\"http://media.geocommons.com/platial/images/logotype_small.jpg\"></a>","id":"a63ugp4m37k1"},"type":"Feature","geometry":{"type":"Point","coordinates":[114.1390612,22.2815427]}},{"properties":{"name":"Sophie Raine - Biochemistry","description":"Posted by Mcampion<img src=\"http://media.geocommons.com/platial/img/2009/10/0/13A1_RAINE,_Sophie_RAIN000005.Jpg\">Newcastle University, UK<a title=\"Built for Community Mapping\" href=\"http://www.platial.com\"><img src=\"http://media.geocommons.com/platial/images/logotype_small.jpg\"></a>","id":"a63ugp7m9b1z"},"type":"Feature","geometry":{"type":"Point","coordinates":[-1.6155884,54.9812844]}},{"properties":{"name":"Sophie Sewell - Applying","description":"Posted by Mcampion<img src=\"http://media.geocommons.com/platial/img/2009/10/0/13M2_SEWELL,_Sophie_SEWE000005.Jpg\">Australia<a title=\"Built for Community Mapping\" href=\"http://www.platial.com\"><img src=\"http://media.geocommons.com/platial/images/logotype_small.jpg\"></a>","id":"a63ugp0tfzv6"},"type":"Feature","geometry":{"type":"Point","coordinates":[136.004555,-32.402641]}},{"properties":{"name":"Stasia Fong - Media Studies","description":"Posted by Mcampion<img src=\"http://media.geocommons.com/platial/img/2009/02/4/Stasia_FONG_(f).Jpg\">Emerson College, Boston<a title=\"Built for Community Mapping\" href=\"http://www.platial.com\"><img src=\"http://media.geocommons.com/platial/images/logotype_small.jpg\"></a>","id":"a63ugp3nvf85"},"type":"Feature","geometry":{"type":"Point","coordinates":[-71.065994,42.351807]}},{"properties":{"name":"Stephanie Leung - University of the Arts London","description":"Posted by Mcampion<img src=\"http://media.geocommons.com/platial/img/2009/02/3/Stephanie_LEUNG_(f).Jpg\">London<a title=\"Built for Community Mapping\" href=\"http://www.platial.com\"><img src=\"http://media.geocommons.com/platial/images/logotype_small.jpg\"></a>","id":"a63ugosfmhaz"},"type":"Feature","geometry":{"type":"Point","coordinates":[-0.126197,51.500197]}},{"properties":{"name":"Steve Cheung - Product Design","description":"Posted by Mcampion<img src=\"http://media.geocommons.com/platial/img/2009/02/4/Steve_CHEUNG_(f).Jpg\">Art Center, Pasadena, CA<a title=\"Built for Community Mapping\" href=\"http://www.platial.com\"><img src=\"http://media.geocommons.com/platial/images/logotype_small.jpg\"></a>","id":"a63ugp7wxpng"},"type":"Feature","geometry":{"type":"Point","coordinates":[-118.185323,34.169523]}},{"properties":{"name":"Steven Suzuki - Psychology","description":"Posted by Mcampion<img src=\"http://media.geocommons.com/platial/img/2009/02/4/Steven_SUZUKI_(f)_2_.Jpg\">University of South Australia, Adelaide<a title=\"Built for Community Mapping\" href=\"http://www.platial.com\"><img src=\"http://media.geocommons.com/platial/images/logotype_small.jpg\"></a>","id":"a63ugoy3i2sd"},"type":"Feature","geometry":{"type":"Point","coordinates":[138.60414,-34.919159]}},{"properties":{"name":"Sunit Dattani - Accounting","description":"Posted by Mcampion<img src=\"http://media.geocommons.com/platial/img/2009/10/0/13T2_DATTANI,_Sunit_DATT000003.Jpg\">University of York, UK<a title=\"Built for Community Mapping\" href=\"http://www.platial.com\"><img src=\"http://media.geocommons.com/platial/images/logotype_small.jpg\"></a>","id":"a63ugovr5mpv"},"type":"Feature","geometry":{"type":"Point","coordinates":[-1.0579,53.9456]}},{"properties":{"name":"Supriya Mundhra - Liberal Arts","description":"Posted by Mcampion<img src=\"http://media.geocommons.com/platial/img/2009/10/0/13M2_MUNDHRA,_Supriya_MUND000003.Jpg\">Cornell University, NY<a title=\"Built for Community Mapping\" href=\"http://www.platial.com\"><img src=\"http://media.geocommons.com/platial/images/logotype_small.jpg\"></a>","id":"a63ugp0rko9c"},"type":"Feature","geometry":{"type":"Point","coordinates":[-76.476089,42.447576]}},{"properties":{"name":"Susan Yung - Film Production","description":"Posted by Mcampion<img src=\"http://media.geocommons.com/platial/img/2009/10/0/13S2_YUNG,_Susan_YUNG000007.Jpg\">Ringling School, Sarasota, FL 34237, USA<a title=\"Built for Community Mapping\" href=\"http://www.platial.com\"><img src=\"http://media.geocommons.com/platial/images/logotype_small.jpg\"></a>","id":"a63ugox0hsxm"},"type":"Feature","geometry":{"type":"Point","coordinates":[-82.51954,27.336135]}},{"properties":{"name":"Takuto Matsubara - Hotel Management","description":"Posted by Mcampion<img src=\"http://media.geocommons.com/platial/img/2009/02/3/Takuto_MATSUBARA_(f).Jpg\">brighton<a title=\"Built for Community Mapping\" href=\"http://www.platial.com\"><img src=\"http://media.geocommons.com/platial/images/logotype_small.jpg\"></a>","id":"a63ugozqr5hk"},"type":"Feature","geometry":{"type":"Point","coordinates":[-0.139901,50.820723]}},{"properties":{"name":"Tanya Wong - Applying","description":"Posted by Mcampion<img src=\"http://media.geocommons.com/platial/img/2009/10/0/13A1_WONG,_Tanya_WONG000070.Jpg\">Australia<a title=\"Built for Community Mapping\" href=\"http://www.platial.com\"><img src=\"http://media.geocommons.com/platial/images/logotype_small.jpg\"></a>","id":"a63ugp5z2iwn"},"type":"Feature","geometry":{"type":"Point","coordinates":[136.004555,-32.402641]}},{"properties":{"name":"Tayla Nielson - Applying","description":"Posted by Mcampion<img src=\"http://media.geocommons.com/platial/img/2009/10/0/13H1_NEILSON,_Tayla_NEIL000004.Jpg\">Australia<a title=\"Built for Community Mapping\" href=\"http://www.platial.com\"><img src=\"http://media.geocommons.com/platial/images/logotype_small.jpg\"></a>","id":"a63ugp1bpjt9"},"type":"Feature","geometry":{"type":"Point","coordinates":[136.004555,-32.402641]}},{"properties":{"name":"Terence Chan - Creative Media","description":"Posted by Mcampion<img src=\"http://media.geocommons.com/platial/img/2009/02/3/Terence_CHAN_(f)_3_.Jpg\">City University of Hong Kong<a title=\"Built for Community Mapping\" href=\"http://www.platial.com\"><img src=\"http://media.geocommons.com/platial/images/logotype_small.jpg\"></a>","id":"a63ugowi5z3l"},"type":"Feature","geometry":{"type":"Point","coordinates":[114.173262,22.336363]}},{"properties":{"name":"Tessa Conrad - Arts","description":"Posted by Mcampion<img src=\"http://media.geocommons.com/platial/img/2009/10/0/13S2_CONRAD,_Tessa_CONR000001.Jpg\">McGiil University, Montreal<a title=\"Built for Community Mapping\" href=\"http://www.platial.com\"><img src=\"http://media.geocommons.com/platial/images/logotype_small.jpg\"></a>","id":"a63ugp6qo6xg"},"type":"Feature","geometry":{"type":"Point","coordinates":[-73.5766364,45.5052858]}},{"properties":{"name":"Theresia Hartanto","description":"Posted by Mcampion<img src=\"http://media.geocommons.com/platial/img/2009/02/3/Theresia_HARTANTO(f).Jpg\">Johnson County Community<a title=\"Built for Community Mapping\" href=\"http://www.platial.com\"><img src=\"http://media.geocommons.com/platial/images/logotype_small.jpg\"></a>","id":"a63ugp1miwfp"},"type":"Feature","geometry":{"type":"Point","coordinates":[-86.1,39.49]}},{"properties":{"name":"Thomas Latter - Engineering","description":"Posted by Mcampion<img src=\"http://media.geocommons.com/platial/img/2009/10/0/13J1_LATTER,_Thomas_LATT000005.Jpg\">Nottingham, UK<a title=\"Built for Community Mapping\" href=\"http://www.platial.com\"><img src=\"http://media.geocommons.com/platial/images/logotype_small.jpg\"></a>","id":"a63ugp8ksr47"},"type":"Feature","geometry":{"type":"Point","coordinates":[-1.166667,52.966667]}},{"properties":{"name":"Thomas Smith - Business Management","description":"Posted by Mcampion<img src=\"http://media.geocommons.com/platial/img/2009/02/3/Tom_SMITH(f).Jpg\">University of Newcastle, UK<a title=\"Built for Community Mapping\" href=\"http://www.platial.com\"><img src=\"http://media.geocommons.com/platial/images/logotype_small.jpg\"></a>","id":"a63ugov4jins"},"type":"Feature","geometry":{"type":"Point","coordinates":[-1.6155884,54.9812844]}},