{"type":"FeatureCollection","data_type":"Dataset","url_type":null,"permissions":[{"permissions":{"download":true,"view":true},"group_id":"everyone"}],"classification":null,"title":"\nqaz333's places\n","count":151,"stream_id":26944,"contributor":{"url":"http://geocommons.com/users/11444","name":"platial"},"data_attributes":null,"calculation_params":null,"icon_link":null,"link":"http://geocommons.com/overlays/26944.json","extent":[-123.112,-40.9201,174.986,59.44],"geometry_types":["point"],"unique_name":null,"name":"\nqaz333's places\n","feature_count":151,"description":"\nA Map by Qaz333\n\n\n","next_feature":null,"is_raster":false,"short_classification":"Y","stats":{},"features":[{"properties":{"name":"AdiQue","description":"Posted by Qaz333Katowice, Polanda happy ASUS V1 lappy owner<a title=\"Built for Community Mapping\" href=\"http://www.platial.com\"><img src=\"http://media.geocommons.com/platial/images/logotype_small.jpg\"></a>","id":"a6grz0j5buqb"},"type":"Feature","geometry":{"type":"Point","coordinates":[19.02,50.259998]}},{"properties":{"name":"Aeris","description":"Posted by Qaz333<img src=\"http://media.geocommons.com/platial/img/2008/11/2/Anthropomorphic_Flautist.jpg\">Tecate, Mexico<a title=\"Built for Community Mapping\" href=\"http://www.platial.com\"><img src=\"http://media.geocommons.com/platial/images/logotype_small.jpg\"></a>","id":"a6grz0gjc4b6"},"type":"Feature","geometry":{"type":"Point","coordinates":[-116.629997,32.569999]}},{"properties":{"name":"AirportDisco","description":"Posted by Qaz333Glasgow<a title=\"Built for Community Mapping\" href=\"http://www.platial.com\"><img src=\"http://media.geocommons.com/platial/images/logotype_small.jpg\"></a>","id":"a6grz0sr1qie"},"type":"Feature","geometry":{"type":"Point","coordinates":[-4.257224,55.865627]}},{"properties":{"name":"Alienized","description":"Posted by Qaz333Denver<a title=\"Built for Community Mapping\" href=\"http://www.platial.com\"><img src=\"http://media.geocommons.com/platial/images/logotype_small.jpg\"></a>","id":"a6grz0qtzwe8"},"type":"Feature","geometry":{"type":"Point","coordinates":[-104.984167,39.739167]}},{"properties":{"name":"Andy","description":"Posted by Qaz333London<a title=\"Built for Community Mapping\" href=\"http://www.platial.com\"><img src=\"http://media.geocommons.com/platial/images/logotype_small.jpg\"></a>","id":"a6grz0m634z6"},"type":"Feature","geometry":{"type":"Point","coordinates":[-0.126197,51.500197]}},{"properties":{"name":"Anonyguy","description":"Posted by Qaz333GoaNBR ROCKS!!!<a title=\"Built for Community Mapping\" href=\"http://www.platial.com\"><img src=\"http://media.geocommons.com/platial/images/logotype_small.jpg\"></a>","id":"a6grz0pfbpou"},"type":"Feature","geometry":{"type":"Point","coordinates":[74.029557,15.333167]}},{"properties":{"name":"Arkit3kt","description":"Posted by Qaz333Massachusetts<a title=\"Built for Community Mapping\" href=\"http://www.platial.com\"><img src=\"http://media.geocommons.com/platial/images/logotype_small.jpg\"></a>","id":"a6grz0u7gkkr"},"type":"Feature","geometry":{"type":"Point","coordinates":[-71.090999,42.321035]}},{"properties":{"name":"Astrogiblet","description":"Posted by Qaz33348439<a title=\"Built for Community Mapping\" href=\"http://www.platial.com\"><img src=\"http://media.geocommons.com/platial/images/logotype_small.jpg\"></a>","id":"a6grz0gfz8t9"},"type":"Feature","geometry":{"type":"Point","coordinates":[-83.647429,42.921026]}},{"properties":{"name":"Avanish11","description":"Posted by Qaz333<img src=\"http://media.geocommons.com/platial/img/2009/03/3/Untitled_1.gif\">Gettysburg, PAI am the banana king!<a title=\"Built for Community Mapping\" href=\"http://www.platial.com\"><img src=\"http://media.geocommons.com/platial/images/logotype_small.jpg\"></a>","id":"a6grz0o3m19s"},"type":"Feature","geometry":{"type":"Point","coordinates":[-77.231389,39.830833]}},{"properties":{"name":"Booboo12 (ricky)","description":"Posted by Qaz333shippensburgHI<a title=\"Built for Community Mapping\" href=\"http://www.platial.com\"><img src=\"http://media.geocommons.com/platial/images/logotype_small.jpg\"></a>","id":"a6grz0rwvokq"},"type":"Feature","geometry":{"type":"Point","coordinates":[-77.518666,40.051313]}},{"properties":{"name":"Brian","description":"Posted by Qaz333Lockport,Illinois<a title=\"Built for Community Mapping\" href=\"http://www.platial.com\"><img src=\"http://media.geocommons.com/platial/images/logotype_small.jpg\"></a>","id":"a6grz0ptxz6m"},"type":"Feature","geometry":{"type":"Point","coordinates":[-88.049727,41.582612]}},{"properties":{"name":"Brickmen","description":"Posted by Qaz333Longden, shrewsbury<a title=\"Built for Community Mapping\" href=\"http://www.platial.com\"><img src=\"http://media.geocommons.com/platial/images/logotype_small.jpg\"></a>","id":"a6grz0qvqgof"},"type":"Feature","geometry":{"type":"Point","coordinates":[-2.826804,52.6518674]}},{"properties":{"name":"CeeNote","description":"Posted by Qaz333calgary<a title=\"Built for Community Mapping\" href=\"http://www.platial.com\"><img src=\"http://media.geocommons.com/platial/images/logotype_small.jpg\"></a>","id":"a6grz0jamyfm"},"type":"Feature","geometry":{"type":"Point","coordinates":[-114.080796,51.039877]}},{"properties":{"name":"Chamillitary Man","description":"Posted by Qaz333<img src=\"http://media.geocommons.com/platial/img/2008/11/2/Chamillitary.jpg\">shreveport, laRep! Yo Hood!!!<a title=\"Built for Community Mapping\" href=\"http://www.platial.com\"><img src=\"http://media.geocommons.com/platial/images/logotype_small.jpg\"></a>","id":"a6grz0jeo7hh"},"type":"Feature","geometry":{"type":"Point","coordinates":[-93.75,32.525]}},{"properties":{"name":"Chargerbaseball25","description":"Posted by Qaz333Smithfield, VA<a title=\"Built for Community Mapping\" href=\"http://www.platial.com\"><img src=\"http://media.geocommons.com/platial/images/logotype_small.jpg\"></a>","id":"a6grz0l559wl"},"type":"Feature","geometry":{"type":"Point","coordinates":[-76.611453,36.97617]}},{"properties":{"name":"Chaz","description":"Posted by Qaz333<img src=\"http://media.geocommons.com/platial/img/2008/11/1/129181_boba_fett_400.jpg\">Philadelphia, PAGreetings!<a title=\"Built for Community Mapping\" href=\"http://www.platial.com\"><img src=\"http://media.geocommons.com/platial/images/logotype_small.jpg\"></a>","id":"a6grz0l77vsr"},"type":"Feature","geometry":{"type":"Point","coordinates":[-75.164167,39.952222]}},{"properties":{"name":"Chris","description":"Posted by Qaz333orlando<a title=\"Built for Community Mapping\" href=\"http://www.platial.com\"><img src=\"http://media.geocommons.com/platial/images/logotype_small.jpg\"></a>","id":"a6grz0jydcs6"},"type":"Feature","geometry":{"type":"Point","coordinates":[-81.379444,28.538056]}},{"properties":{"name":"Cin!","description":"Posted by Qaz333<img src=\"http://media.geocommons.com/platial/img/2008/11/1/cinny1_3_.jpg\">michigan<a title=\"Built for Community Mapping\" href=\"http://www.platial.com\"><img src=\"http://media.geocommons.com/platial/images/logotype_small.jpg\"></a>","id":"a6grz0hmcvz1"},"type":"Feature","geometry":{"type":"Point","coordinates":[-85.0,45.01]}},{"properties":{"name":"Cin'","description":"Posted by Qaz333<img src=\"http://media.geocommons.com/platial/img/2008/11/1/cinny1_2_.jpg\">Michigan, US<a title=\"Built for Community Mapping\" href=\"http://www.platial.com\"><img src=\"http://media.geocommons.com/platial/images/logotype_small.jpg\"></a>","id":"a6grz0p07o4v"},"type":"Feature","geometry":{"type":"Point","coordinates":[-84.551712,42.714798]}},{"properties":{"name":"Cin'","description":"Posted by Qaz333US - Midwest!<a title=\"Built for Community Mapping\" href=\"http://www.platial.com\"><img src=\"http://media.geocommons.com/platial/images/logotype_small.jpg\"></a>","id":"a6grz0lhozmn"},"type":"Feature","geometry":{"type":"Point","coordinates":[-106.272597,43.414314]}},{"properties":{"name":"Cin'","description":"Posted by Qaz333<img src=\"http://media.geocommons.com/platial/img/2008/11/1/cinny1.jpg\">Michigan, US<a title=\"Built for Community Mapping\" href=\"http://www.platial.com\"><img src=\"http://media.geocommons.com/platial/images/logotype_small.jpg\"></a>","id":"a6grz0n5ez3x"},"type":"Feature","geometry":{"type":"Point","coordinates":[-84.551712,42.714798]}},{"properties":{"name":"Citizen86","description":"Posted by Qaz333<img src=\"http://media.geocommons.com/platial/img/2008/11/3/g28703unkw1.jpg\">puerto vallarta jalisco mexicoCanadian living in Mexico!<a title=\"Built for Community Mapping\" href=\"http://www.platial.com\"><img src=\"http://media.geocommons.com/platial/images/logotype_small.jpg\"></a>","id":"a6grz0ku9ruz"},"type":"Feature","geometry":{"type":"Point","coordinates":[-105.228457,20.622018]}},{"properties":{"name":"ClearSkies","description":"Posted by Qaz333Tampa,Fl<a title=\"Built for Community Mapping\" href=\"http://www.platial.com\"><img src=\"http://media.geocommons.com/platial/images/logotype_small.jpg\"></a>","id":"a6grz0p2p2sq"},"type":"Feature","geometry":{"type":"Point","coordinates":[-82.458611,27.947222]}},{"properties":{"name":"Cncco","description":"Posted by Qaz333west chicago, il<a title=\"Built for Community Mapping\" href=\"http://www.platial.com\"><img src=\"http://media.geocommons.com/platial/images/logotype_small.jpg\"></a>","id":"a6grz0r72ibn"},"type":"Feature","geometry":{"type":"Point","coordinates":[-88.203889,41.884722]}},{"properties":{"name":"Crimson Roses","description":"Posted by Qaz333<img src=\"http://media.geocommons.com/platial/img/2008/11/1/Big_Rose.jpg\">Fox Lake<a title=\"Built for Community Mapping\" href=\"http://www.platial.com\"><img src=\"http://media.geocommons.com/platial/images/logotype_small.jpg\"></a>","id":"a6grz0gpubkc"},"type":"Feature","geometry":{"type":"Point","coordinates":[-88.177936,42.397378]}},{"properties":{"name":"Crimson Roses","description":"Posted by Qaz333Fox Lake<a title=\"Built for Community Mapping\" href=\"http://www.platial.com\"><img src=\"http://media.geocommons.com/platial/images/logotype_small.jpg\"></a>","id":"a6grz0kyug59"},"type":"Feature","geometry":{"type":"Point","coordinates":[-88.177936,42.397378]}},{"properties":{"name":"Daniel McKnight","description":"Posted by Qaz33384120Guns and chainsaws rule.<a title=\"Built for Community Mapping\" href=\"http://www.platial.com\"><img src=\"http://media.geocommons.com/platial/images/logotype_small.jpg\"></a>","id":"a6grz0snta09"},"type":"Feature","geometry":{"type":"Point","coordinates":[-111.999772,40.696395]}},{"properties":{"name":"DarkSmiley","description":"Posted by Qaz333<img src=\"http://media.geocommons.com/platial/img/2008/11/1/avatar_3_.png\">Chepachet<a title=\"Built for Community Mapping\" href=\"http://www.platial.com\"><img src=\"http://media.geocommons.com/platial/images/logotype_small.jpg\"></a>","id":"a6grz0rwdoeo"},"type":"Feature","geometry":{"type":"Point","coordinates":[-71.671414,41.915149]}},{"properties":{"name":"DetlevCM","description":"Posted by Qaz333South Yorkshire, UK<a title=\"Built for Community Mapping\" href=\"http://www.platial.com\"><img src=\"http://media.geocommons.com/platial/images/logotype_small.jpg\"></a>","id":"a6grz0nc2sp4"},"type":"Feature","geometry":{"type":"Point","coordinates":[-1.3606925,53.480261]}},{"properties":{"name":"Diablo85","description":"Posted by Qaz333fayetteville, NC<a title=\"Built for Community Mapping\" href=\"http://www.platial.com\"><img src=\"http://media.geocommons.com/platial/images/logotype_small.jpg\"></a>","id":"a6grz0mju2j4"},"type":"Feature","geometry":{"type":"Point","coordinates":[-78.878611,35.0525]}},{"properties":{"name":"Dire NTropy","description":"Posted by Qaz333philadelphia<a title=\"Built for Community Mapping\" href=\"http://www.platial.com\"><img src=\"http://media.geocommons.com/platial/images/logotype_small.jpg\"></a>","id":"a6grz0rt4uul"},"type":"Feature","geometry":{"type":"Point","coordinates":[-75.164167,39.952222]}},{"properties":{"name":"Drummer101","description":"Posted by Qaz333st paul<a title=\"Built for Community Mapping\" href=\"http://www.platial.com\"><img src=\"http://media.geocommons.com/platial/images/logotype_small.jpg\"></a>","id":"a6grz0sohw7s"},"type":"Feature","geometry":{"type":"Point","coordinates":[-93.093056,44.944444]}},{"properties":{"name":"FUCK","description":"Posted by Qaz333sydney<a title=\"Built for Community Mapping\" href=\"http://www.platial.com\"><img src=\"http://media.geocommons.com/platial/images/logotype_small.jpg\"></a>","id":"a6grz0l7valy"},"type":"Feature","geometry":{"type":"Point","coordinates":[151.210006,-33.869998]}},{"properties":{"name":"Forever_Melody","description":"Posted by Qaz333<img src=\"http://media.geocommons.com/platial/img/2008/11/1/Mimi_ava_2_.jpg\">Montreal,QuebecWeeeeee<a title=\"Built for Community Mapping\" href=\"http://www.platial.com\"><img src=\"http://media.geocommons.com/platial/images/logotype_small.jpg\"></a>","id":"a6grz0pdkfy9"},"type":"Feature","geometry":{"type":"Point","coordinates":[-73.675627,45.512363]}},{"properties":{"name":"Forever_Melody","description":"Posted by Qaz333<img src=\"http://media.geocommons.com/platial/img/2008/11/1/Mimi_ava.jpg\">Montreal,Quebec<a title=\"Built for Community Mapping\" href=\"http://www.platial.com\"><img src=\"http://media.geocommons.com/platial/images/logotype_small.jpg\"></a>","id":"a6grz0sb5153"},"type":"Feature","geometry":{"type":"Point","coordinates":[-73.675627,45.512363]}},{"properties":{"name":"Fredted","description":"Posted by Qaz333Fareham<a title=\"Built for Community Mapping\" href=\"http://www.platial.com\"><img src=\"http://media.geocommons.com/platial/images/logotype_small.jpg\"></a>","id":"a6grz0lyf2r1"},"type":"Feature","geometry":{"type":"Point","coordinates":[-1.179016,50.851454]}},{"properties":{"name":"Fulltilt","description":"Posted by Qaz333FL<a title=\"Built for Community Mapping\" href=\"http://www.platial.com\"><img src=\"http://media.geocommons.com/platial/images/logotype_small.jpg\"></a>","id":"a6grz0ukit3j"},"type":"Feature","geometry":{"type":"Point","coordinates":[-81.572,28.3931]}},{"properties":{"name":"Gregory","description":"Posted by Qaz333<img src=\"http://media.geocommons.com/platial/img/2008/11/1/image_3_.jpg\">02721<a title=\"Built for Community Mapping\" href=\"http://www.platial.com\"><img src=\"http://media.geocommons.com/platial/images/logotype_small.jpg\"></a>","id":"a6grz0qohe36"},"type":"Feature","geometry":{"type":"Point","coordinates":[-71.148002,41.668285]}},{"properties":{"name":"Hirohata","description":"Posted by Qaz333<img src=\"http://media.geocommons.com/platial/img/2008/11/1/th_kyonko_avatar_200x200.jpg\">Bruneio.O only me?<a title=\"Built for Community Mapping\" href=\"http://www.platial.com\"><img src=\"http://media.geocommons.com/platial/images/logotype_small.jpg\"></a>","id":"a6grz0teqjx0"},"type":"Feature","geometry":{"type":"Point","coordinates":[114.727669,4.535277]}},{"properties":{"name":"Huskerz85","description":"Posted by Qaz33368127<a title=\"Built for Community Mapping\" href=\"http://www.platial.com\"><img src=\"http://media.geocommons.com/platial/images/logotype_small.jpg\"></a>","id":"a6grz0hpl5no"},"type":"Feature","geometry":{"type":"Point","coordinates":[-96.052036,41.207353]}},{"properties":{"name":"IKAS V","description":"Posted by Qaz333worcesterHoney I\\'m home!<a title=\"Built for Community Mapping\" href=\"http://www.platial.com\"><img src=\"http://media.geocommons.com/platial/images/logotype_small.jpg\"></a>","id":"a6grz0ui13dg"},"type":"Feature","geometry":{"type":"Point","coordinates":[-71.802778,42.2625]}},{"properties":{"name":"Isend2C","description":"Posted by Qaz333New London, New Hampshire, USAOh Snap!  I Have A Dot On The Map!<a title=\"Built for Community Mapping\" href=\"http://www.platial.com\"><img src=\"http://media.geocommons.com/platial/images/logotype_small.jpg\"></a>","id":"a6grz0pu6e85"},"type":"Feature","geometry":{"type":"Point","coordinates":[-71.98482,43.414322]}},{"properties":{"name":"JBean","description":"Posted by Qaz333London<a title=\"Built for Community Mapping\" href=\"http://www.platial.com\"><img src=\"http://media.geocommons.com/platial/images/logotype_small.jpg\"></a>","id":"a6grz0h6lzj9"},"type":"Feature","geometry":{"type":"Point","coordinates":[-0.126197,51.500197]}},{"properties":{"name":"JM","description":"Posted by Qaz333Los Altos, CAThe Banking Geek!<a title=\"Built for Community Mapping\" href=\"http://www.platial.com\"><img src=\"http://media.geocommons.com/platial/images/logotype_small.jpg\"></a>","id":"a6grz0r6ciwu"},"type":"Feature","geometry":{"type":"Point","coordinates":[-122.095538,37.368181]}},{"properties":{"name":"JM","description":"Posted by Qaz33394024The Banking Geek/Conservative Dick!<a title=\"Built for Community Mapping\" href=\"http://www.platial.com\"><img src=\"http://media.geocommons.com/platial/images/logotype_small.jpg\"></a>","id":"a6grz0qthyll"},"type":"Feature","geometry":{"type":"Point","coordinates":[-122.086205,37.354745]}},{"properties":{"name":"Jasmine","description":"Posted by Qaz333<img src=\"http://media.geocommons.com/platial/img/2008/11/1/me_45_.jpg\">LONG BEACH<a title=\"Built for Community Mapping\" href=\"http://www.platial.com\"><img src=\"http://media.geocommons.com/platial/images/logotype_small.jpg\"></a>","id":"a6grz0swrmao"},"type":"Feature","geometry":{"type":"Point","coordinates":[-118.188333,33.766944]}},{"properties":{"name":"Jeff","description":"Posted by Qaz333St Clair, Australia<a title=\"Built for Community Mapping\" href=\"http://www.platial.com\"><img src=\"http://media.geocommons.com/platial/images/logotype_small.jpg\"></a>","id":"a6grz0nkos3g"},"type":"Feature","geometry":{"type":"Point","coordinates":[150.790261,-33.794362]}},{"properties":{"name":"K-TRON","description":"Posted by Qaz333<img src=\"http://media.geocommons.com/platial/img/2008/11/1/138_3875.JPG\">troy nyI am K-TRON and I go to RPI, in Troy, New York.\r<a title=\"Built for Community Mapping\" href=\"http://www.platial.com\"><img src=\"http://media.geocommons.com/platial/images/logotype_small.jpg\"></a>","id":"a6grz0ld6n6x"},"type":"Feature","geometry":{"type":"Point","coordinates":[-73.676561,42.73304]}},{"properties":{"name":"Kdawgca","description":"Posted by Qaz333CA<a title=\"Built for Community Mapping\" href=\"http://www.platial.com\"><img src=\"http://media.geocommons.com/platial/images/logotype_small.jpg\"></a>","id":"a6grz0kjspfp"},"type":"Feature","geometry":{"type":"Point","coordinates":[-119.245693,37.267666]}},{"properties":{"name":"LIVEFRMNYC","description":"Posted by Qaz333<img src=\"http://media.geocommons.com/platial/img/2008/11/2/chik2008_10_21_212132.jpg\">11377<a title=\"Built for Community Mapping\" href=\"http://www.platial.com\"><img src=\"http://media.geocommons.com/platial/images/logotype_small.jpg\"></a>","id":"a6grz0q2dgco"},"type":"Feature","geometry":{"type":"Point","coordinates":[-73.906412,40.747995]}},{"properties":{"name":"Leon","description":"Posted by Qaz333Glen Allen, VA<a title=\"Built for Community Mapping\" href=\"http://www.platial.com\"><img src=\"http://media.geocommons.com/platial/images/logotype_small.jpg\"></a>","id":"a6grz0fhkbex"},"type":"Feature","geometry":{"type":"Point","coordinates":[-77.506667,37.665833]}},{"properties":{"name":"Levenly","description":"Posted by Qaz333woodbridge va<a title=\"Built for Community Mapping\" href=\"http://www.platial.com\"><img src=\"http://media.geocommons.com/platial/images/logotype_small.jpg\"></a>","id":"a6grz0kll7o2"},"type":"Feature","geometry":{"type":"Point","coordinates":[-77.267396,38.63956]}},{"properties":{"name":"Levenly","description":"Posted by Qaz333george mason university<a title=\"Built for Community Mapping\" href=\"http://www.platial.com\"><img src=\"http://media.geocommons.com/platial/images/logotype_small.jpg\"></a>","id":"a6grz0i4vn9e"},"type":"Feature","geometry":{"type":"Point","coordinates":[-77.307223,38.829828]}},{"properties":{"name":"LivArt","description":"Posted by Qaz333<img src=\"http://media.geocommons.com/platial/img/2008/11/1/Avatar_19_.jpg\">Czech RepublicHello<a title=\"Built for Community Mapping\" href=\"http://www.platial.com\"><img src=\"http://media.geocommons.com/platial/images/logotype_small.jpg\"></a>","id":"a6grz0hnj2uu"},"type":"Feature","geometry":{"type":"Point","coordinates":[15.472962,49.817492]}},{"properties":{"name":"Livesoft","description":"Posted by Qaz333<img src=\"http://media.geocommons.com/platial/img/2008/11/2/Mythbusters_Reality.jpg\">Montreal, Canada<a title=\"Built for Community Mapping\" href=\"http://www.platial.com\"><img src=\"http://media.geocommons.com/platial/images/logotype_small.jpg\"></a>","id":"a6grz0oo8l14"},"type":"Feature","geometry":{"type":"Point","coordinates":[-73.675627,45.512363]}},{"properties":{"name":"MadHater","description":"Posted by Qaz333Niksic, MontenegroGuy with great horizons in a small country ;)<a title=\"Built for Community Mapping\" href=\"http://www.platial.com\"><img src=\"http://media.geocommons.com/platial/images/logotype_small.jpg\"></a>","id":"a6grz0ooi6ym"},"type":"Feature","geometry":{"type":"Point","coordinates":[18.94416,42.773281]}},{"properties":{"name":"Mark","description":"Posted by Qaz333sandy<a title=\"Built for Community Mapping\" href=\"http://www.platial.com\"><img src=\"http://media.geocommons.com/platial/images/logotype_small.jpg\"></a>","id":"a6grz0ue627u"},"type":"Feature","geometry":{"type":"Point","coordinates":[-111.872219,40.580808]}},{"properties":{"name":"MastaMarek","description":"Posted by Qaz333chicago<a title=\"Built for Community Mapping\" href=\"http://www.platial.com\"><img src=\"http://media.geocommons.com/platial/images/logotype_small.jpg\"></a>","id":"a6grz0jfe7fm"},"type":"Feature","geometry":{"type":"Point","coordinates":[-87.65,41.85]}},{"properties":{"name":"Matt","description":"Posted by Qaz333<img src=\"http://media.geocommons.com/platial/img/2008/11/1/A024.png\">Omaha, Ne.<a title=\"Built for Community Mapping\" href=\"http://www.platial.com\"><img src=\"http://media.geocommons.com/platial/images/logotype_small.jpg\"></a>","id":"a6grz0fn2xmg"},"type":"Feature","geometry":{"type":"Point","coordinates":[-95.942336,41.259751]}},{"properties":{"name":"Matt","description":"Posted by Qaz333<img src=\"http://media.geocommons.com/platial/img/2008/12/2/Damn_Gas.jpg\">louisville, ky<a title=\"Built for Community Mapping\" href=\"http://www.platial.com\"><img src=\"http://media.geocommons.com/platial/images/logotype_small.jpg\"></a>","id":"a6grz0oqfs7u"},"type":"Feature","geometry":{"type":"Point","coordinates":[-85.759444,38.254167]}},{"properties":{"name":"Meemat","description":"Posted by Qaz333houston!!!<a title=\"Built for Community Mapping\" href=\"http://www.platial.com\"><img src=\"http://media.geocommons.com/platial/images/logotype_small.jpg\"></a>","id":"a6grz0icf77x"},"type":"Feature","geometry":{"type":"Point","coordinates":[-95.363056,29.763056]}},{"properties":{"name":"Millermagic","description":"Posted by Qaz33313408Millermagic<a title=\"Built for Community Mapping\" href=\"http://www.platial.com\"><img src=\"http://media.geocommons.com/platial/images/logotype_small.jpg\"></a>","id":"a6grz0k5b8za"},"type":"Feature","geometry":{"type":"Point","coordinates":[-75.6789905,42.9166869]}},{"properties":{"name":"Mimino","description":"Posted by Qaz333<img src=\"http://media.geocommons.com/platial/img/2008/11/1/1787098.jpg\">new york<a title=\"Built for Community Mapping\" href=\"http://www.platial.com\"><img src=\"http://media.geocommons.com/platial/images/logotype_small.jpg\"></a>","id":"a6grz0tv68pk"},"type":"Feature","geometry":{"type":"Point","coordinates":[-74.006389,40.714167]}},{"properties":{"name":"Modly","description":"Posted by Qaz333beaverton<a title=\"Built for Community Mapping\" href=\"http://www.platial.com\"><img src=\"http://media.geocommons.com/platial/images/logotype_small.jpg\"></a>","id":"a6grz0kai327"},"type":"Feature","geometry":{"type":"Point","coordinates":[-122.8025,45.487222]}},{"properties":{"name":"N00d13s","description":"Posted by Qaz333syracuse<a title=\"Built for Community Mapping\" href=\"http://www.platial.com\"><img src=\"http://media.geocommons.com/platial/images/logotype_small.jpg\"></a>","id":"a6grz0raqsu6"},"type":"Feature","geometry":{"type":"Point","coordinates":[-76.147778,43.048056]}},{"properties":{"name":"Narsnail","description":"Posted by Qaz333<img src=\"http://media.geocommons.com/platial/img/2008/11/1/haircut_chewbacca.jpg\">Dorchester-on-thames<a title=\"Built for Community Mapping\" href=\"http://www.platial.com\"><img src=\"http://media.geocommons.com/platial/images/logotype_small.jpg\"></a>","id":"a6grz0jlgevj"},"type":"Feature","geometry":{"type":"Point","coordinates":[-81.058578,42.988594]}},{"properties":{"name":"Oceanus","description":"Posted by Qaz33392879<a title=\"Built for Community Mapping\" href=\"http://www.platial.com\"><img src=\"http://media.geocommons.com/platial/images/logotype_small.jpg\"></a>","id":"a6grz0k6988k"},"type":"Feature","geometry":{"type":"Point","coordinates":[-117.565556,33.875278]}},{"properties":{"name":"Pai","description":"Posted by Qaz333Taipei<a title=\"Built for Community Mapping\" href=\"http://www.platial.com\"><img src=\"http://media.geocommons.com/platial/images/logotype_small.jpg\"></a>","id":"a6grz0fatm8n"},"type":"Feature","geometry":{"type":"Point","coordinates":[121.449996,25.02]}},{"properties":{"name":"Patrick","description":"Posted by Qaz333granada hillsSoCal FTW!!!<a title=\"Built for Community Mapping\" href=\"http://www.platial.com\"><img src=\"http://media.geocommons.com/platial/images/logotype_small.jpg\"></a>","id":"a6grz0gkwtud"},"type":"Feature","geometry":{"type":"Point","coordinates":[-118.4979,34.26394]}},{"properties":{"name":"Polarixx","description":"Posted by Qaz3331430 university ave ne<a title=\"Built for Community Mapping\" href=\"http://www.platial.com\"><img src=\"http://media.geocommons.com/platial/images/logotype_small.jpg\"></a>","id":"a6grz0m2mq2e"},"type":"Feature","geometry":{"type":"Point","coordinates":[-93.263512,45.002918]}},{"properties":{"name":"Prescott","description":"Posted by Qaz333<img src=\"http://media.geocommons.com/platial/img/2008/11/1/PhiladelphiaE.jpg\">Prescott<a title=\"Built for Community Mapping\" href=\"http://www.platial.com\"><img src=\"http://media.geocommons.com/platial/images/logotype_small.jpg\"></a>","id":"a6grz0fhppvw"},"type":"Feature","geometry":{"type":"Point","coordinates":[-112.467778,34.54]}},{"properties":{"name":"Sam","description":"Posted by Qaz333Vancouver<a title=\"Built for Community Mapping\" href=\"http://www.platial.com\"><img src=\"http://media.geocommons.com/platial/images/logotype_small.jpg\"></a>","id":"a6grz0p2g07s"},"type":"Feature","geometry":{"type":"Point","coordinates":[-123.111934,49.250494]}},{"properties":{"name":"Satyrion","description":"Posted by Qaz333<img src=\"http://media.geocommons.com/platial/img/2008/11/1/sexy_birthday_pic_1.jpg\">Thailand, 10400Here i live<a title=\"Built for Community Mapping\" href=\"http://www.platial.com\"><img src=\"http://media.geocommons.com/platial/images/logotype_small.jpg\"></a>","id":"a6grz0fas3bn"},"type":"Feature","geometry":{"type":"Point","coordinates":[100.5087223,13.7871574]}},{"properties":{"name":"Silas Awaketh","description":"Posted by Qaz333gurgaon<a title=\"Built for Community Mapping\" href=\"http://www.platial.com\"><img src=\"http://media.geocommons.com/platial/images/logotype_small.jpg\"></a>","id":"a6grz0vbwh7t"},"type":"Feature","geometry":{"type":"Point","coordinates":[77.033333,28.466667]}},{"properties":{"name":"SonorityGenius","description":"Posted by Qaz333New Jersey;Ah the boring ole NJ! <a title=\"Built for Community Mapping\" href=\"http://www.platial.com\"><img src=\"http://media.geocommons.com/platial/images/logotype_small.jpg\"></a>","id":"a6grz0twiyzu"},"type":"Feature","geometry":{"type":"Point","coordinates":[-74.728565,40.07241]}},{"properties":{"name":"Steveninspokae","description":"Posted by Qaz333Spokane, WAYup!<a title=\"Built for Community Mapping\" href=\"http://www.platial.com\"><img src=\"http://media.geocommons.com/platial/images/logotype_small.jpg\"></a>","id":"a6grz0i0gsdl"},"type":"Feature","geometry":{"type":"Point","coordinates":[-117.425,47.658889]}},{"properties":{"name":"Syndrome","description":"Posted by Qaz333Colorado, Utah<a title=\"Built for Community Mapping\" href=\"http://www.platial.com\"><img src=\"http://media.geocommons.com/platial/images/logotype_small.jpg\"></a>","id":"a6grz0vns3me"},"type":"Feature","geometry":{"type":"Point","coordinates":[-112.98318,36.981005]}},{"properties":{"name":"TeeJay44","description":"Posted by Qaz333<img src=\"http://media.geocommons.com/platial/img/2008/11/1/9385567__1177218543__1__1_741404a4808e70370666859f5b49a5ac___big___2_.jpg\">Cape Town<a title=\"Built for Community Mapping\" href=\"http://www.platial.com\"><img src=\"http://media.geocommons.com/platial/images/logotype_small.jpg\"></a>","id":"a6grz0fwv2zv"},"type":"Feature","geometry":{"type":"Point","coordinates":[18.459999,-33.93]}},{"properties":{"name":"TeeJay44","description":"Posted by Qaz333<img src=\"http://media.geocommons.com/platial/img/2008/11/1/9385567__1177218543__1__1_741404a4808e70370666859f5b49a5ac___big__.jpg\">south africaIm here<a title=\"Built for Community Mapping\" href=\"http://www.platial.com\"><img src=\"http://media.geocommons.com/platial/images/logotype_small.jpg\"></a>","id":"a6grz0t84xp8"},"type":"Feature","geometry":{"type":"Point","coordinates":[27.232498,-34.553059]}},{"properties":{"name":"Teraforce","description":"Posted by Qaz333<img src=\"http://media.geocommons.com/platial/img/2008/11/1/spark.gif\">Terre Haute, Indiana<a title=\"Built for Community Mapping\" href=\"http://www.platial.com\"><img src=\"http://media.geocommons.com/platial/images/logotype_small.jpg\"></a>","id":"a6grz0reiv7r"},"type":"Feature","geometry":{"type":"Point","coordinates":[-87.413889,39.466667]}},{"properties":{"name":"Teraforce","description":"Posted by Qaz333<img src=\"http://media.geocommons.com/platial/img/2008/11/1/Sparkster.jpg\">Terre Haute, Indiana<a title=\"Built for Community Mapping\" href=\"http://www.platial.com\"><img src=\"http://media.geocommons.com/platial/images/logotype_small.jpg\"></a>","id":"a6grz0ka3xp0"},"type":"Feature","geometry":{"type":"Point","coordinates":[-87.413889,39.466667]}},{"properties":{"name":"The Morningstar","description":"Posted by Qaz333canberra<a title=\"Built for Community Mapping\" href=\"http://www.platial.com\"><img src=\"http://media.geocommons.com/platial/images/logotype_small.jpg\"></a>","id":"a6grz0otlom6"},"type":"Feature","geometry":{"type":"Point","coordinates":[149.130004,-35.310001]}},{"properties":{"name":"Thomas Murlis!","description":"Posted by Qaz333<img src=\"http://media.geocommons.com/platial/img/2008/11/1/IMG_1650.JPG\">Weston Super Mare<a title=\"Built for Community Mapping\" href=\"http://www.platial.com\"><img src=\"http://media.geocommons.com/platial/images/logotype_small.jpg\"></a>","id":"a6grz0gfm6js"},"type":"Feature","geometry":{"type":"Point","coordinates":[-2.9793,51.347624]}},{"properties":{"name":"TianXia","description":"Posted by Qaz333<img src=\"http://media.geocommons.com/platial/img/2008/11/2/53.jpg\">London<a title=\"Built for Community Mapping\" href=\"http://www.platial.com\"><img src=\"http://media.geocommons.com/platial/images/logotype_small.jpg\"></a>","id":"a6grz0h4di1b"},"type":"Feature","geometry":{"type":"Point","coordinates":[-0.126197,51.500197]}},{"properties":{"name":"Tinderbox (UK)","description":"Posted by Qaz333south shields england<a title=\"Built for Community Mapping\" href=\"http://www.platial.com\"><img src=\"http://media.geocommons.com/platial/images/logotype_small.jpg\"></a>","id":"a6grz0j93nqp"},"type":"Feature","geometry":{"type":"Point","coordinates":[-1.4277052,54.9957966]}},{"properties":{"name":"Tippey","description":"Posted by Qaz33320 vienna ct frederick mdi live here!<a title=\"Built for Community Mapping\" href=\"http://www.platial.com\"><img src=\"http://media.geocommons.com/platial/images/logotype_small.jpg\"></a>","id":"a6grz0t08zdg"},"type":"Feature","geometry":{"type":"Point","coordinates":[0.0,20.0]}},{"properties":{"name":"TonyTheTiger","description":"Posted by Qaz333Lexington<a title=\"Built for Community Mapping\" href=\"http://www.platial.com\"><img src=\"http://media.geocommons.com/platial/images/logotype_small.jpg\"></a>","id":"a6grz0slk2w2"},"type":"Feature","geometry":{"type":"Point","coordinates":[-84.500278,38.049167]}},{"properties":{"name":"TonytheTiger","description":"Posted by Qaz333<img src=\"http://media.geocommons.com/platial/img/2008/11/1/hotversion_94_0012.JPG\">Lexington<a title=\"Built for Community Mapping\" href=\"http://www.platial.com\"><img src=\"http://media.geocommons.com/platial/images/logotype_small.jpg\"></a>","id":"a6grz0rzcpra"},"type":"Feature","geometry":{"type":"Point","coordinates":[-84.500278,38.049167]}},{"properties":{"name":"Tybalt39","description":"Posted by Qaz333eugene,or<a title=\"Built for Community Mapping\" href=\"http://www.platial.com\"><img src=\"http://media.geocommons.com/platial/images/logotype_small.jpg\"></a>","id":"a6grz0fizviu"},"type":"Feature","geometry":{"type":"Point","coordinates":[-123.085556,44.052222]}},{"properties":{"name":"TylerS23","description":"Posted by Qaz333canton oh<a title=\"Built for Community Mapping\" href=\"http://www.platial.com\"><img src=\"http://media.geocommons.com/platial/images/logotype_small.jpg\"></a>","id":"a6grz0pty3eq"},"type":"Feature","geometry":{"type":"Point","coordinates":[-81.376113,40.809302]}},{"properties":{"name":"V V","description":"Posted by Qaz333sunnyvale<a title=\"Built for Community Mapping\" href=\"http://www.platial.com\"><img src=\"http://media.geocommons.com/platial/images/logotype_small.jpg\"></a>","id":"a6grz0leuz9y"},"type":"Feature","geometry":{"type":"Point","coordinates":[-122.035278,37.368889]}},{"properties":{"name":"Whaler_99","description":"Posted by Qaz333Midland Ontario<a title=\"Built for Community Mapping\" href=\"http://www.platial.com\"><img src=\"http://media.geocommons.com/platial/images/logotype_small.jpg\"></a>","id":"a6grz0mo2efi"},"type":"Feature","geometry":{"type":"Point","coordinates":[-79.887263,44.752112]}},{"properties":{"name":"Wishmaker","description":"Posted by Qaz333<img src=\"http://media.geocommons.com/platial/img/2008/11/3/cutie7.jpg\">LuxembourgYour friendly neighbourhood wish....<a title=\"Built for Community Mapping\" href=\"http://www.platial.com\"><img src=\"http://media.geocommons.com/platial/images/logotype_small.jpg\"></a>","id":"a6grz0hgab1n"},"type":"Feature","geometry":{"type":"Point","coordinates":[6.119999,49.619998]}},{"properties":{"name":"Xirurg","description":"Posted by Qaz333yerevan<a title=\"Built for Community Mapping\" href=\"http://www.platial.com\"><img src=\"http://media.geocommons.com/platial/images/logotype_small.jpg\"></a>","id":"a6grz0rzuj3d"},"type":"Feature","geometry":{"type":"Point","coordinates":[44.52,40.169998]}},{"properties":{"name":"Yo mama","description":"Posted by Qaz333antarctic<a title=\"Built for Community Mapping\" href=\"http://www.platial.com\"><img src=\"http://media.geocommons.com/platial/images/logotype_small.jpg\"></a>","id":"a6grz0jyw4sp"},"type":"Feature","geometry":{"type":"Point","coordinates":[-73.252008,40.737078]}},{"properties":{"name":"aan310","description":"Posted by Qaz33353217aan310~<a title=\"Built for Community Mapping\" href=\"http://www.platial.com\"><img src=\"http://media.geocommons.com/platial/images/logotype_small.jpg\"></a>","id":"a6grz0pppgne"},"type":"Feature","geometry":{"type":"Point","coordinates":[-87.9040571,43.1652687]}},{"properties":{"name":"ace28usa","description":"Posted by Qaz333riverhead new york<a title=\"Built for Community Mapping\" href=\"http://www.platial.com\"><img src=\"http://media.geocommons.com/platial/images/logotype_small.jpg\"></a>","id":"a6grz0iu7bv8"},"type":"Feature","geometry":{"type":"Point","coordinates":[-72.681491,40.941128]}},{"properties":{"name":"ahl395","description":"Posted by Qaz333<img src=\"http://media.geocommons.com/platial/img/2008/11/2/ahl395_signature.jpg\">Brick, NJ<a title=\"Built for Community Mapping\" href=\"http://www.platial.com\"><img src=\"http://media.geocommons.com/platial/images/logotype_small.jpg\"></a>","id":"a6grz0lv6mk7"},"type":"Feature","geometry":{"type":"Point","coordinates":[-74.15296,40.07476]}},{"properties":{"name":"atthegates","description":"Posted by Qaz333Madrid, Spain<a title=\"Built for Community Mapping\" href=\"http://www.platial.com\"><img src=\"http://media.geocommons.com/platial/images/logotype_small.jpg\"></a>","id":"a6grz0gsqgjx"},"type":"Feature","geometry":{"type":"Point","coordinates":[-3.71,40.419998]}},{"properties":{"name":"bangert","description":"Posted by Qaz333stevenageboomshackalac<a title=\"Built for Community Mapping\" href=\"http://www.platial.com\"><img src=\"http://media.geocommons.com/platial/images/logotype_small.jpg\"></a>","id":"a6grz0tx18zu"},"type":"Feature","geometry":{"type":"Point","coordinates":[-0.216667,51.916668]}},{"properties":{"name":"burkle25","description":"Posted by Qaz333<img src=\"http://media.geocommons.com/platial/img/2008/11/3/1253859626_l.jpg\">LONG BEACH<a title=\"Built for Community Mapping\" href=\"http://www.platial.com\"><img src=\"http://media.geocommons.com/platial/images/logotype_small.jpg\"></a>","id":"a6grz0j8rqxd"},"type":"Feature","geometry":{"type":"Point","coordinates":[-118.188333,33.766944]}},{"properties":{"name":"ccbr01","description":"Posted by Qaz333louisville, ky<a title=\"Built for Community Mapping\" href=\"http://www.platial.com\"><img src=\"http://media.geocommons.com/platial/images/logotype_small.jpg\"></a>","id":"a6grz0qpobnh"},"type":"Feature","geometry":{"type":"Point","coordinates":[-85.759444,38.254167]}},{"properties":{"name":"christine","description":"Posted by Qaz33307976<a title=\"Built for Community Mapping\" href=\"http://www.platial.com\"><img src=\"http://media.geocommons.com/platial/images/logotype_small.jpg\"></a>","id":"a6grz0r3zdyw"},"type":"Feature","geometry":{"type":"Point","coordinates":[-74.4789393,40.7328721]}},{"properties":{"name":"chrixx","description":"Posted by Qaz333sydneyAloha!<a title=\"Built for Community Mapping\" href=\"http://www.platial.com\"><img src=\"http://media.geocommons.com/platial/images/logotype_small.jpg\"></a>","id":"a6grz0k2b75q"},"type":"Feature","geometry":{"type":"Point","coordinates":[151.210006,-33.869998]}},{"properties":{"name":"chrixx","description":"Posted by Qaz333sydney<a title=\"Built for Community Mapping\" href=\"http://www.platial.com\"><img src=\"http://media.geocommons.com/platial/images/logotype_small.jpg\"></a>","id":"a6grz0tty04l"},"type":"Feature","geometry":{"type":"Point","coordinates":[151.210006,-33.869998]}},{"properties":{"name":"coriolis","description":"Posted by Qaz333<img src=\"http://media.geocommons.com/platial/img/2008/11/1/1223504221806.jpg\">TorontoHi<a title=\"Built for Community Mapping\" href=\"http://www.platial.com\"><img src=\"http://media.geocommons.com/platial/images/logotype_small.jpg\"></a>","id":"a6grz0r1doxe"},"type":"Feature","geometry":{"type":"Point","coordinates":[-79.392486,43.723057]}},{"properties":{"name":"cube","description":"Posted by Qaz333Graz, Austria<a title=\"Built for Community Mapping\" href=\"http://www.platial.com\"><img src=\"http://media.geocommons.com/platial/images/logotype_small.jpg\"></a>","id":"a6grz0kr95ae"},"type":"Feature","geometry":{"type":"Point","coordinates":[15.42,47.080001]}},{"properties":{"name":"d4m","description":"Posted by Qaz333south africa<a title=\"Built for Community Mapping\" href=\"http://www.platial.com\"><img src=\"http://media.geocommons.com/platial/images/logotype_small.jpg\"></a>","id":"a6grz0u9xf94"},"type":"Feature","geometry":{"type":"Point","coordinates":[27.232498,-34.553059]}},{"properties":{"name":"dmacfour","description":"Posted by Qaz333moscow idaho<a title=\"Built for Community Mapping\" href=\"http://www.platial.com\"><img src=\"http://media.geocommons.com/platial/images/logotype_small.jpg\"></a>","id":"a6grz0jl6bl6"},"type":"Feature","geometry":{"type":"Point","coordinates":[-116.999167,46.7325]}},{"properties":{"name":"e","description":"Posted by Qaz333romania<a title=\"Built for Community Mapping\" href=\"http://www.platial.com\"><img src=\"http://media.geocommons.com/platial/images/logotype_small.jpg\"></a>","id":"a6grz0kxc5u8"},"type":"Feature","geometry":{"type":"Point","coordinates":[24.96676,45.943161]}},{"properties":{"name":"eesh72","description":"Posted by Qaz333cumberland, md<a title=\"Built for Community Mapping\" href=\"http://www.platial.com\"><img src=\"http://media.geocommons.com/platial/images/logotype_small.jpg\"></a>","id":"a6grz0vguer5"},"type":"Feature","geometry":{"type":"Point","coordinates":[-78.762778,39.652778]}},{"properties":{"name":"emporiumboutique","description":"Posted by Qaz333Boston<a title=\"Built for Community Mapping\" href=\"http://www.platial.com\"><img src=\"http://media.geocommons.com/platial/images/logotype_small.jpg\"></a>","id":"a6grz0jo0x9p"},"type":"Feature","geometry":{"type":"Point","coordinates":[-71.060278,42.358333]}},{"properties":{"name":"flipfire","description":"Posted by Qaz333<img src=\"http://media.geocommons.com/platial/img/2008/11/1/Hitsugaya.jpg\">sydneyIm not dead<a title=\"Built for Community Mapping\" href=\"http://www.platial.com\"><img src=\"http://media.geocommons.com/platial/images/logotype_small.jpg\"></a>","id":"a6grz0hnyqgm"},"type":"Feature","geometry":{"type":"Point","coordinates":[151.210006,-33.869998]}},{"properties":{"name":"fonduekid","description":"Posted by Qaz333italy<a title=\"Built for Community Mapping\" href=\"http://www.platial.com\"><img src=\"http://media.geocommons.com/platial/images/logotype_small.jpg\"></a>","id":"a6grz0px4xdb"},"type":"Feature","geometry":{"type":"Point","coordinates":[12.56738,41.87194]}},{"properties":{"name":"fonduekid","description":"Posted by Qaz333Trieste, ItalyHello NBRites, I\\'m in too :D in the \"World Of Our Own\".. :) Cheers<a title=\"Built for Community Mapping\" href=\"http://www.platial.com\"><img src=\"http://media.geocommons.com/platial/images/logotype_small.jpg\"></a>","id":"a6grz0kz366y"},"type":"Feature","geometry":{"type":"Point","coordinates":[13.768854,45.649485]}},{"properties":{"name":"fusionsenses","description":"Posted by Qaz333Vancouver<a title=\"Built for Community Mapping\" href=\"http://www.platial.com\"><img src=\"http://media.geocommons.com/platial/images/logotype_small.jpg\"></a>","id":"a6grz0m1n8sl"},"type":"Feature","geometry":{"type":"Point","coordinates":[-123.111934,49.250494]}},{"properties":{"name":"hoggie","description":"Posted by Qaz333Londonhigh all<a title=\"Built for Community Mapping\" href=\"http://www.platial.com\"><img src=\"http://media.geocommons.com/platial/images/logotype_small.jpg\"></a>","id":"a6grz0o0l6kl"},"type":"Feature","geometry":{"type":"Point","coordinates":[-0.126197,51.500197]}},{"properties":{"name":"icecubez189","description":"Posted by Qaz333<img src=\"http://media.geocommons.com/platial/img/2008/11/3/3155330416.jpg\">11355<a title=\"Built for Community Mapping\" href=\"http://www.platial.com\"><img src=\"http://media.geocommons.com/platial/images/logotype_small.jpg\"></a>","id":"a6grz0ikv745"},"type":"Feature","geometry":{"type":"Point","coordinates":[-73.822609,40.753573]}},{"properties":{"name":"icecubez189","description":"Posted by Qaz33311355<a title=\"Built for Community Mapping\" href=\"http://www.platial.com\"><img src=\"http://media.geocommons.com/platial/images/logotype_small.jpg\"></a>","id":"a6grz0sg9pjg"},"type":"Feature","geometry":{"type":"Point","coordinates":[-73.822609,40.753573]}},{"properties":{"name":"iddy","description":"Posted by Qaz333<img src=\"http://media.geocommons.com/platial/img/2008/11/2/iddy3.jpg\">Raumati<a title=\"Built for Community Mapping\" href=\"http://www.platial.com\"><img src=\"http://media.geocommons.com/platial/images/logotype_small.jpg\"></a>","id":"a6grz0fhakc6"},"type":"Feature","geometry":{"type":"Point","coordinates":[174.985716,-40.920127]}},{"properties":{"name":"ivar","description":"Posted by Qaz333Tallinn<a title=\"Built for Community Mapping\" href=\"http://www.platial.com\"><img src=\"http://media.geocommons.com/platial/images/logotype_small.jpg\"></a>","id":"a6grz0ur6750"},"type":"Feature","geometry":{"type":"Point","coordinates":[24.739999,59.439998]}},{"properties":{"name":"jamesmoon2","description":"Posted by Qaz333tampa<a title=\"Built for Community Mapping\" href=\"http://www.platial.com\"><img src=\"http://media.geocommons.com/platial/images/logotype_small.jpg\"></a>","id":"a6grz0tt7mcc"},"type":"Feature","geometry":{"type":"Point","coordinates":[-82.458611,27.947222]}},{"properties":{"name":"jeff","description":"Posted by Qaz333philippineshello guys<a title=\"Built for Community Mapping\" href=\"http://www.platial.com\"><img src=\"http://media.geocommons.com/platial/images/logotype_small.jpg\"></a>","id":"a6grz0q888qe"},"type":"Feature","geometry":{"type":"Point","coordinates":[121.774017,12.879721]}},{"properties":{"name":"jonhapimp","description":"Posted by Qaz333arlington, tx<a title=\"Built for Community Mapping\" href=\"http://www.platial.com\"><img src=\"http://media.geocommons.com/platial/images/logotype_small.jpg\"></a>","id":"a6grz0pxuaku"},"type":"Feature","geometry":{"type":"Point","coordinates":[-97.107778,32.735556]}},{"properties":{"name":"ladip63","description":"Posted by Qaz333Menard, Texas<a title=\"Built for Community Mapping\" href=\"http://www.platial.com\"><img src=\"http://media.geocommons.com/platial/images/logotype_small.jpg\"></a>","id":"a6grz0sdtew9"},"type":"Feature","geometry":{"type":"Point","coordinates":[-99.784174,30.923181]}},{"properties":{"name":"ladip63","description":"Posted by Qaz333<img src=\"http://media.geocommons.com/platial/img/2008/11/1/lynn%5C's_birds_278.jpg\">Menard, Texas<a title=\"Built for Community Mapping\" href=\"http://www.platial.com\"><img src=\"http://media.geocommons.com/platial/images/logotype_small.jpg\"></a>","id":"a6grz0nea5d5"},"type":"Feature","geometry":{"type":"Point","coordinates":[-99.784174,30.923181]}},{"properties":{"name":"mooler","description":"Posted by Qaz33348066<a title=\"Built for Community Mapping\" href=\"http://www.platial.com\"><img src=\"http://media.geocommons.com/platial/images/logotype_small.jpg\"></a>","id":"a6grz0oou3se"},"type":"Feature","geometry":{"type":"Point","coordinates":[-82.935955,42.509668]}},{"properties":{"name":"mujtaba","description":"Posted by Qaz333tehran<a title=\"Built for Community Mapping\" href=\"http://www.platial.com\"><img src=\"http://media.geocommons.com/platial/images/logotype_small.jpg\"></a>","id":"a6grz0n59d6d"},"type":"Feature","geometry":{"type":"Point","coordinates":[51.43,35.669998]}},{"properties":{"name":"namaiki","description":"Posted by Qaz333Earlwoodlol why is everything so expensive!<a title=\"Built for Community Mapping\" href=\"http://www.platial.com\"><img src=\"http://media.geocommons.com/platial/images/logotype_small.jpg\"></a>","id":"a6grz0ndnorp"},"type":"Feature","geometry":{"type":"Point","coordinates":[151.12648,-33.92651]}},{"properties":{"name":"niGht kiD","description":"Posted by Qaz333Johor Bahru<a title=\"Built for Community Mapping\" href=\"http://www.platial.com\"><img src=\"http://media.geocommons.com/platial/images/logotype_small.jpg\"></a>","id":"a6grz0upp80h"},"type":"Feature","geometry":{"type":"Point","coordinates":[103.7547149,1.46343]}},{"properties":{"name":"niGht kiD","description":"Posted by Qaz333<img src=\"http://media.geocommons.com/platial/img/2008/11/1/Maldives_II.jpg\">Johor Bahru<a title=\"Built for Community Mapping\" href=\"http://www.platial.com\"><img src=\"http://media.geocommons.com/platial/images/logotype_small.jpg\"></a>","id":"a6grz0idv4g1"},"type":"Feature","geometry":{"type":"Point","coordinates":[103.7547149,1.46343]}},{"properties":{"name":"nizzy1115","description":"Posted by Qaz333Crystal Lake IL<a title=\"Built for Community Mapping\" href=\"http://www.platial.com\"><img src=\"http://media.geocommons.com/platial/images/logotype_small.jpg\"></a>","id":"a6grz0iacict"},"type":"Feature","geometry":{"type":"Point","coordinates":[-88.333534,42.231754]}},{"properties":{"name":"pixelot","description":"Posted by Qaz333<img src=\"http://media.geocommons.com/platial/img/2008/11/1/lorax.gif\">enterprise, orWord.<a title=\"Built for Community Mapping\" href=\"http://www.platial.com\"><img src=\"http://media.geocommons.com/platial/images/logotype_small.jpg\"></a>","id":"a6grz0vo8i7k"},"type":"Feature","geometry":{"type":"Point","coordinates":[-117.277596,45.424626]}},{"properties":{"name":"qaz333","description":"Posted by Qaz333sydneyyeh!<a title=\"Built for Community Mapping\" href=\"http://www.platial.com\"><img src=\"http://media.geocommons.com/platial/images/logotype_small.jpg\"></a>","id":"a6grz0ktg2px"},"type":"Feature","geometry":{"type":"Point","coordinates":[151.210006,-33.869998]}},{"properties":{"name":"shadowfate","description":"Posted by Qaz333antipoloI think I am the only one here<a title=\"Built for Community Mapping\" href=\"http://www.platial.com\"><img src=\"http://media.geocommons.com/platial/images/logotype_small.jpg\"></a>","id":"a6grz0oadw84"},"type":"Feature","geometry":{"type":"Point","coordinates":[121.050003,16.716667]}},{"properties":{"name":"simonfzhao","description":"Posted by Qaz333Toronto<a title=\"Built for Community Mapping\" href=\"http://www.platial.com\"><img src=\"http://media.geocommons.com/platial/images/logotype_small.jpg\"></a>","id":"a6grz0vnddhx"},"type":"Feature","geometry":{"type":"Point","coordinates":[-79.392486,43.723057]}},{"properties":{"name":"simonfzhao","description":"Posted by Qaz333Toronto<a title=\"Built for Community Mapping\" href=\"http://www.platial.com\"><img src=\"http://media.geocommons.com/platial/images/logotype_small.jpg\"></a>","id":"a6grz0iczyvz"},"type":"Feature","geometry":{"type":"Point","coordinates":[-79.392486,43.723057]}},{"properties":{"name":"someguyoverthere","description":"Posted by Qaz333Ottawa, Canada<a title=\"Built for Community Mapping\" href=\"http://www.platial.com\"><img src=\"http://media.geocommons.com/platial/images/logotype_small.jpg\"></a>","id":"a6grz0gibgs5"},"type":"Feature","geometry":{"type":"Point","coordinates":[-75.72344,45.352088]}},{"properties":{"name":"techno_techie","description":"Posted by Qaz33330101<a title=\"Built for Community Mapping\" href=\"http://www.platial.com\"><img src=\"http://media.geocommons.com/platial/images/logotype_small.jpg\"></a>","id":"a6grz0o2l8l3"},"type":"Feature","geometry":{"type":"Point","coordinates":[-84.702587,34.032149]}},{"properties":{"name":"tenspeed33","description":"Posted by Qaz3335 Easby Court<a title=\"Built for Community Mapping\" href=\"http://www.platial.com\"><img src=\"http://media.geocommons.com/platial/images/logotype_small.jpg\"></a>","id":"a6grz0qsurr9"},"type":"Feature","geometry":{"type":"Point","coordinates":[0.0,5.0]}},{"properties":{"name":"tenspeed33","description":"Posted by Qaz333Spennymoor<a title=\"Built for Community Mapping\" href=\"http://www.platial.com\"><img src=\"http://media.geocommons.com/platial/images/logotype_small.jpg\"></a>","id":"a6grz0gwjf9i"},"type":"Feature","geometry":{"type":"Point","coordinates":[-1.6,54.683334]}},{"properties":{"name":"theriko","description":"Posted by Qaz333Basingstoke<a title=\"Built for Community Mapping\" href=\"http://www.platial.com\"><img src=\"http://media.geocommons.com/platial/images/logotype_small.jpg\"></a>","id":"a6grz0plbmc1"},"type":"Feature","geometry":{"type":"Point","coordinates":[-1.083333,51.266666]}},{"properties":{"name":"turb0","description":"Posted by Qaz333Austin<a title=\"Built for Community Mapping\" href=\"http://www.platial.com\"><img src=\"http://media.geocommons.com/platial/images/logotype_small.jpg\"></a>","id":"a6grz0qjwycp"},"type":"Feature","geometry":{"type":"Point","coordinates":[-97.742778,30.266944]}},{"properties":{"name":"unknown555525","description":"Posted by Qaz333<img src=\"http://media.geocommons.com/platial/img/2008/11/1/3334443.JPG\">SacramentoCA sucks!<a title=\"Built for Community Mapping\" href=\"http://www.platial.com\"><img src=\"http://media.geocommons.com/platial/images/logotype_small.jpg\"></a>","id":"a6grz0s0pns0"},"type":"Feature","geometry":{"type":"Point","coordinates":[-121.493333,38.581667]}},{"properties":{"name":"visiom88","description":"Posted by Qaz333Fairfax, VA<a title=\"Built for Community Mapping\" href=\"http://www.platial.com\"><img src=\"http://media.geocommons.com/platial/images/logotype_small.jpg\"></a>","id":"a6grz0mpjtey"},"type":"Feature","geometry":{"type":"Point","coordinates":[-77.306667,38.846111]}},{"properties":{"name":"weiser","description":"Posted by Qaz333<img src=\"http://media.geocommons.com/platial/img/2008/11/3/I7810.jpg\">Cordoba Argentina<a title=\"Built for Community Mapping\" href=\"http://www.platial.com\"><img src=\"http://media.geocommons.com/platial/images/logotype_small.jpg\"></a>","id":"a6grz0j9hvnd"},"type":"Feature","geometry":{"type":"Point","coordinates":[-64.190002,-31.399999]}},{"properties":{"name":"whizzo","description":"Posted by Qaz333Zuckenriet<a title=\"Built for Community Mapping\" href=\"http://www.platial.com\"><img src=\"http://media.geocommons.com/platial/images/logotype_small.jpg\"></a>","id":"a6grz0h50lrg"},"type":"Feature","geometry":{"type":"Point","coordinates":[9.1619471,47.4848043]}},{"properties":{"name":"xTank Jones16x","description":"Posted by Qaz333Elverta, CA<a title=\"Built for Community Mapping\" href=\"http://www.platial.com\"><img src=\"http://media.geocommons.com/platial/images/logotype_small.jpg\"></a>","id":"a6grz0nl3t2r"},"type":"Feature","geometry":{"type":"Point","coordinates":[-121.463385,38.714544]}},{"properties":{"name":"yuio","description":"Posted by Qaz333Edmonton<a title=\"Built for Community Mapping\" href=\"http://www.platial.com\"><img src=\"http://media.geocommons.com/platial/images/logotype_small.jpg\"></a>","id":"a6grz0pcba2f"},"type":"Feature","geometry":{"type":"Point","coordinates":[-113.503383,53.53279]}},{"properties":{"name":"zephyrus17","description":"Posted by Qaz333adelaide<a title=\"Built for Community Mapping\" href=\"http://www.platial.com\"><img src=\"http://media.geocommons.com/platial/images/logotype_small.jpg\"></a>","id":"a6grz0ipjrnw"},"type":"Feature","geometry":{"type":"Point","coordinates":[138.600006,-34.93]}},{"properties":{"name":"zmatin","description":"Posted by Qaz333boulder<a title=\"Built for Community Mapping\" href=\"http://www.platial.com\"><img src=\"http://media.geocommons.com/platial/images/logotype_small.jpg\"></a>","id":"a6grz0lhhv4p"},"type":"Feature","geometry":{"type":"Point","coordinates":[-105.27,40.015]}}],"is_temporal":false,"author":{"url":"http://www.platial.com/map/537990","metadata":null,"contact_name":"qaz333","contact_address":null,"source":"platial:qaz333","contact_phone":null},"source":"http://www.platial.com/map/537990","pagination":{"sort":null,"start":0,"total":151,"limit":1000000},"state":"complete","tags":"platial,platial:id=537990,platial:user=qaz333","published":"2010-03-02T17:00:00Z","id":26944}