{"type":"FeatureCollection","data_type":"Dataset","url_type":null,"permissions":[{"permissions":{"download":true,"view":true},"group_id":"everyone"}],"classification":null,"title":"\nFacility Map\n","count":73,"stream_id":28125,"contributor":{"url":"http://geocommons.com/users/11444","name":"platial"},"data_attributes":null,"calculation_params":null,"icon_link":null,"link":"http://geocommons.com/overlays/28125.json","extent":[-82.8271,27.7332,-82.6207,28.1338],"geometry_types":["point"],"unique_name":null,"name":"\nFacility Map\n","feature_count":73,"description":"\nA Map by Swscott\n\n\n","next_feature":null,"is_raster":false,"short_classification":"Y","stats":{},"features":[{"properties":{"name":"ABBEY REHABILITATION AND NURSING CENTER, THE","description":"Posted by SwscottSAINT PETERSBURG, FL, 33702SKILLED NURSING FACILITY<a title=\"Built for Community Mapping\" href=\"http://www.platial.com\"><img src=\"http://media.geocommons.com/platial/images/logotype_small.jpg\"></a>","id":"a7jpj304k04t"},"type":"Feature","geometry":{"type":"Point","coordinates":[-82.62327,27.854352]}},{"properties":{"name":"ADVANCED REHABILITATION AND HEALTH CENTER","description":"Posted by Swscott<img src=\"http://media.geocommons.com/platial/images/categories/ICON_health_verD.gif\"> CLEARWATER, FL, 33759SKILLED NURSING FACILITY<a title=\"Built for Community Mapping\" href=\"http://www.platial.com\"><img src=\"http://media.geocommons.com/platial/images/logotype_small.jpg\"></a>","id":"a7jpj2yce0u5"},"type":"Feature","geometry":{"type":"Point","coordinates":[-82.704337,27.983967]}},{"properties":{"name":"ALHAMBRA HEALTH AND REHABILITATION CENTER","description":"Posted by Swscott<img src=\"http://media.geocommons.com/platial/images/categories/ICON_health_verD.gif\"> SAINT PETERSBURG, FL, 33710SKILLED NURSING FACILITY<a title=\"Built for Community Mapping\" href=\"http://www.platial.com\"><img src=\"http://media.geocommons.com/platial/images/logotype_small.jpg\"></a>","id":"a7jpj2pq8z64"},"type":"Feature","geometry":{"type":"Point","coordinates":[-82.728047,27.788803]}},{"properties":{"name":"ALLEGRO AT COLLEGE HARBOR, THE","description":"Posted by SwscottSAINT PETERSBURG, FL, 33711SKILLED NURSING FACILITY<a title=\"Built for Community Mapping\" href=\"http://www.platial.com\"><img src=\"http://media.geocommons.com/platial/images/logotype_small.jpg\"></a>","id":"a7jpj2riv27c"},"type":"Feature","geometry":{"type":"Point","coordinates":[-82.687747,27.73315]}},{"properties":{"name":"ALPINE HEALTH &amp; REHABILITATION CENTER","description":"Posted by Swscott<img src=\"http://media.geocommons.com/platial/images/categories/ICON_health_verD.gif\"> SAINT PETERSBURG, FL, 33711SKILLED NURSING FACILITY<a title=\"Built for Community Mapping\" href=\"http://www.platial.com\"><img src=\"http://media.geocommons.com/platial/images/logotype_small.jpg\"></a>","id":"a7jpj2ocfnv9"},"type":"Feature","geometry":{"type":"Point","coordinates":[-82.687747,27.73315]}},{"properties":{"name":"APOLLO HEALTH &amp; REHABILITATION CENTER","description":"Posted by Swscott<img src=\"http://media.geocommons.com/platial/images/categories/ICON_health_verD.gif\"> SAINT PETERSBURG, FL, 33713SKILLED NURSING FACILITY<a title=\"Built for Community Mapping\" href=\"http://www.platial.com\"><img src=\"http://media.geocommons.com/platial/images/logotype_small.jpg\"></a>","id":"a7jpj2yt44l4"},"type":"Feature","geometry":{"type":"Point","coordinates":[-82.677371,27.789053]}},{"properties":{"name":"BAY POINTE NURSING PAVILION","description":"Posted by SwscottSAINT PETERSBURG, FL, 33712SKILLED NURSING FACILITY<a title=\"Built for Community Mapping\" href=\"http://www.platial.com\"><img src=\"http://media.geocommons.com/platial/images/logotype_small.jpg\"></a>","id":"a7jpj2nvpnl4"},"type":"Feature","geometry":{"type":"Point","coordinates":[-82.664921,27.736205]}},{"properties":{"name":"BAY TREE REHABILITATION AND NURSING CENTER","description":"Posted by SwscottPALM HARBOR, FL, 34684SKILLED NURSING FACILITY<a title=\"Built for Community Mapping\" href=\"http://www.platial.com\"><img src=\"http://media.geocommons.com/platial/images/logotype_small.jpg\"></a>","id":"a7jpj2wl9cfi"},"type":"Feature","geometry":{"type":"Point","coordinates":[-82.72628,28.085921]}},{"properties":{"name":"BAYSIDE REHABILITATION &amp; HEALTH CENTER","description":"Posted by Swscott<img src=\"http://media.geocommons.com/platial/images/categories/ICON_health_verD.gif\"> SAINT PETERSBURG, FL, 33705SKILLED NURSING FACILITY<a title=\"Built for Community Mapping\" href=\"http://www.platial.com\"><img src=\"http://media.geocommons.com/platial/images/logotype_small.jpg\"></a>","id":"a7jpj2ppmwkx"},"type":"Feature","geometry":{"type":"Point","coordinates":[-82.649542,27.742905]}},{"properties":{"name":"BAYWOOD NURSING CENTER","description":"Posted by SwscottSAINT PETERSBURG, FL, 33712SKILLED NURSING FACILITY<a title=\"Built for Community Mapping\" href=\"http://www.platial.com\"><img src=\"http://media.geocommons.com/platial/images/logotype_small.jpg\"></a>","id":"a7jpj2lpqu6i"},"type":"Feature","geometry":{"type":"Point","coordinates":[-82.664921,27.736205]}},{"properties":{"name":"BELLEAIR EAST HEALTH CARE CENTER","description":"Posted by Swscott<img src=\"http://media.geocommons.com/platial/images/categories/ICON_health_verD.gif\"> CLEARWATER, FL, 33756SKILLED NURSING FACILITY<a title=\"Built for Community Mapping\" href=\"http://www.platial.com\"><img src=\"http://media.geocommons.com/platial/images/logotype_small.jpg\"></a>","id":"a7jpj2t52fbt"},"type":"Feature","geometry":{"type":"Point","coordinates":[-82.792672,27.945053]}},{"properties":{"name":"BOCA CIEGA CENTER","description":"Posted by SwscottGULFPORT, FL, 33707SKILLED NURSING FACILITY<a title=\"Built for Community Mapping\" href=\"http://www.platial.com\"><img src=\"http://media.geocommons.com/platial/images/logotype_small.jpg\"></a>","id":"a7jpj2ujlb0l"},"type":"Feature","geometry":{"type":"Point","coordinates":[-82.722622,27.753055]}},{"properties":{"name":"BON SECOURS MARIA MANOR NURSING CARE CENTER","description":"Posted by SwscottSAINT PETERSBURG, FL, 33716SKILLED NURSING FACILITY<a title=\"Built for Community Mapping\" href=\"http://www.platial.com\"><img src=\"http://media.geocommons.com/platial/images/logotype_small.jpg\"></a>","id":"a7jpj2pacgdy"},"type":"Feature","geometry":{"type":"Point","coordinates":[-82.647081,27.871455]}},{"properties":{"name":"CARRINGTON PLACE","description":"Posted by SwscottSAINT PETERSBURG, FL, 33716SKILLED NURSING FACILITY<a title=\"Built for Community Mapping\" href=\"http://www.platial.com\"><img src=\"http://media.geocommons.com/platial/images/logotype_small.jpg\"></a>","id":"a7jpj2vtaof5"},"type":"Feature","geometry":{"type":"Point","coordinates":[-82.647081,27.871455]}},{"properties":{"name":"CLEARWATER CENTER","description":"Posted by SwscottCLEARWATER, FL, 33756SKILLED NURSING FACILITY<a title=\"Built for Community Mapping\" href=\"http://www.platial.com\"><img src=\"http://media.geocommons.com/platial/images/logotype_small.jpg\"></a>","id":"a7jpj2y8d45z"},"type":"Feature","geometry":{"type":"Point","coordinates":[-82.792672,27.945053]}},{"properties":{"name":"COMPREHENSIVE HEALTHCARE OF CLEARWATER","description":"Posted by SwscottCLEARWATER, FL, 33756SKILLED NURSING FACILITY<a title=\"Built for Community Mapping\" href=\"http://www.platial.com\"><img src=\"http://media.geocommons.com/platial/images/logotype_small.jpg\"></a>","id":"a7jpj2qigr7p"},"type":"Feature","geometry":{"type":"Point","coordinates":[-82.792672,27.945053]}},{"properties":{"name":"CONCORDIA MANOR","description":"Posted by SwscottSAINT PETERSBURG, FL, 33701SKILLED NURSING FACILITY<a title=\"Built for Community Mapping\" href=\"http://www.platial.com\"><img src=\"http://media.geocommons.com/platial/images/logotype_small.jpg\"></a>","id":"a7jpj2ltminm"},"type":"Feature","geometry":{"type":"Point","coordinates":[-82.630943,27.771054]}},{"properties":{"name":"COQUINA KEY HEALTH &amp; REHABILITATION CENTER","description":"Posted by Swscott<img src=\"http://media.geocommons.com/platial/images/categories/ICON_health_verD.gif\"> SAINT PETERSBURG, FL, 33705SKILLED NURSING FACILITY<a title=\"Built for Community Mapping\" href=\"http://www.platial.com\"><img src=\"http://media.geocommons.com/platial/images/logotype_small.jpg\"></a>","id":"a7jpj2xs10jr"},"type":"Feature","geometry":{"type":"Point","coordinates":[-82.649542,27.742905]}},{"properties":{"name":"COUNTRYSIDE HEALTHCARE CENTER","description":"Posted by SwscottPALM HARBOR, FL, 34684SKILLED NURSING FACILITY<a title=\"Built for Community Mapping\" href=\"http://www.platial.com\"><img src=\"http://media.geocommons.com/platial/images/logotype_small.jpg\"></a>","id":"a7jpj306zce8"},"type":"Feature","geometry":{"type":"Point","coordinates":[-82.72628,28.085921]}},{"properties":{"name":"CROSS TERRACE REHABILITATION CENTER","description":"Posted by SwscottDUNEDIN, FL, 34698SKILLED NURSING FACILITY<a title=\"Built for Community Mapping\" href=\"http://www.platial.com\"><img src=\"http://media.geocommons.com/platial/images/logotype_small.jpg\"></a>","id":"a7jpj2oq9at1"},"type":"Feature","geometry":{"type":"Point","coordinates":[-82.771472,28.028345]}},{"properties":{"name":"CRYSTAL OAKS OF PINELLAS","description":"Posted by SwscottPINELLAS PARK, FL, 33782SKILLED NURSING FACILITY<a title=\"Built for Community Mapping\" href=\"http://www.platial.com\"><img src=\"http://media.geocommons.com/platial/images/logotype_small.jpg\"></a>","id":"a7jpj2yy0og2"},"type":"Feature","geometry":{"type":"Point","coordinates":[-82.713814,27.863688]}},{"properties":{"name":"EAGLE LAKE REHAB &amp; CARE CENTER","description":"Posted by SwscottSAINT PETERSBURG, FL, 33710SKILLED NURSING FACILITY<a title=\"Built for Community Mapping\" href=\"http://www.platial.com\"><img src=\"http://media.geocommons.com/platial/images/logotype_small.jpg\"></a>","id":"a7jpj306ojfi"},"type":"Feature","geometry":{"type":"Point","coordinates":[-82.728047,27.788803]}},{"properties":{"name":"EAST BAY NURSING CENTER","description":"Posted by SwscottCLEARWATER, FL, 33764SKILLED NURSING FACILITY<a title=\"Built for Community Mapping\" href=\"http://www.platial.com\"><img src=\"http://media.geocommons.com/platial/images/logotype_small.jpg\"></a>","id":"a7jpj2sgryls"},"type":"Feature","geometry":{"type":"Point","coordinates":[-82.740206,27.927354]}},{"properties":{"name":"EDINBOROUGH HEALTHCARE CENTER","description":"Posted by SwscottDUNEDIN, FL, 34698SKILLED NURSING FACILITY<a title=\"Built for Community Mapping\" href=\"http://www.platial.com\"><img src=\"http://media.geocommons.com/platial/images/logotype_small.jpg\"></a>","id":"a7jpj31l7wbm"},"type":"Feature","geometry":{"type":"Point","coordinates":[-82.771472,28.028345]}},{"properties":{"name":"EGRET COVE CENTER","description":"Posted by SwscottSAINT PETERSBURG, FL, 33707-1533SKILLED NURSING FACILITY<a title=\"Built for Community Mapping\" href=\"http://www.platial.com\"><img src=\"http://media.geocommons.com/platial/images/logotype_small.jpg\"></a>","id":"a7jpj2ot7oap"},"type":"Feature","geometry":{"type":"Point","coordinates":[-82.728277,27.753894]}},{"properties":{"name":"FREEDOM SQUARE NURSING CENTER","description":"Posted by SwscottSEMINOLE, FL, 33772SKILLED NURSING FACILITY<a title=\"Built for Community Mapping\" href=\"http://www.platial.com\"><img src=\"http://media.geocommons.com/platial/images/logotype_small.jpg\"></a>","id":"a7jpj2tcar6l"},"type":"Feature","geometry":{"type":"Point","coordinates":[-82.795655,27.842813]}},{"properties":{"name":"GLEN OAKS HEALTH CARE","description":"Posted by Swscott<img src=\"http://media.geocommons.com/platial/images/categories/ICON_health_verD.gif\"> CLEARWATER, FL, 33756SKILLED NURSING FACILITY<a title=\"Built for Community Mapping\" href=\"http://www.platial.com\"><img src=\"http://media.geocommons.com/platial/images/logotype_small.jpg\"></a>","id":"a7jpj2qdge0h"},"type":"Feature","geometry":{"type":"Point","coordinates":[-82.792672,27.945053]}},{"properties":{"name":"GOLFVIEW HEALTHCARE CENTER","description":"Posted by SwscottSAINT PETERSBURG, FL, 33713SKILLED NURSING FACILITY<a title=\"Built for Community Mapping\" href=\"http://www.platial.com\"><img src=\"http://media.geocommons.com/platial/images/logotype_small.jpg\"></a>","id":"a7jpj31n14do"},"type":"Feature","geometry":{"type":"Point","coordinates":[-82.677371,27.789053]}},{"properties":{"name":"GRACEWOOD NURSING CENTER","description":"Posted by SwscottPINELLAS PARK, FL, 33782SKILLED NURSING FACILITY<a title=\"Built for Community Mapping\" href=\"http://www.platial.com\"><img src=\"http://media.geocommons.com/platial/images/logotype_small.jpg\"></a>","id":"a7jpj2sv3wt2"},"type":"Feature","geometry":{"type":"Point","coordinates":[-82.713814,27.863688]}},{"properties":{"name":"HARBOURWOOD NURSING CENTER","description":"Posted by SwscottCLEARWATER, FL, 33759SKILLED NURSING FACILITY<a title=\"Built for Community Mapping\" href=\"http://www.platial.com\"><img src=\"http://media.geocommons.com/platial/images/logotype_small.jpg\"></a>","id":"a7jpj2nukwdn"},"type":"Feature","geometry":{"type":"Point","coordinates":[-82.704337,27.983967]}},{"properties":{"name":"HEALTH AND REHABILITATION CENTRE AT DOLPHINS VIEW, THE","description":"Posted by Swscott<img src=\"http://media.geocommons.com/platial/images/categories/ICON_health_verD.gif\"> SAINT PETERSBURG, FL, 33707SKILLED NURSING FACILITY<a title=\"Built for Community Mapping\" href=\"http://www.platial.com\"><img src=\"http://media.geocommons.com/platial/images/logotype_small.jpg\"></a>","id":"a7jpj2tpghl8"},"type":"Feature","geometry":{"type":"Point","coordinates":[-82.722622,27.753055]}},{"properties":{"name":"HIGHLAND PINES REHABILATATION CENTER","description":"Posted by SwscottCLEARWATER, FL, 33756SKILLED NURSING FACILITY<a title=\"Built for Community Mapping\" href=\"http://www.platial.com\"><img src=\"http://media.geocommons.com/platial/images/logotype_small.jpg\"></a>","id":"a7jpj2sxt4kx"},"type":"Feature","geometry":{"type":"Point","coordinates":[-82.792672,27.945053]}},{"properties":{"name":"JACARANDA MANOR","description":"Posted by SwscottSAINT PETERSBURG, FL, 33709SKILLED NURSING FACILITY<a title=\"Built for Community Mapping\" href=\"http://www.platial.com\"><img src=\"http://media.geocommons.com/platial/images/logotype_small.jpg\"></a>","id":"a7jpj2ozh9c9"},"type":"Feature","geometry":{"type":"Point","coordinates":[-82.729708,27.819352]}},{"properties":{"name":"LARGO HEALTH CARE CENTER","description":"Posted by Swscott<img src=\"http://media.geocommons.com/platial/images/categories/ICON_health_verD.gif\"> LARGO, FL, 33777SKILLED NURSING FACILITY<a title=\"Built for Community Mapping\" href=\"http://www.platial.com\"><img src=\"http://media.geocommons.com/platial/images/logotype_small.jpg\"></a>","id":"a7jpj2y48xnv"},"type":"Feature","geometry":{"type":"Point","coordinates":[-82.755438,27.847559]}},{"properties":{"name":"LAURELLWOOD NURSING CENTER","description":"Posted by SwscottSAINT PETERSBURG, FL, 33714SKILLED NURSING FACILITY<a title=\"Built for Community Mapping\" href=\"http://www.platial.com\"><img src=\"http://media.geocommons.com/platial/images/logotype_small.jpg\"></a>","id":"a7jpj2yrq64x"},"type":"Feature","geometry":{"type":"Point","coordinates":[-82.677371,27.817753]}},{"properties":{"name":"LEXINGTON HEALTH AND REHABILITATION CENTER","description":"Posted by Swscott<img src=\"http://media.geocommons.com/platial/images/categories/ICON_health_verD.gif\"> SAINT PETERSBURG, FL, 33709SKILLED NURSING FACILITY<a title=\"Built for Community Mapping\" href=\"http://www.platial.com\"><img src=\"http://media.geocommons.com/platial/images/logotype_small.jpg\"></a>","id":"a7jpj2qr99vk"},"type":"Feature","geometry":{"type":"Point","coordinates":[-82.729708,27.819352]}},{"properties":{"name":"LONG TERM CARE OF ST PETERSBURG","description":"Posted by SwscottSAINT PETERSBURG, FL, 33714SKILLED NURSING FACILITY<a title=\"Built for Community Mapping\" href=\"http://www.platial.com\"><img src=\"http://media.geocommons.com/platial/images/logotype_small.jpg\"></a>","id":"a7jpj2pinrfd"},"type":"Feature","geometry":{"type":"Point","coordinates":[-82.677371,27.817753]}},{"properties":{"name":"MANOR CARE NURSING CENTER DUNEDIN","description":"Posted by SwscottDUNEDIN, FL, 34698SKILLED NURSING FACILITY<a title=\"Built for Community Mapping\" href=\"http://www.platial.com\"><img src=\"http://media.geocommons.com/platial/images/logotype_small.jpg\"></a>","id":"a7jpj2vv3d7x"},"type":"Feature","geometry":{"type":"Point","coordinates":[-82.771472,28.028345]}},{"properties":{"name":"MANOR CARE OF PALM HARBOR","description":"Posted by SwscottPALM HARBOR, FL, 34684SKILLED NURSING FACILITY<a title=\"Built for Community Mapping\" href=\"http://www.platial.com\"><img src=\"http://media.geocommons.com/platial/images/logotype_small.jpg\"></a>","id":"a7jpj2p6eez7"},"type":"Feature","geometry":{"type":"Point","coordinates":[-82.72628,28.085921]}},{"properties":{"name":"MASONIC HOME OF FLORIDA","description":"Posted by SwscottSAINT PETERSBURG, FL, 33704SKILLED NURSING FACILITY<a title=\"Built for Community Mapping\" href=\"http://www.platial.com\"><img src=\"http://media.geocommons.com/platial/images/logotype_small.jpg\"></a>","id":"a7jpj2o5bxxs"},"type":"Feature","geometry":{"type":"Point","coordinates":[-82.627807,27.79647]}},{"properties":{"name":"MEASE CONTINUING CARE","description":"Posted by SwscottDUNEDIN, FL, 34698SKILLED NURSING FACILITY<a title=\"Built for Community Mapping\" href=\"http://www.platial.com\"><img src=\"http://media.geocommons.com/platial/images/logotype_small.jpg\"></a>","id":"a7jpj313dru6"},"type":"Feature","geometry":{"type":"Point","coordinates":[-82.771472,28.028345]}},{"properties":{"name":"MENORAH MANOR","description":"Posted by SwscottSAINT PETERSBURG, FL, 33710SKILLED NURSING FACILITY<a title=\"Built for Community Mapping\" href=\"http://www.platial.com\"><img src=\"http://media.geocommons.com/platial/images/logotype_small.jpg\"></a>","id":"a7jpj2s6975r"},"type":"Feature","geometry":{"type":"Point","coordinates":[-82.728047,27.788803]}},{"properties":{"name":"MORTON PLANT REHABILITATION CENTER","description":"Posted by SwscottBELLEAIR, FL, 33756-3392SKILLED NURSING FACILITY<a title=\"Built for Community Mapping\" href=\"http://www.platial.com\"><img src=\"http://media.geocommons.com/platial/images/logotype_small.jpg\"></a>","id":"a7jpj30v3uml"},"type":"Feature","geometry":{"type":"Point","coordinates":[-82.806289,27.935232]}},{"properties":{"name":"NORTH REHABILITATION CENTER","description":"Posted by SwscottSAINT PETERSBURG, FL, 33705SKILLED NURSING FACILITY<a title=\"Built for Community Mapping\" href=\"http://www.platial.com\"><img src=\"http://media.geocommons.com/platial/images/logotype_small.jpg\"></a>","id":"a7jpj2z22hbm"},"type":"Feature","geometry":{"type":"Point","coordinates":[-82.649542,27.742905]}},{"properties":{"name":"OAK BLUFFS NURSING CENTER","description":"Posted by SwscottCLEARWATER, FL, 33756SKILLED NURSING FACILITY<a title=\"Built for Community Mapping\" href=\"http://www.platial.com\"><img src=\"http://media.geocommons.com/platial/images/logotype_small.jpg\"></a>","id":"a7jpj2y6h2ik"},"type":"Feature","geometry":{"type":"Point","coordinates":[-82.792672,27.945053]}},{"properties":{"name":"OAK MANOR HEALTHCARE &amp; REHABILITATION CENTER","description":"Posted by SwscottLARGO, FL, 33774SKILLED NURSING FACILITY<a title=\"Built for Community Mapping\" href=\"http://www.platial.com\"><img src=\"http://media.geocommons.com/platial/images/logotype_small.jpg\"></a>","id":"a7jpj2pgzah2"},"type":"Feature","geometry":{"type":"Point","coordinates":[-82.827125,27.885999]}},{"properties":{"name":"PALM GARDEN OF CLEARWATER","description":"Posted by SwscottCLEARWATER, FL, 33761SKILLED NURSING FACILITY<a title=\"Built for Community Mapping\" href=\"http://www.platial.com\"><img src=\"http://media.geocommons.com/platial/images/logotype_small.jpg\"></a>","id":"a7jpj304qv2w"},"type":"Feature","geometry":{"type":"Point","coordinates":[-82.725812,28.029111]}},{"properties":{"name":"PALM GARDEN OF LARGO","description":"Posted by SwscottLARGO, FL, 33777SKILLED NURSING FACILITY<a title=\"Built for Community Mapping\" href=\"http://www.platial.com\"><img src=\"http://media.geocommons.com/platial/images/logotype_small.jpg\"></a>","id":"a7jpj2qcn5iu"},"type":"Feature","geometry":{"type":"Point","coordinates":[-82.755438,27.847559]}},{"properties":{"name":"PALM GARDEN OF PINELLAS","description":"Posted by SwscottLARGO, FL, 33771SKILLED NURSING FACILITY<a title=\"Built for Community Mapping\" href=\"http://www.platial.com\"><img src=\"http://media.geocommons.com/platial/images/logotype_small.jpg\"></a>","id":"a7jpj2rus6p0"},"type":"Feature","geometry":{"type":"Point","coordinates":[-82.757971,27.907449]}},{"properties":{"name":"PALM TERRACE OF ST. PETERSBURG","description":"Posted by SwscottSAINT PETERSBURG, FL, 33702SKILLED NURSING FACILITY<a title=\"Built for Community Mapping\" href=\"http://www.platial.com\"><img src=\"http://media.geocommons.com/platial/images/logotype_small.jpg\"></a>","id":"a7jpj318ioef"},"type":"Feature","geometry":{"type":"Point","coordinates":[-82.62327,27.854352]}},{"properties":{"name":"PASADENA MANOR INC","description":"Posted by SwscottSOUTH PASADENA, FL, 33707SKILLED NURSING FACILITY<a title=\"Built for Community Mapping\" href=\"http://www.platial.com\"><img src=\"http://media.geocommons.com/platial/images/logotype_small.jpg\"></a>","id":"a7jpj2ncxvtm"},"type":"Feature","geometry":{"type":"Point","coordinates":[-82.722622,27.753055]}},{"properties":{"name":"PENINSULA CARE AND REHABILITATION CENTER","description":"Posted by SwscottTARPON SPRINGS, FL, 34689SKILLED NURSING FACILITY<a title=\"Built for Community Mapping\" href=\"http://www.platial.com\"><img src=\"http://media.geocommons.com/platial/images/logotype_small.jpg\"></a>","id":"a7jpj2y0gia7"},"type":"Feature","geometry":{"type":"Point","coordinates":[-82.728796,28.133801]}},{"properties":{"name":"PINELLAS PARK CARE AND REHABILITATION CENTER","description":"Posted by Swscott<img src=\"http://media.geocommons.com/platial/images/categories/ICON_nature_verD.gif\"> PINELLAS PARK, FL, 33782SKILLED NURSING FACILITY<a title=\"Built for Community Mapping\" href=\"http://www.platial.com\"><img src=\"http://media.geocommons.com/platial/images/logotype_small.jpg\"></a>","id":"a7jpj2z1y5q2"},"type":"Feature","geometry":{"type":"Point","coordinates":[-82.713814,27.863688]}},{"properties":{"name":"PINELLAS POINT NURSING AND REHAB CENTER","description":"Posted by SwscottSAINT PETERSBURG, FL, 33712SKILLED NURSING FACILITY<a title=\"Built for Community Mapping\" href=\"http://www.platial.com\"><img src=\"http://media.geocommons.com/platial/images/logotype_small.jpg\"></a>","id":"a7jpj2vuwwyp"},"type":"Feature","geometry":{"type":"Point","coordinates":[-82.664921,27.736205]}},{"properties":{"name":"SABAL PALMS HEALTH CARE CENTER","description":"Posted by Swscott<img src=\"http://media.geocommons.com/platial/images/categories/ICON_health_verD.gif\"> LARGO, FL, 33771SKILLED NURSING FACILITY<a title=\"Built for Community Mapping\" href=\"http://www.platial.com\"><img src=\"http://media.geocommons.com/platial/images/logotype_small.jpg\"></a>","id":"a7jpj2w5q4oi"},"type":"Feature","geometry":{"type":"Point","coordinates":[-82.757971,27.907449]}},{"properties":{"name":"SAINT MARK VILLAGE","description":"Posted by SwscottPALM HARBOR, FL, 34684SKILLED NURSING FACILITY<a title=\"Built for Community Mapping\" href=\"http://www.platial.com\"><img src=\"http://media.geocommons.com/platial/images/logotype_small.jpg\"></a>","id":"a7jpj2xwckq7"},"type":"Feature","geometry":{"type":"Point","coordinates":[-82.72628,28.085921]}},{"properties":{"name":"SEMINOLE NURSING PAVILION","description":"Posted by SwscottSEMINOLE, FL, 33772SKILLED NURSING FACILITY<a title=\"Built for Community Mapping\" href=\"http://www.platial.com\"><img src=\"http://media.geocommons.com/platial/images/logotype_small.jpg\"></a>","id":"a7jpj2q9klle"},"type":"Feature","geometry":{"type":"Point","coordinates":[-82.795655,27.842813]}},{"properties":{"name":"SHORE ACRES REHABILITATION AND HEALTH CENTER","description":"Posted by Swscott<img src=\"http://media.geocommons.com/platial/images/categories/ICON_health_verD.gif\"> SAINT PETERSBURG, FL, 33703SKILLED NURSING FACILITY<a title=\"Built for Community Mapping\" href=\"http://www.platial.com\"><img src=\"http://media.geocommons.com/platial/images/logotype_small.jpg\"></a>","id":"a7jpj31vndh9"},"type":"Feature","geometry":{"type":"Point","coordinates":[-82.62072,27.82025]}},{"properties":{"name":"SOUTH HERITAGE HEALTH &amp; REHAB CENTER","description":"Posted by Swscott<img src=\"http://media.geocommons.com/platial/images/categories/ICON_health_verD.gif\"> SAINT PETERSBURG, FL, 33705SKILLED NURSING FACILITY<a title=\"Built for Community Mapping\" href=\"http://www.platial.com\"><img src=\"http://media.geocommons.com/platial/images/logotype_small.jpg\"></a>","id":"a7jpj2lvar9f"},"type":"Feature","geometry":{"type":"Point","coordinates":[-82.649542,27.742905]}},{"properties":{"name":"SPRINGS AT BOCA CIEGA BAY","description":"Posted by SwscottSAINT PETERSBURG, FL, 33707SKILLED NURSING FACILITY<a title=\"Built for Community Mapping\" href=\"http://www.platial.com\"><img src=\"http://media.geocommons.com/platial/images/logotype_small.jpg\"></a>","id":"a7jpj2z57q4e"},"type":"Feature","geometry":{"type":"Point","coordinates":[-82.722622,27.753055]}},{"properties":{"name":"STRATFORD COURT OF PALM HARBOR","description":"Posted by SwscottPALM HARBOR, FL, 34684SKILLED NURSING FACILITY<a title=\"Built for Community Mapping\" href=\"http://www.platial.com\"><img src=\"http://media.geocommons.com/platial/images/logotype_small.jpg\"></a>","id":"a7jpj2vhfhke"},"type":"Feature","geometry":{"type":"Point","coordinates":[-82.72628,28.085921]}},{"properties":{"name":"SUNSET POINT REHABILITATION AND NURSING CENTER","description":"Posted by SwscottCLEARWATER, FL, 33765SKILLED NURSING FACILITY<a title=\"Built for Community Mapping\" href=\"http://www.platial.com\"><img src=\"http://media.geocommons.com/platial/images/logotype_small.jpg\"></a>","id":"a7jpj2wbymp5"},"type":"Feature","geometry":{"type":"Point","coordinates":[-82.74742,27.975447]}},{"properties":{"name":"SYLVAN HEALTH CENTER","description":"Posted by Swscott<img src=\"http://media.geocommons.com/platial/images/categories/ICON_health_verD.gif\"> CLEARWATER, FL, 33759SKILLED NURSING FACILITY<a title=\"Built for Community Mapping\" href=\"http://www.platial.com\"><img src=\"http://media.geocommons.com/platial/images/logotype_small.jpg\"></a>","id":"a7jpj2yxbzew"},"type":"Feature","geometry":{"type":"Point","coordinates":[-82.704337,27.983967]}},{"properties":{"name":"Sean W. Scott, Esq.","description":"Posted by Swscott3233 East Bay Dr., Largo FL 33771<a title=\"Built for Community Mapping\" href=\"http://www.platial.com\"><img src=\"http://media.geocommons.com/platial/images/logotype_small.jpg\"></a>","id":"a7jpj2lvn91w"},"type":"Feature","geometry":{"type":"Point","coordinates":[-82.753553,27.916462]}},{"properties":{"name":"TANDEM HEALTH CARE OF SAFETY HARBOR","description":"Posted by Swscott<img src=\"http://media.geocommons.com/platial/images/categories/ICON_health_verD.gif\"> SAFETY HARBOR, FL, 34695SKILLED NURSING FACILITY<a title=\"Built for Community Mapping\" href=\"http://www.platial.com\"><img src=\"http://media.geocommons.com/platial/images/logotype_small.jpg\"></a>","id":"a7jpj2qwy6vu"},"type":"Feature","geometry":{"type":"Point","coordinates":[-82.692321,28.014996]}},{"properties":{"name":"TANDEM HEALTH CARE OF ST PETERSBURG","description":"Posted by Swscott<img src=\"http://media.geocommons.com/platial/images/categories/ICON_health_verD.gif\"> SEMINOLE, FL, 33777SKILLED NURSING FACILITY<a title=\"Built for Community Mapping\" href=\"http://www.platial.com\"><img src=\"http://media.geocommons.com/platial/images/logotype_small.jpg\"></a>","id":"a7jpj2ury6d4"},"type":"Feature","geometry":{"type":"Point","coordinates":[-82.756417,27.851164]}},{"properties":{"name":"TARPON BAYOU CENTER","description":"Posted by SwscottTARPON SPRINGS, FL, 34689SKILLED NURSING FACILITY<a title=\"Built for Community Mapping\" href=\"http://www.platial.com\"><img src=\"http://media.geocommons.com/platial/images/logotype_small.jpg\"></a>","id":"a7jpj2s30upy"},"type":"Feature","geometry":{"type":"Point","coordinates":[-82.728796,28.133801]}},{"properties":{"name":"TIERRA PINES CENTER","description":"Posted by SwscottLARGO, FL, 33771SKILLED NURSING FACILITY<a title=\"Built for Community Mapping\" href=\"http://www.platial.com\"><img src=\"http://media.geocommons.com/platial/images/logotype_small.jpg\"></a>","id":"a7jpj2lkk94p"},"type":"Feature","geometry":{"type":"Point","coordinates":[-82.757971,27.907449]}},{"properties":{"name":"WEST BAY REHABILITATION AND NURSING CENTER","description":"Posted by SwscottOLDSMAR, FL, 34677SKILLED NURSING FACILITY<a title=\"Built for Community Mapping\" href=\"http://www.platial.com\"><img src=\"http://media.geocommons.com/platial/images/logotype_small.jpg\"></a>","id":"a7jpj2z9r238"},"type":"Feature","geometry":{"type":"Point","coordinates":[-82.679493,28.045304]}},{"properties":{"name":"WESTCHESTER GARDENS REHAB &amp; CARE CENTER","description":"Posted by SwscottCLEARWATER, FL, 33761SKILLED NURSING FACILITY<a title=\"Built for Community Mapping\" href=\"http://www.platial.com\"><img src=\"http://media.geocommons.com/platial/images/logotype_small.jpg\"></a>","id":"a7jpj2rwaahw"},"type":"Feature","geometry":{"type":"Point","coordinates":[-82.725812,28.029111]}},{"properties":{"name":"WESTMINSTER PALMS","description":"Posted by SwscottSAINT PETERSBURG, FL, 33701SKILLED NURSING FACILITY<a title=\"Built for Community Mapping\" href=\"http://www.platial.com\"><img src=\"http://media.geocommons.com/platial/images/logotype_small.jpg\"></a>","id":"a7jpj2tmqyrd"},"type":"Feature","geometry":{"type":"Point","coordinates":[-82.630943,27.771054]}},{"properties":{"name":"WESTMINSTER SUNCOAST","description":"Posted by SwscottSAINT PETERSBURG, FL, 33705SKILLED NURSING FACILITY<a title=\"Built for Community Mapping\" href=\"http://www.platial.com\"><img src=\"http://media.geocommons.com/platial/images/logotype_small.jpg\"></a>","id":"a7jpj2wlyc3m"},"type":"Feature","geometry":{"type":"Point","coordinates":[-82.649542,27.742905]}},{"properties":{"name":"WRIGHT'S NURSING AND REHABILITATION CENTER","description":"Posted by SwscottSEMINOLE, FL, 33778SKILLED NURSING FACILITY<a title=\"Built for Community Mapping\" href=\"http://www.platial.com\"><img src=\"http://media.geocommons.com/platial/images/logotype_small.jpg\"></a>","id":"a7jpj2mg12yg"},"type":"Feature","geometry":{"type":"Point","coordinates":[-82.799281,27.887635]}}],"is_temporal":false,"author":{"url":"http://www.platial.com/map/34725","metadata":null,"contact_name":"swscott","contact_address":null,"source":"platial:swscott","contact_phone":null},"source":"http://www.platial.com/map/34725","pagination":{"sort":null,"start":0,"total":73,"limit":1000000},"state":"complete","tags":"platial,platial:id=34725,platial:user=swscott","published":"2010-03-03T17:00:00Z","id":28125}