{"type":"FeatureCollection","data_type":"Dataset","url_type":null,"permissions":[{"permissions":{"download":true,"view":true},"group_id":"everyone"}],"classification":null,"title":"Spottedbylocals","count":103,"stream_id":285555,"contributor":{"url":"http://geocommons.com/users/53130","name":"use-it bp"},"data_attributes":null,"calculation_params":null,"icon_link":null,"link":"http://geocommons.com/overlays/285555.json","extent":[18.991,47.4265,19.1259,47.5863],"geometry_types":["point"],"unique_name":null,"name":"Spottedbylocals","feature_count":103,"description":"","next_feature":null,"is_raster":false,"short_classification":"Y","stats":{},"features":[{"properties":{"name":"400","description":"bár","id":"a9gaat5yl0jy"},"type":"Feature","geometry":{"type":"Point","coordinates":[19.060413,47.499748]}},{"properties":{"name":"A38 Hajó","description":"bár","id":"a9gaasw3cds0"},"type":"Feature","geometry":{"type":"Point","coordinates":[19.062941,47.476562]}},{"properties":{"name":"A38 Hajó","description":"kultúra","id":"a9gaastb7na1"},"type":"Feature","geometry":{"type":"Point","coordinates":[19.062941,47.476562]}},{"properties":{"name":"Ágnes Havrán táska","description":"bolt","id":"a9gaassa36g7"},"type":"Feature","geometry":{"type":"Point","coordinates":[19.035139,47.513557]}},{"properties":{"name":"Apacuka Varieté","description":"étel-ital","id":"a9gaat5ect0r"},"type":"Feature","geometry":{"type":"Point","coordinates":[19.056925,47.505775]}},{"properties":{"name":"Arioso Budapest Kereskedelmi Es Szolgaltato Korlatolt Felelossegu Tarsasag","description":"bolt","id":"a9gaassxwdck"},"type":"Feature","geometry":{"type":"Point","coordinates":[19.057619,47.49881]}},{"properties":{"name":"Arriba Taqueria","description":"étel-ital","id":"a9gaat0mdkp2"},"type":"Feature","geometry":{"type":"Point","coordinates":[19.0616,47.506683]}},{"properties":{"name":"Balettcipő Étterem","description":"étel-ital","id":"a9gaastej93q"},"type":"Feature","geometry":{"type":"Point","coordinates":[19.057667,47.503681]}},{"properties":{"name":"Bambi Eszpresszó","description":"bár","id":"a9gaat5qibvn"},"type":"Feature","geometry":{"type":"Point","coordinates":[19.037893,47.51252]}},{"properties":{"name":"Bangla Büfé","description":"étel-ital","id":"a9gaat17y0fu"},"type":"Feature","geometry":{"type":"Point","coordinates":[19.065657,47.500057]}},{"properties":{"name":"Pintér Béla és Társulata","description":"kultúra","id":"a9gaat06gf6i"},"type":"Feature","geometry":{"type":"Point","coordinates":[19.055922,47.481625]}},{"properties":{"name":"Biciklizés a Duna-parton","description":"látványosság","id":"a9gaasx06syu"},"type":"Feature","geometry":{"type":"Point","coordinates":[19.039307,47.508999]}},{"properties":{"name":"Bobek Café","description":"étel-ital","id":"a9gaass9xuli"},"type":"Feature","geometry":{"type":"Point","coordinates":[19.060404,47.499786]}},{"properties":{"name":"Briós Cafe","description":"étel-ital","id":"a9gaat2y6i9g"},"type":"Feature","geometry":{"type":"Point","coordinates":[19.049826,47.516026]}},{"properties":{"name":"Café Alibi","description":"étel-ital","id":"a9gaasscdbm7"},"type":"Feature","geometry":{"type":"Point","coordinates":[19.058954,47.490593]}},{"properties":{"name":"Café Csiga","description":"étel-ital","id":"a9gaat6twgcl"},"type":"Feature","geometry":{"type":"Point","coordinates":[19.072523,47.493355]}},{"properties":{"name":"Castro Bisztró","description":"étel-ital","id":"a9gaasrth6m5"},"type":"Feature","geometry":{"type":"Point","coordinates":[19.057346,47.497471]}},{"properties":{"name":"Milleniumi emlékmű","description":"látványosság","id":"a9gaaszis3h2"},"type":"Feature","geometry":{"type":"Point","coordinates":[19.044285,47.518303]}},{"properties":{"name":"Centrál Kávéház","description":"étel-ital","id":"a9gaat3vs0pj"},"type":"Feature","geometry":{"type":"Point","coordinates":[19.056803,47.492104]}},{"properties":{"name":"Corvintetõ","description":"bár","id":"a9gaat6rahem"},"type":"Feature","geometry":{"type":"Point","coordinates":[19.069052,47.496223]}},{"properties":{"name":"Csakajósör Kft.","description":"bár","id":"a9gaat6x33up"},"type":"Feature","geometry":{"type":"Point","coordinates":[19.065454,47.501759]}},{"properties":{"name":"Cukorka","description":"bolt","id":"a9gaasseg8s9"},"type":"Feature","geometry":{"type":"Point","coordinates":[19.060385,47.493385]}},{"properties":{"name":"Dandár Gyógyfürdő","description":"park","id":"a9gaat0vg1bm"},"type":"Feature","geometry":{"type":"Point","coordinates":[19.070946,47.476387]}},{"properties":{"name":"Daubner Cukrászda","description":"étel-ital","id":"a9gaat383fgu"},"type":"Feature","geometry":{"type":"Point","coordinates":[19.03179,47.528503]}},{"properties":{"name":"DOBLO Wine Bar and Shop","description":"étel-ital","id":"a9gaaszd3cga"},"type":"Feature","geometry":{"type":"Point","coordinates":[19.061001,47.498058]}},{"properties":{"name":"Eco Café","description":"étel-ital","id":"a9gaat6fe9on"},"type":"Feature","geometry":{"type":"Point","coordinates":[19.066666,47.507454]}},{"properties":{"name":"el Rapido Grill &amp; Deli","description":"étel-ital","id":"a9gaat5r9b0r"},"type":"Feature","geometry":{"type":"Point","coordinates":[19.063683,47.496582]}},{"properties":{"name":"Ellátó kert","description":"bár","id":"a9gaasxgbx2d"},"type":"Feature","geometry":{"type":"Point","coordinates":[19.060932,47.499176]}},{"properties":{"name":"Ellátó kert","description":"bár","id":"a9gaat55hdsx"},"type":"Feature","geometry":{"type":"Point","coordinates":[19.060932,47.499176]}},{"properties":{"name":"Falk Miksa utca","description":"látványosság","id":"a9gaasv52m8j"},"type":"Feature","geometry":{"type":"Point","coordinates":[19.048164,47.510647]}},{"properties":{"name":"Farkaserdő","description":"park","id":"a9gaasupysfg"},"type":"Feature","geometry":{"type":"Point","coordinates":[19.110022,47.586258]}},{"properties":{"name":"Fasor Söröző","description":"bár","id":"a9gaaszp4uzf"},"type":"Feature","geometry":{"type":"Point","coordinates":[19.018415,47.508865]}},{"properties":{"name":"Fiumei úti sírkert","description":"park","id":"a9gaat4m1z4u"},"type":"Feature","geometry":{"type":"Point","coordinates":[19.085011,47.495174]}},{"properties":{"name":"Flatlab","description":"bolt","id":"a9gaat4ebeq2"},"type":"Feature","geometry":{"type":"Point","coordinates":[19.063501,47.489422]}},{"properties":{"name":"Fogasház","description":"bár","id":"a9gaass3t62d"},"type":"Feature","geometry":{"type":"Point","coordinates":[19.064913,47.500694]}},{"properties":{"name":"Gozsdu-udvar","description":"látványosság","id":"a9gaat1w59hc"},"type":"Feature","geometry":{"type":"Point","coordinates":[19.058517,47.499245]}},{"properties":{"name":"Gozsdu-udvar","description":"bár","id":"a9gaat4nst4c"},"type":"Feature","geometry":{"type":"Point","coordinates":[19.058517,47.499245]}},{"properties":{"name":"Gozsdu-udvar","description":"kultúra","id":"a9gaasw85z56"},"type":"Feature","geometry":{"type":"Point","coordinates":[19.058517,47.499245]}},{"properties":{"name":"Gül Baba Türbéje","description":"látványosság","id":"a9gaat70x7bi"},"type":"Feature","geometry":{"type":"Point","coordinates":[19.034908,47.51606]}},{"properties":{"name":"Gül Baba Türbéje","description":"park","id":"a9gaat69tgm7"},"type":"Feature","geometry":{"type":"Point","coordinates":[19.034908,47.51606]}},{"properties":{"name":"Halkakas Fish Bistro","description":"étel-ital","id":"a9gaat71rdu1"},"type":"Feature","geometry":{"type":"Point","coordinates":[19.057894,47.488537]}},{"properties":{"name":"Hivatal kávézó","description":"étel-ital","id":"a9gaass92pcb"},"type":"Feature","geometry":{"type":"Point","coordinates":[19.058252,47.498299]}},{"properties":{"name":"Hummus Bar","description":"étel-ital","id":"a9gaat5qsx7b"},"type":"Feature","geometry":{"type":"Point","coordinates":[19.05434,47.507912]}},{"properties":{"name":"Mai Manó Fotógaléria és Lépcsőházi Galéria","description":"kultúra","id":"a9gaasvkqgas"},"type":"Feature","geometry":{"type":"Point","coordinates":[19.060019,47.503551]}},{"properties":{"name":"Ibolya presszó","description":"bár","id":"a9gaat0nwf02"},"type":"Feature","geometry":{"type":"Point","coordinates":[19.056572,47.492153]}},{"properties":{"name":"Írók Boltja","description":"bolt","id":"a9gaassvg4cs"},"type":"Feature","geometry":{"type":"Point","coordinates":[19.062237,47.504276]}},{"properties":{"name":"Ivócsarnok","description":"bár","id":"a9gaasvmwfsq"},"type":"Feature","geometry":{"type":"Point","coordinates":[19.046806,47.489948]}},{"properties":{"name":"Jedermann","description":"bár","id":"a9gaat73bghf"},"type":"Feature","geometry":{"type":"Point","coordinates":[19.067036,47.481796]}},{"properties":{"name":"Károlyi kert","description":"park","id":"a9gaat4v7y5q"},"type":"Feature","geometry":{"type":"Point","coordinates":[19.059742,47.492069]}},{"properties":{"name":"Keksz Bár","description":"bár","id":"a9gaasyvz6e7"},"type":"Feature","geometry":{"type":"Point","coordinates":[19.05702,47.497673]}},{"properties":{"name":"Kertem","description":"bár","id":"a9gaaswhs7by"},"type":"Feature","geometry":{"type":"Point","coordinates":[19.083822,47.512589]}},{"properties":{"name":"Kino","description":"kultúra","id":"a9gaasweejz9"},"type":"Feature","geometry":{"type":"Point","coordinates":[19.051701,47.512028]}},{"properties":{"name":"Kis Parázs","description":"bár","id":"a9gaasxn8o4i"},"type":"Feature","geometry":{"type":"Point","coordinates":[19.063799,47.496487]}},{"properties":{"name":"Kőleves Vendéglő","description":"étel-ital","id":"a9gaat0zp6qr"},"type":"Feature","geometry":{"type":"Point","coordinates":[19.06114,47.499126]}},{"properties":{"name":"Kuplung","description":"bár","id":"a9gaat2tde4d"},"type":"Feature","geometry":{"type":"Point","coordinates":[19.061462,47.501244]}},{"properties":{"name":"Látomás","description":"bár","id":"a9gaat44q36p"},"type":"Feature","geometry":{"type":"Point","coordinates":[19.061602,47.501148]}},{"properties":{"name":"Lehel Piac","description":"bolt","id":"a9gaat75vfk9"},"type":"Feature","geometry":{"type":"Point","coordinates":[19.060978,47.518692]}},{"properties":{"name":"Levendula Ice Cream","description":"étel-ital","id":"a9gaasx7rbed"},"type":"Feature","geometry":{"type":"Point","coordinates":[19.065662,47.495754]}},{"properties":{"name":"Litea Könyvesbolt és Teázó","description":"bolt","id":"a9gaaszu6tcr"},"type":"Feature","geometry":{"type":"Point","coordinates":[19.032772,47.50275]}},{"properties":{"name":"Massolit","description":"bár","id":"a9gaat4ynrfd"},"type":"Feature","geometry":{"type":"Point","coordinates":[19.063995,47.498573]}},{"properties":{"name":"Memento Park","description":"látványosság","id":"a9gaasx5wplt"},"type":"Feature","geometry":{"type":"Point","coordinates":[19.000601,47.426498]}},{"properties":{"name":"Mika Tivadar Mulató","description":"bár","id":"a9gaasuc6yka"},"type":"Feature","geometry":{"type":"Point","coordinates":[19.060879,47.499378]}},{"properties":{"name":"Millenáris Park","description":"kultúra","id":"a9gaat6ij64p"},"type":"Feature","geometry":{"type":"Point","coordinates":[19.024887,47.510941]}},{"properties":{"name":"Millenáris Park","description":"park","id":"a9gaaszhm646"},"type":"Feature","geometry":{"type":"Point","coordinates":[19.024858,47.510944]}},{"properties":{"name":"Mlamp","description":"bolt","id":"a9gaat6hkgat"},"type":"Feature","geometry":{"type":"Point","coordinates":[19.061462,47.498386]}},{"properties":{"name":"MOME Kantin","description":"étel-ital","id":"a9gaasuy4216"},"type":"Feature","geometry":{"type":"Point","coordinates":[18.990971,47.516567]}},{"properties":{"name":"MOME Kantin","description":"kultúra","id":"a9gaasz9wzon"},"type":"Feature","geometry":{"type":"Point","coordinates":[18.990971,47.516567]}},{"properties":{"name":"Montenegroi Gurman","description":"étel-ital","id":"a9gaasrrmzyj"},"type":"Feature","geometry":{"type":"Point","coordinates":[19.071802,47.497662]}},{"properties":{"name":"Művészetek Palotája","description":"kultúra","id":"a9gaat1y434o"},"type":"Feature","geometry":{"type":"Point","coordinates":[19.070612,47.469772]}},{"properties":{"name":"Nemsüti","description":"étel-ital","id":"a9gaat1s31eg"},"type":"Feature","geometry":{"type":"Point","coordinates":[19.048557,47.513771]}},{"properties":{"name":"Népsziget","description":"park","id":"a9gaat23l5kq"},"type":"Feature","geometry":{"type":"Point","coordinates":[19.074177,47.561062]}},{"properties":{"name":"Noir ChocoBar","description":"étel-ital","id":"a9gaasz7255d"},"type":"Feature","geometry":{"type":"Point","coordinates":[19.062201,47.503269]}},{"properties":{"name":"Nyitott Műhely","description":"kultúra","id":"a9gaasr4jm9h"},"type":"Feature","geometry":{"type":"Point","coordinates":[19.023338,47.499432]}},{"properties":{"name":"Ómama Antikvitás","description":"bolt","id":"a9gaat76lu8r"},"type":"Feature","geometry":{"type":"Point","coordinates":[19.04842,47.512848]}},{"properties":{"name":"Orange Optika Szalon","description":"bolt","id":"a9gaasvm4ku9"},"type":"Feature","geometry":{"type":"Point","coordinates":[19.060616,47.500622]}},{"properties":{"name":"Örökmozgó Filmmúzeum","description":"kultúra","id":"a9gaasw4lrr5"},"type":"Feature","geometry":{"type":"Point","coordinates":[19.067652,47.501831]}},{"properties":{"name":"Országos Műszaki Múzeum","description":"kultúra","id":"a9gaat7acrya"},"type":"Feature","geometry":{"type":"Point","coordinates":[19.051634,47.468502]}},{"properties":{"name":"P60","description":"kultúra","id":"a9gaat7b26dp"},"type":"Feature","geometry":{"type":"Point","coordinates":[19.062786,47.503841]}},{"properties":{"name":"Papa Gyrosa","description":"étel-ital","id":"a9gaasrbs3cx"},"type":"Feature","geometry":{"type":"Point","coordinates":[19.023825,47.510517]}},{"properties":{"name":"Parapark","description":"bár","id":"a9gaasuga6yj"},"type":"Feature","geometry":{"type":"Point","coordinates":[19.073339,47.488441]}},{"properties":{"name":"Pinczi hús hentesáru","description":"étel-ital","id":"a9gaat08uzq8"},"type":"Feature","geometry":{"type":"Point","coordinates":[19.057119,47.509575]}},{"properties":{"name":"Pótkulcs","description":"bár","id":"a9gaat5n25vk"},"type":"Feature","geometry":{"type":"Point","coordinates":[19.061165,47.509857]}},{"properties":{"name":"Pozsonyi Kisvendéglő","description":"étel-ital","id":"a9gaasuxmfd0"},"type":"Feature","geometry":{"type":"Point","coordinates":[19.049662,47.516201]}},{"properties":{"name":"Printa","description":"bolt","id":"a9gaat50ozjp"},"type":"Feature","geometry":{"type":"Point","coordinates":[19.058542,47.497662]}},{"properties":{"name":"Pándzsáb Tandoori","description":"étel-ital","id":"a9gaasqyz2yl"},"type":"Feature","geometry":{"type":"Point","coordinates":[19.051418,47.513149]}},{"properties":{"name":"Rozsavolgyi Csokoládé","description":"étel-ital","id":"a9gaat3n0a7f"},"type":"Feature","geometry":{"type":"Point","coordinates":[19.059221,47.490185]}},{"properties":{"name":"Sarki Fűszeres","description":"bolt","id":"a9gaasw4ywva"},"type":"Feature","geometry":{"type":"Point","coordinates":[19.052168,47.519203]}},{"properties":{"name":"Snaps Galléria","description":"kultúra","id":"a9gaasv3ii0g"},"type":"Feature","geometry":{"type":"Point","coordinates":[19.070484,47.506218]}},{"properties":{"name":"Fővárosi Szabó Ervin Könyvtár","description":"kultúra","id":"a9gaasvq9um2"},"type":"Feature","geometry":{"type":"Point","coordinates":[19.064301,47.489399]}},{"properties":{"name":"Szikra","description":"bár","id":"a9gaat10lwhy"},"type":"Feature","geometry":{"type":"Point","coordinates":[19.056774,47.509819]}},{"properties":{"name":"Szimpla Kert","description":"bár","id":"a9gaasvxx9xo"},"type":"Feature","geometry":{"type":"Point","coordinates":[19.063391,47.496998]}},{"properties":{"name":"Szimpla Kert","description":"kultúra","id":"a9gaat38k7ho"},"type":"Feature","geometry":{"type":"Point","coordinates":[19.063391,47.496998]}},{"properties":{"name":"Szindbád Étterem és Klub","description":"étel-ital","id":"a9gaasyiskck"},"type":"Feature","geometry":{"type":"Point","coordinates":[19.054735,47.508724]}},{"properties":{"name":"Szóda Kávézó","description":"bár","id":"a9gaat0qjwlz"},"type":"Feature","geometry":{"type":"Point","coordinates":[19.062428,47.497349]}},{"properties":{"name":"Táskarádio Eszpresszó","description":"étel-ital","id":"a9gaat46jdai"},"type":"Feature","geometry":{"type":"Point","coordinates":[19.057636,47.491062]}},{"properties":{"name":"A láthatatlan kiállítás","description":"kultúra","id":"a9gaasuy3nki"},"type":"Feature","geometry":{"type":"Point","coordinates":[19.1036,47.4753]}},{"properties":{"name":"Tisza Cipő Márkabolt","description":"bolt","id":"a9gaasrc0l6y"},"type":"Feature","geometry":{"type":"Point","coordinates":[19.06008,47.494682]}},{"properties":{"name":"Trafó Kortárs Művészetek Háza","description":"kultúra","id":"a9gaat1cr747"},"type":"Feature","geometry":{"type":"Point","coordinates":[19.072241,47.483814]}},{"properties":{"name":"Nyugati alagút a sínek alatt","description":"látványosság","id":"a9gaastyyk2w"},"type":"Feature","geometry":{"type":"Point","coordinates":[19.067717,47.514793]}},{"properties":{"name":"Újpest piac","description":"bolt","id":"a9gaat0y5x39"},"type":"Feature","geometry":{"type":"Point","coordinates":[19.08877,47.561665]}},{"properties":{"name":"Vízraktér","description":"bár","id":"a9gaat1o3oxy"},"type":"Feature","geometry":{"type":"Point","coordinates":[19.038271,47.510399]}},{"properties":{"name":"WAMP","description":"bolt","id":"a9gaat5wp2es"},"type":"Feature","geometry":{"type":"Point","coordinates":[19.053341,47.498241]}},{"properties":{"name":"Wekerle-telep","description":"látványosság","id":"a9gaat3ofbo1"},"type":"Feature","geometry":{"type":"Point","coordinates":[19.125931,47.455849]}}],"is_temporal":false,"author":{"url":"","metadata":"","contact_name":"","contact_address":"","source":"","contact_phone":""},"source":"","pagination":{"sort":null,"start":0,"total":103,"limit":1000000},"state":"complete","tags":"","published":"2014-08-14T22:00:06-04:00","id":285555}