{"type":"FeatureCollection","data_type":"Dataset","url_type":null,"permissions":[{"permissions":{"download":true,"view":true},"group_id":"everyone"}],"classification":null,"title":"\nalandfaraway's places\n","count":78,"stream_id":28582,"contributor":{"url":"http://geocommons.com/users/11444","name":"platial"},"data_attributes":null,"calculation_params":null,"icon_link":null,"link":"http://geocommons.com/overlays/28582.json","extent":[-157.789,-45.0311,175.009,62.4754],"geometry_types":["point"],"unique_name":null,"name":"\nalandfaraway's places\n","feature_count":78,"description":"\nA Map by Alandfaraway\n\n\n","next_feature":null,"is_raster":false,"short_classification":"Y","stats":{},"features":[{"properties":{"name":"ARR GRAND FROMAGE MATEYS","description":"Posted by <a title=\"http://www.alandfaraway.org\" href=\"http://www.alandfaraway.org\">Alandfaraway</a>MogadishuSHIVER ME TIMBERS<a title=\"Built for Community Mapping\" href=\"http://www.platial.com\"><img src=\"http://media.geocommons.com/platial/images/logotype_small.jpg\"></a>","id":"a7hu6yu3qka0"},"type":"Feature","geometry":{"type":"Point","coordinates":[45.330001,2.049999]}},{"properties":{"name":"ARR GRAND FROMAGE MATEYS","description":"Posted by <a title=\"http://www.alandfaraway.org\" href=\"http://www.alandfaraway.org\">Alandfaraway</a>Gulf of AdenSHIVER ME TIMBERS<a title=\"Built for Community Mapping\" href=\"http://www.platial.com\"><img src=\"http://media.geocommons.com/platial/images/logotype_small.jpg\"></a>","id":"a7hu6z2rrrm0"},"type":"Feature","geometry":{"type":"Point","coordinates":[48.0803529,13.0407518]}},{"properties":{"name":"AcadiusLost","description":"Posted by <a title=\"http://www.alandfaraway.org\" href=\"http://www.alandfaraway.org\">Alandfaraway</a>charlottesville, vaTech Admin<a title=\"Built for Community Mapping\" href=\"http://www.platial.com\"><img src=\"http://media.geocommons.com/platial/images/logotype_small.jpg\"></a>","id":"a7hu6z22y3vo"},"type":"Feature","geometry":{"type":"Point","coordinates":[-78.476944,38.029167]}},{"properties":{"name":"AcadiusLost","description":"Posted by <a title=\"http://www.alandfaraway.org\" href=\"http://www.alandfaraway.org\">Alandfaraway</a><img src=\"http://media.geocommons.com/platial/img/2009/04/4/tje_mugshot.jpg\">charlottesville, va<a title=\"Built for Community Mapping\" href=\"http://www.platial.com\"><img src=\"http://media.geocommons.com/platial/images/logotype_small.jpg\"></a>","id":"a7hu6ytyp1m5"},"type":"Feature","geometry":{"type":"Point","coordinates":[-78.476944,38.029167]}},{"properties":{"name":"Aelred","description":"Posted by <a title=\"http://www.alandfaraway.org\" href=\"http://www.alandfaraway.org\">Alandfaraway</a><img src=\"http://media.geocommons.com/platial/img/2009/04/2/DSCI0036.jpg\">Escazu, Costa Ricame and my 2 basenjis<a title=\"Built for Community Mapping\" href=\"http://www.platial.com\"><img src=\"http://media.geocommons.com/platial/images/logotype_small.jpg\"></a>","id":"a7hu6z0npta0"},"type":"Feature","geometry":{"type":"Point","coordinates":[-84.1422232,9.9193355]}},{"properties":{"name":"AnalogKid","description":"Posted by <a title=\"http://www.alandfaraway.org\" href=\"http://www.alandfaraway.org\">Alandfaraway</a>Torrance<a title=\"Built for Community Mapping\" href=\"http://www.platial.com\"><img src=\"http://media.geocommons.com/platial/images/logotype_small.jpg\"></a>","id":"a7hu6z249w4i"},"type":"Feature","geometry":{"type":"Point","coordinates":[-118.339722,33.835833]}},{"properties":{"name":"AsteroidX","description":"Posted by <a title=\"http://www.alandfaraway.org\" href=\"http://www.alandfaraway.org\">Alandfaraway</a><img src=\"http://media.geocommons.com/platial/img/2009/04/3/0607080014.jpg\">Eugene Oregon<a title=\"Built for Community Mapping\" href=\"http://www.platial.com\"><img src=\"http://media.geocommons.com/platial/images/logotype_small.jpg\"></a>","id":"a7hu6z7otcew"},"type":"Feature","geometry":{"type":"Point","coordinates":[-123.085556,44.052222]}},{"properties":{"name":"Aurum","description":"Posted by <a title=\"http://www.alandfaraway.org\" href=\"http://www.alandfaraway.org\">Alandfaraway</a>Hamburg<a title=\"Built for Community Mapping\" href=\"http://www.platial.com\"><img src=\"http://media.geocommons.com/platial/images/logotype_small.jpg\"></a>","id":"a7hu6z50pxqs"},"type":"Feature","geometry":{"type":"Point","coordinates":[9.973259,53.549839]}},{"properties":{"name":"Aurum","description":"Posted by <a title=\"http://www.alandfaraway.org\" href=\"http://www.alandfaraway.org\">Alandfaraway</a>Wilhelmshaven<a title=\"Built for Community Mapping\" href=\"http://www.platial.com\"><img src=\"http://media.geocommons.com/platial/images/logotype_small.jpg\"></a>","id":"a7hu6z4een87"},"type":"Feature","geometry":{"type":"Point","coordinates":[8.119749,53.517063]}},{"properties":{"name":"Brad","description":"Posted by <a title=\"http://www.alandfaraway.org\" href=\"http://www.alandfaraway.org\">Alandfaraway</a><img src=\"http://media.geocommons.com/platial/img/2010/02/3/bond.jpg\">tucsonHello from the desert!<a title=\"Built for Community Mapping\" href=\"http://www.platial.com\"><img src=\"http://media.geocommons.com/platial/images/logotype_small.jpg\"></a>","id":"a7hu6yua2hw8"},"type":"Feature","geometry":{"type":"Point","coordinates":[-110.925833,32.221667]}},{"properties":{"name":"Brokenbone","description":"Posted by <a title=\"http://www.alandfaraway.org\" href=\"http://www.alandfaraway.org\">Alandfaraway</a><img src=\"http://media.geocommons.com/platial/img/2009/04/4/mw.jpg\">London, Ontario<a title=\"Built for Community Mapping\" href=\"http://www.platial.com\"><img src=\"http://media.geocommons.com/platial/images/logotype_small.jpg\"></a>","id":"a7hu6z5i6iv7"},"type":"Feature","geometry":{"type":"Point","coordinates":[-81.249659,42.976427]}},{"properties":{"name":"Brother Humphrey","description":"Posted by <a title=\"http://www.alandfaraway.org\" href=\"http://www.alandfaraway.org\">Alandfaraway</a>hadera, israelAlfa Member<a title=\"Built for Community Mapping\" href=\"http://www.platial.com\"><img src=\"http://media.geocommons.com/platial/images/logotype_small.jpg\"></a>","id":"a7hu6z6e6b6g"},"type":"Feature","geometry":{"type":"Point","coordinates":[34.919998,32.45]}},{"properties":{"name":"Burt","description":"Posted by <a title=\"http://www.alandfaraway.org\" href=\"http://www.alandfaraway.org\">Alandfaraway</a><img src=\"http://media.geocommons.com/platial/img/2009/04/2/Middleton_003.jpg\">EdinburghJagoff.<a title=\"Built for Community Mapping\" href=\"http://www.platial.com\"><img src=\"http://media.geocommons.com/platial/images/logotype_small.jpg\"></a>","id":"a7hu6ywj6en3"},"type":"Feature","geometry":{"type":"Point","coordinates":[-3.18753,55.950152]}},{"properties":{"name":"Castano","description":"Posted by <a title=\"http://www.alandfaraway.org\" href=\"http://www.alandfaraway.org\">Alandfaraway</a>new york<a title=\"Built for Community Mapping\" href=\"http://www.platial.com\"><img src=\"http://media.geocommons.com/platial/images/logotype_small.jpg\"></a>","id":"a7hu6yvg58rp"},"type":"Feature","geometry":{"type":"Point","coordinates":[-74.006389,40.714167]}},{"properties":{"name":"Curmudgeon","description":"Posted by <a title=\"http://www.alandfaraway.org\" href=\"http://www.alandfaraway.org\">Alandfaraway</a><img src=\"http://media.geocommons.com/platial/img/2009/04/2/curmavatar.jpg\">Massachusetts<a title=\"Built for Community Mapping\" href=\"http://www.platial.com\"><img src=\"http://media.geocommons.com/platial/images/logotype_small.jpg\"></a>","id":"a7hu6z43fr95"},"type":"Feature","geometry":{"type":"Point","coordinates":[-71.090999,42.321035]}},{"properties":{"name":"DarkHin","description":"Posted by <a title=\"http://www.alandfaraway.org\" href=\"http://www.alandfaraway.org\">Alandfaraway</a><img src=\"http://media.geocommons.com/platial/img/2009/06/2/n635135248_5372058_3697.jpg\">Vancouver<a title=\"Built for Community Mapping\" href=\"http://www.platial.com\"><img src=\"http://media.geocommons.com/platial/images/logotype_small.jpg\"></a>","id":"a7hu6ysxjabq"},"type":"Feature","geometry":{"type":"Point","coordinates":[-123.111934,49.250494]}},{"properties":{"name":"Dim-Wit","description":"Posted by <a title=\"http://www.alandfaraway.org\" href=\"http://www.alandfaraway.org\">Alandfaraway</a>Huntingdon<a title=\"Built for Community Mapping\" href=\"http://www.platial.com\"><img src=\"http://media.geocommons.com/platial/images/logotype_small.jpg\"></a>","id":"a7hu6z74zjvx"},"type":"Feature","geometry":{"type":"Point","coordinates":[-0.185363,52.329249]}},{"properties":{"name":"Doma","description":"Posted by <a title=\"http://www.alandfaraway.org\" href=\"http://www.alandfaraway.org\">Alandfaraway</a>Ålesund<a title=\"Built for Community Mapping\" href=\"http://www.platial.com\"><img src=\"http://media.geocommons.com/platial/images/logotype_small.jpg\"></a>","id":"a7hu6yu3ym4x"},"type":"Feature","geometry":{"type":"Point","coordinates":[6.20049,62.475405]}},{"properties":{"name":"Droomi","description":"Posted by <a title=\"http://www.alandfaraway.org\" href=\"http://www.alandfaraway.org\">Alandfaraway</a>fort lauderdale<a title=\"Built for Community Mapping\" href=\"http://www.platial.com\"><img src=\"http://media.geocommons.com/platial/images/logotype_small.jpg\"></a>","id":"a7hu6yy90zvb"},"type":"Feature","geometry":{"type":"Point","coordinates":[-80.143611,26.121944]}},{"properties":{"name":"ElCadaver","description":"Posted by <a title=\"http://www.alandfaraway.org\" href=\"http://www.alandfaraway.org\">Alandfaraway</a><img src=\"http://media.geocommons.com/platial/img/2009/04/2/file.png\">perthKert Davis<a title=\"Built for Community Mapping\" href=\"http://www.platial.com\"><img src=\"http://media.geocommons.com/platial/images/logotype_small.jpg\"></a>","id":"a7hu6yzksuwm"},"type":"Feature","geometry":{"type":"Point","coordinates":[115.839996,-31.959999]}},{"properties":{"name":"Electryc","description":"Posted by <a title=\"http://www.alandfaraway.org\" href=\"http://www.alandfaraway.org\">Alandfaraway</a>Maroa<a title=\"Built for Community Mapping\" href=\"http://www.platial.com\"><img src=\"http://media.geocommons.com/platial/images/logotype_small.jpg\"></a>","id":"a7hu6z1ebeth"},"type":"Feature","geometry":{"type":"Point","coordinates":[-88.956244,40.037387]}},{"properties":{"name":"Erevain","description":"Posted by <a title=\"http://www.alandfaraway.org\" href=\"http://www.alandfaraway.org\">Alandfaraway</a><img src=\"http://media.geocommons.com/platial/img/2010/02/3/DSC00320.JPG\">Birmingham uk<a title=\"Built for Community Mapping\" href=\"http://www.platial.com\"><img src=\"http://media.geocommons.com/platial/images/logotype_small.jpg\"></a>","id":"a7hu6yzhrv9b"},"type":"Feature","geometry":{"type":"Point","coordinates":[-1.893619,52.482921]}},{"properties":{"name":"Faeryl","description":"Posted by <a title=\"http://www.alandfaraway.org\" href=\"http://www.alandfaraway.org\">Alandfaraway</a><img src=\"http://media.geocommons.com/platial/img/2009/04/2/Gerri1_3_.jpg\">Pittsburgh<a title=\"Built for Community Mapping\" href=\"http://www.platial.com\"><img src=\"http://media.geocommons.com/platial/images/logotype_small.jpg\"></a>","id":"a7hu6z2p051n"},"type":"Feature","geometry":{"type":"Point","coordinates":[-79.996111,40.440556]}},{"properties":{"name":"Gebb","description":"Posted by <a title=\"http://www.alandfaraway.org\" href=\"http://www.alandfaraway.org\">Alandfaraway</a>kaneohe hi<a title=\"Built for Community Mapping\" href=\"http://www.platial.com\"><img src=\"http://media.geocommons.com/platial/images/logotype_small.jpg\"></a>","id":"a7hu6z5l77eg"},"type":"Feature","geometry":{"type":"Point","coordinates":[-157.788981,21.405766]}},{"properties":{"name":"Grand Fromage","description":"Posted by <a title=\"http://www.alandfaraway.org\" href=\"http://www.alandfaraway.org\">Alandfaraway</a>Dayton, OH USA<a title=\"Built for Community Mapping\" href=\"http://www.platial.com\"><img src=\"http://media.geocommons.com/platial/images/logotype_small.jpg\"></a>","id":"a7hu6yyewg0g"},"type":"Feature","geometry":{"type":"Point","coordinates":[-84.205247,39.762445]}},{"properties":{"name":"Gribo","description":"Posted by <a title=\"http://www.alandfaraway.org\" href=\"http://www.alandfaraway.org\">Alandfaraway</a>israel<a title=\"Built for Community Mapping\" href=\"http://www.platial.com\"><img src=\"http://media.geocommons.com/platial/images/logotype_small.jpg\"></a>","id":"a7hu6yx392fi"},"type":"Feature","geometry":{"type":"Point","coordinates":[34.975315,31.378489]}},{"properties":{"name":"HEEGZ","description":"Posted by <a title=\"http://www.alandfaraway.org\" href=\"http://www.alandfaraway.org\">Alandfaraway</a>Springfield, MO<a title=\"Built for Community Mapping\" href=\"http://www.platial.com\"><img src=\"http://media.geocommons.com/platial/images/logotype_small.jpg\"></a>","id":"a7hu6z2orczn"},"type":"Feature","geometry":{"type":"Point","coordinates":[-93.298056,37.215278]}},{"properties":{"name":"Hialmar","description":"Posted by <a title=\"http://www.alandfaraway.org\" href=\"http://www.alandfaraway.org\">Alandfaraway</a><img src=\"http://media.geocommons.com/platial/img/2009/04/2/patricetorguet.jpg\">Toulouse, Midi-Pyrénées FranciaHello there:<a title=\"Built for Community Mapping\" href=\"http://www.platial.com\"><img src=\"http://media.geocommons.com/platial/images/logotype_small.jpg\"></a>","id":"a7hu6z4dbmzd"},"type":"Feature","geometry":{"type":"Point","coordinates":[1.4429513,43.604363]}},{"properties":{"name":"Holy_Rage","description":"Posted by <a title=\"http://www.alandfaraway.org\" href=\"http://www.alandfaraway.org\">Alandfaraway</a>brussels<a title=\"Built for Community Mapping\" href=\"http://www.platial.com\"><img src=\"http://media.geocommons.com/platial/images/logotype_small.jpg\"></a>","id":"a7hu6z91fecz"},"type":"Feature","geometry":{"type":"Point","coordinates":[4.329999,50.830001]}},{"properties":{"name":"Holy_Rage","description":"Posted by <a title=\"http://www.alandfaraway.org\" href=\"http://www.alandfaraway.org\">Alandfaraway</a>Athens<a title=\"Built for Community Mapping\" href=\"http://www.platial.com\"><img src=\"http://media.geocommons.com/platial/images/logotype_small.jpg\"></a>","id":"a7hu6yz2qbxv"},"type":"Feature","geometry":{"type":"Point","coordinates":[23.729999,37.979999]}},{"properties":{"name":"Isenheart","description":"Posted by <a title=\"http://www.alandfaraway.org\" href=\"http://www.alandfaraway.org\">Alandfaraway</a>sköttning, 51391<a title=\"Built for Community Mapping\" href=\"http://www.platial.com\"><img src=\"http://media.geocommons.com/platial/images/logotype_small.jpg\"></a>","id":"a7hu6z17m193"},"type":"Feature","geometry":{"type":"Point","coordinates":[12.9298576,57.8102576]}},{"properties":{"name":"Ithildur","description":"Posted by <a title=\"http://www.alandfaraway.org\" href=\"http://www.alandfaraway.org\">Alandfaraway</a>chicago<a title=\"Built for Community Mapping\" href=\"http://www.platial.com\"><img src=\"http://media.geocommons.com/platial/images/logotype_small.jpg\"></a>","id":"a7hu6z36pzc8"},"type":"Feature","geometry":{"type":"Point","coordinates":[-87.65,41.85]}},{"properties":{"name":"Ithildur","description":"Posted by <a title=\"http://www.alandfaraway.org\" href=\"http://www.alandfaraway.org\">Alandfaraway</a>seoulSweet Home... Chicago<a title=\"Built for Community Mapping\" href=\"http://www.platial.com\"><img src=\"http://media.geocommons.com/platial/images/logotype_small.jpg\"></a>","id":"a7hu6yzdceqw"},"type":"Feature","geometry":{"type":"Point","coordinates":[126.989997,37.560001]}},{"properties":{"name":"JMecha","description":"Posted by <a title=\"http://www.alandfaraway.org\" href=\"http://www.alandfaraway.org\">Alandfaraway</a>chicago<a title=\"Built for Community Mapping\" href=\"http://www.platial.com\"><img src=\"http://media.geocommons.com/platial/images/logotype_small.jpg\"></a>","id":"a7hu6z12qxz8"},"type":"Feature","geometry":{"type":"Point","coordinates":[-87.65,41.85]}},{"properties":{"name":"Kalrenath","description":"Posted by <a title=\"http://www.alandfaraway.org\" href=\"http://www.alandfaraway.org\">Alandfaraway</a><img src=\"http://media.geocommons.com/platial/img/2009/05/0/Dan_Facebook.jpg\">Ann Arbor<a title=\"Built for Community Mapping\" href=\"http://www.platial.com\"><img src=\"http://media.geocommons.com/platial/images/logotype_small.jpg\"></a>","id":"a7hu6z0a56n6"},"type":"Feature","geometry":{"type":"Point","coordinates":[-83.745833,42.283333]}},{"properties":{"name":"Keryn","description":"Posted by <a title=\"http://www.alandfaraway.org\" href=\"http://www.alandfaraway.org\">Alandfaraway</a><img src=\"http://media.geocommons.com/platial/img/2009/04/3/euxmas_2_.jpg\">Faro 8000<a title=\"Built for Community Mapping\" href=\"http://www.platial.com\"><img src=\"http://media.geocommons.com/platial/images/logotype_small.jpg\"></a>","id":"a7hu6z7ahw3j"},"type":"Feature","geometry":{"type":"Point","coordinates":[-7.9293247,37.0188778]}},{"properties":{"name":"Keryn","description":"Posted by <a title=\"http://www.alandfaraway.org\" href=\"http://www.alandfaraway.org\">Alandfaraway</a><img src=\"http://media.geocommons.com/platial/img/2009/04/3/euxmas.jpg\">Rua Capitao Jose Vieira Branco<a title=\"Built for Community Mapping\" href=\"http://www.platial.com\"><img src=\"http://media.geocommons.com/platial/images/logotype_small.jpg\"></a>","id":"a7hu6yv8xdxg"},"type":"Feature","geometry":{"type":"Point","coordinates":[-7.9247872,37.0232111]}},{"properties":{"name":"Kest","description":"Posted by <a title=\"http://www.alandfaraway.org\" href=\"http://www.alandfaraway.org\">Alandfaraway</a>FLINT<a title=\"Built for Community Mapping\" href=\"http://www.platial.com\"><img src=\"http://media.geocommons.com/platial/images/logotype_small.jpg\"></a>","id":"a7hu6z1cbect"},"type":"Feature","geometry":{"type":"Point","coordinates":[-83.6875,43.0125]}},{"properties":{"name":"Lasu","description":"Posted by <a title=\"http://www.alandfaraway.org\" href=\"http://www.alandfaraway.org\">Alandfaraway</a><img src=\"http://media.geocommons.com/platial/img/2009/04/4/lasu_on_top_of_bigbend.jpg\">Houston, TX 77004I <a title=\"Built for Community Mapping\" href=\"http://www.platial.com\"><img src=\"http://media.geocommons.com/platial/images/logotype_small.jpg\"></a>","id":"a7hu6z3hthl7"},"type":"Feature","geometry":{"type":"Point","coordinates":[-95.364016,29.72672]}},{"properties":{"name":"Loulabelle","description":"Posted by <a title=\"http://www.alandfaraway.org\" href=\"http://www.alandfaraway.org\">Alandfaraway</a>charlottesville, va<a title=\"Built for Community Mapping\" href=\"http://www.platial.com\"><img src=\"http://media.geocommons.com/platial/images/logotype_small.jpg\"></a>","id":"a7hu6z5pp0at"},"type":"Feature","geometry":{"type":"Point","coordinates":[-78.476944,38.029167]}},{"properties":{"name":"Marklos","description":"Posted by <a title=\"http://www.alandfaraway.org\" href=\"http://www.alandfaraway.org\">Alandfaraway</a><img src=\"http://media.geocommons.com/platial/img/2009/05/0/James_Sveldt_06_06.jpg\">Lake Elsinore, CA<a title=\"Built for Community Mapping\" href=\"http://www.platial.com\"><img src=\"http://media.geocommons.com/platial/images/logotype_small.jpg\"></a>","id":"a7hu6ytllff0"},"type":"Feature","geometry":{"type":"Point","coordinates":[-117.326389,33.668056]}},{"properties":{"name":"Mateusz IV","description":"Posted by <a title=\"http://www.alandfaraway.org\" href=\"http://www.alandfaraway.org\">Alandfaraway</a>Wolomin<a title=\"Built for Community Mapping\" href=\"http://www.platial.com\"><img src=\"http://media.geocommons.com/platial/images/logotype_small.jpg\"></a>","id":"a7hu6yxdr1qj"},"type":"Feature","geometry":{"type":"Point","coordinates":[21.2667041,52.3567487]}},{"properties":{"name":"Maxcell","description":"Posted by <a title=\"http://www.alandfaraway.org\" href=\"http://www.alandfaraway.org\">Alandfaraway</a><img src=\"http://media.geocommons.com/platial/img/2009/04/2/Photo_5.jpg\">selelrsville,PA<a title=\"Built for Community Mapping\" href=\"http://www.platial.com\"><img src=\"http://media.geocommons.com/platial/images/logotype_small.jpg\"></a>","id":"a7hu6z2v3ry0"},"type":"Feature","geometry":{"type":"Point","coordinates":[-75.306606,40.356968]}},{"properties":{"name":"Mayhem","description":"Posted by <a title=\"http://www.alandfaraway.org\" href=\"http://www.alandfaraway.org\">Alandfaraway</a>dereham<a title=\"Built for Community Mapping\" href=\"http://www.platial.com\"><img src=\"http://media.geocommons.com/platial/images/logotype_small.jpg\"></a>","id":"a7hu6yuiu0wo"},"type":"Feature","geometry":{"type":"Point","coordinates":[0.947527,52.683271]}},{"properties":{"name":"Mick","description":"Posted by <a title=\"http://www.alandfaraway.org\" href=\"http://www.alandfaraway.org\">Alandfaraway</a>fayetteville, NC<a title=\"Built for Community Mapping\" href=\"http://www.platial.com\"><img src=\"http://media.geocommons.com/platial/images/logotype_small.jpg\"></a>","id":"a7hu6z67r0xa"},"type":"Feature","geometry":{"type":"Point","coordinates":[-78.878611,35.0525]}},{"properties":{"name":"MorbidKate","description":"Posted by <a title=\"http://www.alandfaraway.org\" href=\"http://www.alandfaraway.org\">Alandfaraway</a><img src=\"http://media.geocommons.com/platial/img/2009/04/2/Kate.jpg\">Toronto<a title=\"Built for Community Mapping\" href=\"http://www.platial.com\"><img src=\"http://media.geocommons.com/platial/images/logotype_small.jpg\"></a>","id":"a7hu6yvoc5j7"},"type":"Feature","geometry":{"type":"Point","coordinates":[-79.392486,43.723057]}},{"properties":{"name":"Mulu","description":"Posted by <a title=\"http://www.alandfaraway.org\" href=\"http://www.alandfaraway.org\">Alandfaraway</a>morro bay CA<a title=\"Built for Community Mapping\" href=\"http://www.platial.com\"><img src=\"http://media.geocommons.com/platial/images/logotype_small.jpg\"></a>","id":"a7hu6ytsxr2h"},"type":"Feature","geometry":{"type":"Point","coordinates":[-120.84712,35.36696]}},{"properties":{"name":"Muse","description":"Posted by <a title=\"http://www.alandfaraway.org\" href=\"http://www.alandfaraway.org\">Alandfaraway</a>tampa<a title=\"Built for Community Mapping\" href=\"http://www.platial.com\"><img src=\"http://media.geocommons.com/platial/images/logotype_small.jpg\"></a>","id":"a7hu6yxrwq54"},"type":"Feature","geometry":{"type":"Point","coordinates":[-82.458611,27.947222]}},{"properties":{"name":"NickD","description":"Posted by <a title=\"http://www.alandfaraway.org\" href=\"http://www.alandfaraway.org\">Alandfaraway</a><img src=\"http://media.geocommons.com/platial/img/2009/04/2/EatJapan.JPG\">Auckland<a title=\"Built for Community Mapping\" href=\"http://www.platial.com\"><img src=\"http://media.geocommons.com/platial/images/logotype_small.jpg\"></a>","id":"a7hu6yzcoj73"},"type":"Feature","geometry":{"type":"Point","coordinates":[174.759994,-36.849998]}},{"properties":{"name":"Nuran","description":"Posted by <a title=\"http://www.alandfaraway.org\" href=\"http://www.alandfaraway.org\">Alandfaraway</a><img src=\"http://media.geocommons.com/platial/img/2010/02/3/bond_2_.jpg\">tucson<a title=\"Built for Community Mapping\" href=\"http://www.platial.com\"><img src=\"http://media.geocommons.com/platial/images/logotype_small.jpg\"></a>","id":"a7hu6z93gsa8"},"type":"Feature","geometry":{"type":"Point","coordinates":[-110.925833,32.221667]}},{"properties":{"name":"Pelham","description":"Posted by <a title=\"http://www.alandfaraway.org\" href=\"http://www.alandfaraway.org\">Alandfaraway</a>Colorado Springs<a title=\"Built for Community Mapping\" href=\"http://www.platial.com\"><img src=\"http://media.geocommons.com/platial/images/logotype_small.jpg\"></a>","id":"a7hu6yt3lsz0"},"type":"Feature","geometry":{"type":"Point","coordinates":[-104.820833,38.833889]}},{"properties":{"name":"Ravin","description":"Posted by <a title=\"http://www.alandfaraway.org\" href=\"http://www.alandfaraway.org\">Alandfaraway</a><img src=\"http://media.geocommons.com/platial/img/2010/02/3/J14.jpg\">39401<a title=\"Built for Community Mapping\" href=\"http://www.platial.com\"><img src=\"http://media.geocommons.com/platial/images/logotype_small.jpg\"></a>","id":"a7hu6z61hcvm"},"type":"Feature","geometry":{"type":"Point","coordinates":[-89.272298,31.241113]}},{"properties":{"name":"Regas","description":"Posted by <a title=\"http://www.alandfaraway.org\" href=\"http://www.alandfaraway.org\">Alandfaraway</a>Pittsburgh<a title=\"Built for Community Mapping\" href=\"http://www.platial.com\"><img src=\"http://media.geocommons.com/platial/images/logotype_small.jpg\"></a>","id":"a7hu6z3hf5rv"},"type":"Feature","geometry":{"type":"Point","coordinates":[-79.996111,40.440556]}},{"properties":{"name":"Relic","description":"Posted by <a title=\"http://www.alandfaraway.org\" href=\"http://www.alandfaraway.org\">Alandfaraway</a><img src=\"http://media.geocommons.com/platial/img/2009/09/4/Hoover_Dam.jpg\">las vegas<a title=\"Built for Community Mapping\" href=\"http://www.platial.com\"><img src=\"http://media.geocommons.com/platial/images/logotype_small.jpg\"></a>","id":"a7hu6z1y3kyt"},"type":"Feature","geometry":{"type":"Point","coordinates":[-115.136389,36.175]}},{"properties":{"name":"Riotnrrd","description":"Posted by <a title=\"http://www.alandfaraway.org\" href=\"http://www.alandfaraway.org\">Alandfaraway</a>knoxville<a title=\"Built for Community Mapping\" href=\"http://www.platial.com\"><img src=\"http://media.geocommons.com/platial/images/logotype_small.jpg\"></a>","id":"a7hu6yw65838"},"type":"Feature","geometry":{"type":"Point","coordinates":[-83.920833,35.960556]}},{"properties":{"name":"Robert Meza","description":"Posted by <a title=\"http://www.alandfaraway.org\" href=\"http://www.alandfaraway.org\">Alandfaraway</a>Torrance<a title=\"Built for Community Mapping\" href=\"http://www.platial.com\"><img src=\"http://media.geocommons.com/platial/images/logotype_small.jpg\"></a>","id":"a7hu6z6g8jk0"},"type":"Feature","geometry":{"type":"Point","coordinates":[-118.339722,33.835833]}},{"properties":{"name":"Roekemoes","description":"Posted by <a title=\"http://www.alandfaraway.org\" href=\"http://www.alandfaraway.org\">Alandfaraway</a><img src=\"http://media.geocommons.com/platial/img/2009/05/0/8.jpg\">maassluisHi!<a title=\"Built for Community Mapping\" href=\"http://www.platial.com\"><img src=\"http://media.geocommons.com/platial/images/logotype_small.jpg\"></a>","id":"a7hu6z63hpnw"},"type":"Feature","geometry":{"type":"Point","coordinates":[4.254703,51.920197]}},{"properties":{"name":"Rotku","description":"Posted by <a title=\"http://www.alandfaraway.org\" href=\"http://www.alandfaraway.org\">Alandfaraway</a>Paraparaumu, New Zealand<a title=\"Built for Community Mapping\" href=\"http://www.platial.com\"><img src=\"http://media.geocommons.com/platial/images/logotype_small.jpg\"></a>","id":"a7hu6z7go01j"},"type":"Feature","geometry":{"type":"Point","coordinates":[175.008934,-40.913567]}},{"properties":{"name":"Srecko Mikulic","description":"Posted by <a title=\"http://www.alandfaraway.org\" href=\"http://www.alandfaraway.org\">Alandfaraway</a>Sovici<a title=\"Built for Community Mapping\" href=\"http://www.platial.com\"><img src=\"http://media.geocommons.com/platial/images/logotype_small.jpg\"></a>","id":"a7hu6z49l1kw"},"type":"Feature","geometry":{"type":"Point","coordinates":[17.29785,43.415661]}},{"properties":{"name":"Stormbringer","description":"Posted by <a title=\"http://www.alandfaraway.org\" href=\"http://www.alandfaraway.org\">Alandfaraway</a>Mammoth Spring ArkansasWhat\\'s Up ALFA. Hopefully DSL Soon and maybe the old Longroad crew might be up to some RP\\'in<a title=\"Built for Community Mapping\" href=\"http://www.platial.com\"><img src=\"http://media.geocommons.com/platial/images/logotype_small.jpg\"></a>","id":"a7hu6yts7vbp"},"type":"Feature","geometry":{"type":"Point","coordinates":[-91.549123,36.49472]}},{"properties":{"name":"Stormsong","description":"Posted by <a title=\"http://www.alandfaraway.org\" href=\"http://www.alandfaraway.org\">Alandfaraway</a>Utah<a title=\"Built for Community Mapping\" href=\"http://www.platial.com\"><img src=\"http://media.geocommons.com/platial/images/logotype_small.jpg\"></a>","id":"a7hu6yxgjds5"},"type":"Feature","geometry":{"type":"Point","coordinates":[-111.544441,39.499638]}},{"properties":{"name":"Swift","description":"Posted by <a title=\"http://www.alandfaraway.org\" href=\"http://www.alandfaraway.org\">Alandfaraway</a>adelaideTo the left is insanity, to the right is crazy, stuck in the middle!<a title=\"Built for Community Mapping\" href=\"http://www.platial.com\"><img src=\"http://media.geocommons.com/platial/images/logotype_small.jpg\"></a>","id":"a7hu6z0a3fsn"},"type":"Feature","geometry":{"type":"Point","coordinates":[138.600006,-34.93]}},{"properties":{"name":"Thangorn","description":"Posted by <a title=\"http://www.alandfaraway.org\" href=\"http://www.alandfaraway.org\">Alandfaraway</a><img src=\"http://media.geocommons.com/platial/img/2009/05/0/luxmore_cave01.JPG\">queenstown<a title=\"Built for Community Mapping\" href=\"http://www.platial.com\"><img src=\"http://media.geocommons.com/platial/images/logotype_small.jpg\"></a>","id":"a7hu6z6wogun"},"type":"Feature","geometry":{"type":"Point","coordinates":[168.662731,-45.031104]}},{"properties":{"name":"Uniskorne","description":"Posted by <a title=\"http://www.alandfaraway.org\" href=\"http://www.alandfaraway.org\">Alandfaraway</a><img src=\"http://media.geocommons.com/platial/img/2010/02/3/kayaRhapscallion_2_.jpg\">39401<a title=\"Built for Community Mapping\" href=\"http://www.platial.com\"><img src=\"http://media.geocommons.com/platial/images/logotype_small.jpg\"></a>","id":"a7hu6z4r1ev8"},"type":"Feature","geometry":{"type":"Point","coordinates":[-89.272298,31.241113]}},{"properties":{"name":"Uniskorne","description":"Posted by <a title=\"http://www.alandfaraway.org\" href=\"http://www.alandfaraway.org\">Alandfaraway</a><img src=\"http://media.geocommons.com/platial/img/2010/02/3/kayaRhapscallion.jpg\">39401<a title=\"Built for Community Mapping\" href=\"http://www.platial.com\"><img src=\"http://media.geocommons.com/platial/images/logotype_small.jpg\"></a>","id":"a7hu6z1m5d4b"},"type":"Feature","geometry":{"type":"Point","coordinates":[-89.272298,31.241113]}},{"properties":{"name":"Uniskorne","description":"Posted by <a title=\"http://www.alandfaraway.org\" href=\"http://www.alandfaraway.org\">Alandfaraway</a><img src=\"http://media.geocommons.com/platial/img/2010/02/3/kaya5.jpg\">39401<a title=\"Built for Community Mapping\" href=\"http://www.platial.com\"><img src=\"http://media.geocommons.com/platial/images/logotype_small.jpg\"></a>","id":"a7hu6z1y45h4"},"type":"Feature","geometry":{"type":"Point","coordinates":[-89.272298,31.241113]}},{"properties":{"name":"Veilan","description":"Posted by <a title=\"http://www.alandfaraway.org\" href=\"http://www.alandfaraway.org\">Alandfaraway</a>berlin<a title=\"Built for Community Mapping\" href=\"http://www.platial.com\"><img src=\"http://media.geocommons.com/platial/images/logotype_small.jpg\"></a>","id":"a7hu6z4utsh6"},"type":"Feature","geometry":{"type":"Point","coordinates":[13.411895,52.523781]}},{"properties":{"name":"Wolfed","description":"Posted by <a title=\"http://www.alandfaraway.org\" href=\"http://www.alandfaraway.org\">Alandfaraway</a>sweden<a title=\"Built for Community Mapping\" href=\"http://www.platial.com\"><img src=\"http://media.geocommons.com/platial/images/logotype_small.jpg\"></a>","id":"a7hu6z5ji48v"},"type":"Feature","geometry":{"type":"Point","coordinates":[17.637777,62.199734]}},{"properties":{"name":"Wynna","description":"Posted by <a title=\"http://www.alandfaraway.org\" href=\"http://www.alandfaraway.org\">Alandfaraway</a>seattle<a title=\"Built for Community Mapping\" href=\"http://www.platial.com\"><img src=\"http://media.geocommons.com/platial/images/logotype_small.jpg\"></a>","id":"a7hu6yx1e4py"},"type":"Feature","geometry":{"type":"Point","coordinates":[-122.330833,47.606389]}},{"properties":{"name":"danielmn","description":"Posted by <a title=\"http://www.alandfaraway.org\" href=\"http://www.alandfaraway.org\">Alandfaraway</a>28127<a title=\"Built for Community Mapping\" href=\"http://www.platial.com\"><img src=\"http://media.geocommons.com/platial/images/logotype_small.jpg\"></a>","id":"a7hu6yy7suq6"},"type":"Feature","geometry":{"type":"Point","coordinates":[-80.1205256,35.4444149]}},{"properties":{"name":"darrenhfx","description":"Posted by <a title=\"http://www.alandfaraway.org\" href=\"http://www.alandfaraway.org\">Alandfaraway</a>halifax<a title=\"Built for Community Mapping\" href=\"http://www.platial.com\"><img src=\"http://media.geocommons.com/platial/images/logotype_small.jpg\"></a>","id":"a7hu6ywhboww"},"type":"Feature","geometry":{"type":"Point","coordinates":[-63.6,44.65]}},{"properties":{"name":"dergon darkhelm","description":"Posted by <a title=\"http://www.alandfaraway.org\" href=\"http://www.alandfaraway.org\">Alandfaraway</a>cleveland<a title=\"Built for Community Mapping\" href=\"http://www.platial.com\"><img src=\"http://media.geocommons.com/platial/images/logotype_small.jpg\"></a>","id":"a7hu6z42l56n"},"type":"Feature","geometry":{"type":"Point","coordinates":[-81.695556,41.499444]}},{"properties":{"name":"fluffmonster","description":"Posted by <a title=\"http://www.alandfaraway.org\" href=\"http://www.alandfaraway.org\">Alandfaraway</a>janesville wimmmm...cheese<a title=\"Built for Community Mapping\" href=\"http://www.platial.com\"><img src=\"http://media.geocommons.com/platial/images/logotype_small.jpg\"></a>","id":"a7hu6ywvl00y"},"type":"Feature","geometry":{"type":"Point","coordinates":[-89.08168,42.70109]}},{"properties":{"name":"hollyfant","description":"Posted by <a title=\"http://www.alandfaraway.org\" href=\"http://www.alandfaraway.org\">Alandfaraway</a>Krommenie<a title=\"Built for Community Mapping\" href=\"http://www.platial.com\"><img src=\"http://media.geocommons.com/platial/images/logotype_small.jpg\"></a>","id":"a7hu6z81fgoz"},"type":"Feature","geometry":{"type":"Point","coordinates":[4.7511534,52.5214223]}},{"properties":{"name":"peterdin","description":"Posted by <a title=\"http://www.alandfaraway.org\" href=\"http://www.alandfaraway.org\">Alandfaraway</a>kaatsheuvel<a title=\"Built for Community Mapping\" href=\"http://www.platial.com\"><img src=\"http://media.geocommons.com/platial/images/logotype_small.jpg\"></a>","id":"a7hu6yz1oj2l"},"type":"Feature","geometry":{"type":"Point","coordinates":[5.0333036,51.6597748]}},{"properties":{"name":"peterdin","description":"Posted by <a title=\"http://www.alandfaraway.org\" href=\"http://www.alandfaraway.org\">Alandfaraway</a>kaatsheuvel<a title=\"Built for Community Mapping\" href=\"http://www.platial.com\"><img src=\"http://media.geocommons.com/platial/images/logotype_small.jpg\"></a>","id":"a7hu6z7ptnlg"},"type":"Feature","geometry":{"type":"Point","coordinates":[5.0333036,51.6597748]}},{"properties":{"name":"spiderjones","description":"Posted by <a title=\"http://www.alandfaraway.org\" href=\"http://www.alandfaraway.org\">Alandfaraway</a><img src=\"http://media.geocommons.com/platial/img/2009/04/3/IMG_0612.JPG\">royal oak, MI<a title=\"Built for Community Mapping\" href=\"http://www.platial.com\"><img src=\"http://media.geocommons.com/platial/images/logotype_small.jpg\"></a>","id":"a7hu6z4aszqz"},"type":"Feature","geometry":{"type":"Point","coordinates":[-83.144722,42.489444]}},{"properties":{"name":"wvincenti","description":"Posted by <a title=\"http://www.alandfaraway.org\" href=\"http://www.alandfaraway.org\">Alandfaraway</a>07109<a title=\"Built for Community Mapping\" href=\"http://www.platial.com\"><img src=\"http://media.geocommons.com/platial/images/logotype_small.jpg\"></a>","id":"a7hu6z5q9rsv"},"type":"Feature","geometry":{"type":"Point","coordinates":[-74.162355,40.792061]}}],"is_temporal":false,"author":{"url":"http://www.platial.com/map/648134","metadata":null,"contact_name":"alandfaraway","contact_address":null,"source":"platial:alandfaraway","contact_phone":null},"source":"http://www.platial.com/map/648134","pagination":{"sort":null,"start":0,"total":78,"limit":1000000},"state":"complete","tags":"platial,platial:id=648134,platial:user=alandfaraway","published":"2010-03-03T17:00:00Z","id":28582}