{"type":"FeatureCollection","data_type":"Dataset","url_type":null,"permissions":[{"permissions":{"download":true,"view":true},"group_id":"everyone"}],"classification":null,"title":"\nangel5963's places\n","count":61,"stream_id":28734,"contributor":{"url":"http://geocommons.com/users/11444","name":"platial"},"data_attributes":null,"calculation_params":null,"icon_link":null,"link":"http://geocommons.com/overlays/28734.json","extent":[-123.062,26.5503,-72.0385,48.0258],"geometry_types":["point"],"unique_name":null,"name":"\nangel5963's places\n","feature_count":61,"description":"\nA Map by Angel5963\n\n\n","next_feature":null,"is_raster":false,"short_classification":"Y","stats":{},"features":[{"properties":{"name":"BEAD","description":"Posted by Angel5963Los Angeles, CA, 90023<a title=\"Built for Community Mapping\" href=\"http://www.platial.com\"><img src=\"http://media.geocommons.com/platial/images/logotype_small.jpg\"></a>","id":"a6h8ob2evj6m"},"type":"Feature","geometry":{"type":"Point","coordinates":[-118.200211,34.017238]}},{"properties":{"name":"BEFR","description":"Posted by Angel5963Sequim, WA, 98382<a title=\"Built for Community Mapping\" href=\"http://www.platial.com\"><img src=\"http://media.geocommons.com/platial/images/logotype_small.jpg\"></a>","id":"a6h8obb2ahdx"},"type":"Feature","geometry":{"type":"Point","coordinates":[-123.061784,48.025761]}},{"properties":{"name":"BESA","description":"Posted by Angel5963Stamford, CT, 06905<a title=\"Built for Community Mapping\" href=\"http://www.platial.com\"><img src=\"http://media.geocommons.com/platial/images/logotype_small.jpg\"></a>","id":"a6h8ob3gjy0q"},"type":"Feature","geometry":{"type":"Point","coordinates":[-73.54302,41.086037]}},{"properties":{"name":"BIKE","description":"Posted by Angel5963Glendale, AZ, 85308<a title=\"Built for Community Mapping\" href=\"http://www.platial.com\"><img src=\"http://media.geocommons.com/platial/images/logotype_small.jpg\"></a>","id":"a6h8obc3bwz0"},"type":"Feature","geometry":{"type":"Point","coordinates":[-112.186201,33.668148]}},{"properties":{"name":"BISP","description":"Posted by Angel5963Oak Park, CA, 91377<a title=\"Built for Community Mapping\" href=\"http://www.platial.com\"><img src=\"http://media.geocommons.com/platial/images/logotype_small.jpg\"></a>","id":"a6h8obh4vsr4"},"type":"Feature","geometry":{"type":"Point","coordinates":[-118.764801,34.18816]}},{"properties":{"name":"BODE","description":"Posted by Angel5963Lakewood Ranch, FL, 34202<a title=\"Built for Community Mapping\" href=\"http://www.platial.com\"><img src=\"http://media.geocommons.com/platial/images/logotype_small.jpg\"></a>","id":"a6h8obal54af"},"type":"Feature","geometry":{"type":"Point","coordinates":[-82.428714,27.408838]}},{"properties":{"name":"COKI","description":"Posted by Angel5963Atlanta, GA, 30349<a title=\"Built for Community Mapping\" href=\"http://www.platial.com\"><img src=\"http://media.geocommons.com/platial/images/logotype_small.jpg\"></a>","id":"a6h8obd1d9kf"},"type":"Feature","geometry":{"type":"Point","coordinates":[-84.521194,33.62189]}},{"properties":{"name":"DACR","description":"Posted by Angel5963Naperville, IL, 60540<a title=\"Built for Community Mapping\" href=\"http://www.platial.com\"><img src=\"http://media.geocommons.com/platial/images/logotype_small.jpg\"></a>","id":"a6h8obh6sdpn"},"type":"Feature","geometry":{"type":"Point","coordinates":[-88.135081,41.768946]}},{"properties":{"name":"DAGU","description":"Posted by Angel5963Charlotte, NC, 28226<a title=\"Built for Community Mapping\" href=\"http://www.platial.com\"><img src=\"http://media.geocommons.com/platial/images/logotype_small.jpg\"></a>","id":"a6h8ob9vi1hd"},"type":"Feature","geometry":{"type":"Point","coordinates":[-80.829246,35.106787]}},{"properties":{"name":"DAJO","description":"Posted by Angel5963Gainesville, FL, 32606<a title=\"Built for Community Mapping\" href=\"http://www.platial.com\"><img src=\"http://media.geocommons.com/platial/images/logotype_small.jpg\"></a>","id":"a6h8ob6xjy08"},"type":"Feature","geometry":{"type":"Point","coordinates":[-82.442382,29.684186]}},{"properties":{"name":"DECO","description":"Posted by Angel5963Sugar Land, TX, 77479<a title=\"Built for Community Mapping\" href=\"http://www.platial.com\"><img src=\"http://media.geocommons.com/platial/images/logotype_small.jpg\"></a>","id":"a6h8ob59jyd0"},"type":"Feature","geometry":{"type":"Point","coordinates":[-95.633612,29.557763]}},{"properties":{"name":"DERI","description":"Posted by Angel5963Los Angeles, CA, 90043<a title=\"Built for Community Mapping\" href=\"http://www.platial.com\"><img src=\"http://media.geocommons.com/platial/images/logotype_small.jpg\"></a>","id":"a6h8ob7s3lmi"},"type":"Feature","geometry":{"type":"Point","coordinates":[-118.337998,33.985471]}},{"properties":{"name":"DEST","description":"Posted by Angel5963Fairburn, GA, 30213<a title=\"Built for Community Mapping\" href=\"http://www.platial.com\"><img src=\"http://media.geocommons.com/platial/images/logotype_small.jpg\"></a>","id":"a6h8obi5prmd"},"type":"Feature","geometry":{"type":"Point","coordinates":[-84.601902,33.578556]}},{"properties":{"name":"DIBA","description":"Posted by Angel5963Reddick, FL, 32686<a title=\"Built for Community Mapping\" href=\"http://www.platial.com\"><img src=\"http://media.geocommons.com/platial/images/logotype_small.jpg\"></a>","id":"a6h8ob293zwt"},"type":"Feature","geometry":{"type":"Point","coordinates":[-82.280406,29.370038]}},{"properties":{"name":"EASTON","description":"Posted by Angel5963easton, md<a title=\"Built for Community Mapping\" href=\"http://www.platial.com\"><img src=\"http://media.geocommons.com/platial/images/logotype_small.jpg\"></a>","id":"a6h8ob9q7hm7"},"type":"Feature","geometry":{"type":"Point","coordinates":[-76.06525,38.77623]}},{"properties":{"name":"EDMA","description":"Posted by Angel5963Aston, PA, 19014<a title=\"Built for Community Mapping\" href=\"http://www.platial.com\"><img src=\"http://media.geocommons.com/platial/images/logotype_small.jpg\"></a>","id":"a6h8ob9np3y8"},"type":"Feature","geometry":{"type":"Point","coordinates":[-75.430647,39.872595]}},{"properties":{"name":"EDRU","description":"Posted by Angel5963McDonough, GA, 30253<a title=\"Built for Community Mapping\" href=\"http://www.platial.com\"><img src=\"http://media.geocommons.com/platial/images/logotype_small.jpg\"></a>","id":"a6h8ob5mf9u3"},"type":"Feature","geometry":{"type":"Point","coordinates":[-84.189315,33.444039]}},{"properties":{"name":"ELRO","description":"Posted by Angel5963Lakeland, FL, 33813<a title=\"Built for Community Mapping\" href=\"http://www.platial.com\"><img src=\"http://media.geocommons.com/platial/images/logotype_small.jpg\"></a>","id":"a6h8oba7xdup"},"type":"Feature","geometry":{"type":"Point","coordinates":[-81.920921,27.945962]}},{"properties":{"name":"ERLE","description":"Posted by Angel5963Daytona Beach, FL, 32114<a title=\"Built for Community Mapping\" href=\"http://www.platial.com\"><img src=\"http://media.geocommons.com/platial/images/logotype_small.jpg\"></a>","id":"a6h8ob8anmu4"},"type":"Feature","geometry":{"type":"Point","coordinates":[-81.053292,29.192952]}},{"properties":{"name":"GAZI","description":"Posted by Angel5963South Jordan, UT, 84095<a title=\"Built for Community Mapping\" href=\"http://www.platial.com\"><img src=\"http://media.geocommons.com/platial/images/logotype_small.jpg\"></a>","id":"a6h8ob41ksfl"},"type":"Feature","geometry":{"type":"Point","coordinates":[-111.982416,40.55938]}},{"properties":{"name":"GRWI","description":"Posted by Angel5963Huntington Beach, CA, 92646<a title=\"Built for Community Mapping\" href=\"http://www.platial.com\"><img src=\"http://media.geocommons.com/platial/images/logotype_small.jpg\"></a>","id":"a6h8obiawyn7"},"type":"Feature","geometry":{"type":"Point","coordinates":[-117.964196,33.664935]}},{"properties":{"name":"JACA","description":"Posted by Angel5963Chicago, IL, 60605<a title=\"Built for Community Mapping\" href=\"http://www.platial.com\"><img src=\"http://media.geocommons.com/platial/images/logotype_small.jpg\"></a>","id":"a6h8ob24ul4s"},"type":"Feature","geometry":{"type":"Point","coordinates":[-87.619992,41.864665]}},{"properties":{"name":"JANI","description":"Posted by Angel5963Tucson, AZ, 85750<a title=\"Built for Community Mapping\" href=\"http://www.platial.com\"><img src=\"http://media.geocommons.com/platial/images/logotype_small.jpg\"></a>","id":"a6h8obd4kwdu"},"type":"Feature","geometry":{"type":"Point","coordinates":[-110.925833,32.221667]}},{"properties":{"name":"JAPH","description":"Posted by Angel5963Lipan, TX, 76462<a title=\"Built for Community Mapping\" href=\"http://www.platial.com\"><img src=\"http://media.geocommons.com/platial/images/logotype_small.jpg\"></a>","id":"a6h8obepfdmx"},"type":"Feature","geometry":{"type":"Point","coordinates":[-98.016634,32.527871]}},{"properties":{"name":"JEKE","description":"Posted by Angel5963Williamsburg, VA, 23185<a title=\"Built for Community Mapping\" href=\"http://www.platial.com\"><img src=\"http://media.geocommons.com/platial/images/logotype_small.jpg\"></a>","id":"a6h8ob50imyw"},"type":"Feature","geometry":{"type":"Point","coordinates":[-76.736472,37.233951]}},{"properties":{"name":"JICL","description":"Posted by Angel5963Aurora, CO, 80016<a title=\"Built for Community Mapping\" href=\"http://www.platial.com\"><img src=\"http://media.geocommons.com/platial/images/logotype_small.jpg\"></a>","id":"a6h8oba7krzy"},"type":"Feature","geometry":{"type":"Point","coordinates":[-104.713858,39.602188]}},{"properties":{"name":"JOCR","description":"Posted by Angel5963Newtown Square, PA, 19073<a title=\"Built for Community Mapping\" href=\"http://www.platial.com\"><img src=\"http://media.geocommons.com/platial/images/logotype_small.jpg\"></a>","id":"a6h8obbgc1jv"},"type":"Feature","geometry":{"type":"Point","coordinates":[-75.400702,39.98686]}},{"properties":{"name":"JODE","description":"Posted by Angel5963North Canton, OH, 44709<a title=\"Built for Community Mapping\" href=\"http://www.platial.com\"><img src=\"http://media.geocommons.com/platial/images/logotype_small.jpg\"></a>","id":"a6h8obc9ngrj"},"type":"Feature","geometry":{"type":"Point","coordinates":[-81.393705,40.838661]}},{"properties":{"name":"JOFO","description":"Posted by Angel5963Smyrna, GA, 30082<a title=\"Built for Community Mapping\" href=\"http://www.platial.com\"><img src=\"http://media.geocommons.com/platial/images/logotype_small.jpg\"></a>","id":"a6h8ob69zj95"},"type":"Feature","geometry":{"type":"Point","coordinates":[-84.529486,33.856346]}},{"properties":{"name":"KEFE","description":"Posted by Angel5963Birmingham, AL, 35216<a title=\"Built for Community Mapping\" href=\"http://www.platial.com\"><img src=\"http://media.geocommons.com/platial/images/logotype_small.jpg\"></a>","id":"a6h8ob9nnb50"},"type":"Feature","geometry":{"type":"Point","coordinates":[-86.783272,33.42109]}},{"properties":{"name":"KEMA","description":"Posted by Angel5963Ft. Myers, FL, 33912<a title=\"Built for Community Mapping\" href=\"http://www.platial.com\"><img src=\"http://media.geocommons.com/platial/images/logotype_small.jpg\"></a>","id":"a6h8obib66uj"},"type":"Feature","geometry":{"type":"Point","coordinates":[-81.832578,26.550302]}},{"properties":{"name":"KEMA","description":"Posted by Angel5963Afton, MN, 55001<a title=\"Built for Community Mapping\" href=\"http://www.platial.com\"><img src=\"http://media.geocommons.com/platial/images/logotype_small.jpg\"></a>","id":"a6h8obd9w99b"},"type":"Feature","geometry":{"type":"Point","coordinates":[-92.813053,44.910563]}},{"properties":{"name":"LERI","description":"Posted by Angel5963Suffolk, VA, 23435<a title=\"Built for Community Mapping\" href=\"http://www.platial.com\"><img src=\"http://media.geocommons.com/platial/images/logotype_small.jpg\"></a>","id":"a6h8ob42zyg9"},"type":"Feature","geometry":{"type":"Point","coordinates":[-76.478912,36.84702]}},{"properties":{"name":"LEWO","description":"Posted by Angel5963Mission Viejo, CA, 92694<a title=\"Built for Community Mapping\" href=\"http://www.platial.com\"><img src=\"http://media.geocommons.com/platial/images/logotype_small.jpg\"></a>","id":"a6h8obgyxcr2"},"type":"Feature","geometry":{"type":"Point","coordinates":[-117.644065,33.555519]}},{"properties":{"name":"LUGR","description":"Posted by Angel5963Palm Coast, FL, 32137<a title=\"Built for Community Mapping\" href=\"http://www.platial.com\"><img src=\"http://media.geocommons.com/platial/images/logotype_small.jpg\"></a>","id":"a6h8ob208d0j"},"type":"Feature","geometry":{"type":"Point","coordinates":[-81.315047,29.572466]}},{"properties":{"name":"MAAY","description":"Posted by Angel5963Glendale, AZ, 85310<a title=\"Built for Community Mapping\" href=\"http://www.platial.com\"><img src=\"http://media.geocommons.com/platial/images/logotype_small.jpg\"></a>","id":"a6h8obfnv5nd"},"type":"Feature","geometry":{"type":"Point","coordinates":[-112.177755,33.704467]}},{"properties":{"name":"MABO","description":"Posted by Angel5963Groton, CT, 06340<a title=\"Built for Community Mapping\" href=\"http://www.platial.com\"><img src=\"http://media.geocommons.com/platial/images/logotype_small.jpg\"></a>","id":"a6h8obdl1655"},"type":"Feature","geometry":{"type":"Point","coordinates":[-72.038482,41.358008]}},{"properties":{"name":"MADA","description":"Posted by Angel5963Chicago, IL, 60616<a title=\"Built for Community Mapping\" href=\"http://www.platial.com\"><img src=\"http://media.geocommons.com/platial/images/logotype_small.jpg\"></a>","id":"a6h8obahrse0"},"type":"Feature","geometry":{"type":"Point","coordinates":[-87.630552,41.84258]}},{"properties":{"name":"MAWU","description":"Posted by Angel5963West Chester, PA, 19382<a title=\"Built for Community Mapping\" href=\"http://www.platial.com\"><img src=\"http://media.geocommons.com/platial/images/logotype_small.jpg\"></a>","id":"a6h8obbuqwza"},"type":"Feature","geometry":{"type":"Point","coordinates":[-75.615631,39.923246]}},{"properties":{"name":"MICA","description":"Posted by Angel5963Drexel Hill, PA, 19026<a title=\"Built for Community Mapping\" href=\"http://www.platial.com\"><img src=\"http://media.geocommons.com/platial/images/logotype_small.jpg\"></a>","id":"a6h8obhq9svw"},"type":"Feature","geometry":{"type":"Point","coordinates":[-75.306221,39.948518]}},{"properties":{"name":"MISM","description":"Posted by Angel5963Memphis, TN, 38119<a title=\"Built for Community Mapping\" href=\"http://www.platial.com\"><img src=\"http://media.geocommons.com/platial/images/logotype_small.jpg\"></a>","id":"a6h8obfia57r"},"type":"Feature","geometry":{"type":"Point","coordinates":[-89.84457,35.078737]}},{"properties":{"name":"MOMc","description":"Posted by Angel5963Asheville, NC, 28806<a title=\"Built for Community Mapping\" href=\"http://www.platial.com\"><img src=\"http://media.geocommons.com/platial/images/logotype_small.jpg\"></a>","id":"a6h8obcu2lr7"},"type":"Feature","geometry":{"type":"Point","coordinates":[-82.621572,35.571619]}},{"properties":{"name":"OLPO","description":"Posted by Angel5963Newport News, VA, 23602<a title=\"Built for Community Mapping\" href=\"http://www.platial.com\"><img src=\"http://media.geocommons.com/platial/images/logotype_small.jpg\"></a>","id":"a6h8obfre02r"},"type":"Feature","geometry":{"type":"Point","coordinates":[-76.514428,37.114094]}},{"properties":{"name":"PAFR","description":"Posted by Angel5963Eagan, MN, 55122<a title=\"Built for Community Mapping\" href=\"http://www.platial.com\"><img src=\"http://media.geocommons.com/platial/images/logotype_small.jpg\"></a>","id":"a6h8ob83yihq"},"type":"Feature","geometry":{"type":"Point","coordinates":[-93.197744,44.8028]}},{"properties":{"name":"PHRO","description":"Posted by Angel5963Opelika, AL, 36801<a title=\"Built for Community Mapping\" href=\"http://www.platial.com\"><img src=\"http://media.geocommons.com/platial/images/logotype_small.jpg\"></a>","id":"a6h8ob3odsqq"},"type":"Feature","geometry":{"type":"Point","coordinates":[-85.403409,32.683322]}},{"properties":{"name":"ROGA","description":"Posted by Angel5963Gilbert, AZ, 85234<a title=\"Built for Community Mapping\" href=\"http://www.platial.com\"><img src=\"http://media.geocommons.com/platial/images/logotype_small.jpg\"></a>","id":"a6h8ob3swhdo"},"type":"Feature","geometry":{"type":"Point","coordinates":[-111.747279,33.364631]}},{"properties":{"name":"ROMO","description":"Posted by Angel5963Las Vegas, NV, 89145<a title=\"Built for Community Mapping\" href=\"http://www.platial.com\"><img src=\"http://media.geocommons.com/platial/images/logotype_small.jpg\"></a>","id":"a6h8ob9roixi"},"type":"Feature","geometry":{"type":"Point","coordinates":[-115.283822,36.170189]}},{"properties":{"name":"ROOL","description":"Posted by Angel5963Lake Villa, IL, 60046<a title=\"Built for Community Mapping\" href=\"http://www.platial.com\"><img src=\"http://media.geocommons.com/platial/images/logotype_small.jpg\"></a>","id":"a6h8ob72vcdx"},"type":"Feature","geometry":{"type":"Point","coordinates":[-88.063129,42.404356]}},{"properties":{"name":"RORO","description":"Posted by Angel5963Richmond, VA, 23234<a title=\"Built for Community Mapping\" href=\"http://www.platial.com\"><img src=\"http://media.geocommons.com/platial/images/logotype_small.jpg\"></a>","id":"a6h8obbu6ifh"},"type":"Feature","geometry":{"type":"Point","coordinates":[-77.469799,37.458422]}},{"properties":{"name":"SCFO","description":"Posted by Angel5963Woodbine, MD, 21797<a title=\"Built for Community Mapping\" href=\"http://www.platial.com\"><img src=\"http://media.geocommons.com/platial/images/logotype_small.jpg\"></a>","id":"a6h8ob8vjobj"},"type":"Feature","geometry":{"type":"Point","coordinates":[-77.062057,39.36094]}},{"properties":{"name":"SCWA","description":"Posted by Angel5963Gainesville, FL, 32607<a title=\"Built for Community Mapping\" href=\"http://www.platial.com\"><img src=\"http://media.geocommons.com/platial/images/logotype_small.jpg\"></a>","id":"a6h8obf61u23"},"type":"Feature","geometry":{"type":"Point","coordinates":[-82.414321,29.638255]}},{"properties":{"name":"SECO","description":"Posted by Angel5963Windermere, FL, 34786<a title=\"Built for Community Mapping\" href=\"http://www.platial.com\"><img src=\"http://media.geocommons.com/platial/images/logotype_small.jpg\"></a>","id":"a6h8ob4j4byo"},"type":"Feature","geometry":{"type":"Point","coordinates":[-81.535411,28.50061]}},{"properties":{"name":"SEWR","description":"Posted by Angel5963Dacula, GA, 30019<a title=\"Built for Community Mapping\" href=\"http://www.platial.com\"><img src=\"http://media.geocommons.com/platial/images/logotype_small.jpg\"></a>","id":"a6h8ob2p5cqs"},"type":"Feature","geometry":{"type":"Point","coordinates":[-83.876208,33.978689]}},{"properties":{"name":"STJA","description":"Posted by Angel5963Lafayette Hill, PA, 19444<a title=\"Built for Community Mapping\" href=\"http://www.platial.com\"><img src=\"http://media.geocommons.com/platial/images/logotype_small.jpg\"></a>","id":"a6h8obclkf72"},"type":"Feature","geometry":{"type":"Point","coordinates":[-75.252957,40.093999]}},{"properties":{"name":"TIDO","description":"Posted by Angel5963Lakewood Ranch, FL, 34202<a title=\"Built for Community Mapping\" href=\"http://www.platial.com\"><img src=\"http://media.geocommons.com/platial/images/logotype_small.jpg\"></a>","id":"a6h8ob842b4o"},"type":"Feature","geometry":{"type":"Point","coordinates":[-82.428714,27.408838]}},{"properties":{"name":"TJNU","description":"Posted by Angel5963Chandler, AZ, 85226<a title=\"Built for Community Mapping\" href=\"http://www.platial.com\"><img src=\"http://media.geocommons.com/platial/images/logotype_small.jpg\"></a>","id":"a6h8ob2y3tyf"},"type":"Feature","geometry":{"type":"Point","coordinates":[-111.943009,33.266332]}},{"properties":{"name":"TOBR","description":"Posted by Angel5963Atlanta, GA, 30324<a title=\"Built for Community Mapping\" href=\"http://www.platial.com\"><img src=\"http://media.geocommons.com/platial/images/logotype_small.jpg\"></a>","id":"a6h8obcwqs8c"},"type":"Feature","geometry":{"type":"Point","coordinates":[-84.360213,33.819792]}},{"properties":{"name":"TOBR","description":"Posted by Angel5963Smithfield, VA, 23430<a title=\"Built for Community Mapping\" href=\"http://www.platial.com\"><img src=\"http://media.geocommons.com/platial/images/logotype_small.jpg\"></a>","id":"a6h8ob3xw07d"},"type":"Feature","geometry":{"type":"Point","coordinates":[-76.664417,37.012139]}},{"properties":{"name":"TOWA","description":"Posted by Angel5963Atlanta, GA, 30349<a title=\"Built for Community Mapping\" href=\"http://www.platial.com\"><img src=\"http://media.geocommons.com/platial/images/logotype_small.jpg\"></a>","id":"a6h8ob2q2a8x"},"type":"Feature","geometry":{"type":"Point","coordinates":[-84.521194,33.62189]}},{"properties":{"name":"VIPA","description":"Posted by Angel5963Los Angeles, CA, 90019<a title=\"Built for Community Mapping\" href=\"http://www.platial.com\"><img src=\"http://media.geocommons.com/platial/images/logotype_small.jpg\"></a>","id":"a6h8ob2zoldv"},"type":"Feature","geometry":{"type":"Point","coordinates":[-118.339502,34.048544]}},{"properties":{"name":"ZAZA","description":"Posted by Angel5963Forest Hills, NY, 11375<a title=\"Built for Community Mapping\" href=\"http://www.platial.com\"><img src=\"http://media.geocommons.com/platial/images/logotype_small.jpg\"></a>","id":"a6h8obdofwvw"},"type":"Feature","geometry":{"type":"Point","coordinates":[-73.847306,40.722854]}}],"is_temporal":false,"author":{"url":"http://www.platial.com/map/290728","metadata":null,"contact_name":"angel5963","contact_address":null,"source":"platial:angel5963","contact_phone":null},"source":"http://www.platial.com/map/290728","pagination":{"sort":null,"start":0,"total":61,"limit":1000000},"state":"complete","tags":"platial,platial:id=290728,platial:user=angel5963","published":"2010-03-03T17:00:00Z","id":28734}