{"type":"FeatureCollection","data_type":"Dataset","url_type":null,"permissions":[{"permissions":{"download":true,"view":true},"group_id":"everyone"}],"classification":null,"title":"\nvan55's places\n","count":54,"stream_id":29397,"contributor":{"url":"http://geocommons.com/users/11444","name":"platial"},"data_attributes":null,"calculation_params":null,"icon_link":null,"link":"http://geocommons.com/overlays/29397.json","extent":[-122.641,1.3,114.15,52.4555],"geometry_types":["point"],"unique_name":null,"name":"\nvan55's places\n","feature_count":54,"description":"\nA Map by Van55\n\n\n","next_feature":null,"is_raster":false,"short_classification":"Y","stats":{},"features":[{"properties":{"name":"BigDaddyOpus","description":"Posted by Van55hazel park mi 48030<a title=\"Built for Community Mapping\" href=\"http://www.platial.com\"><img src=\"http://media.geocommons.com/platial/images/logotype_small.jpg\"></a>","id":"a6geg1cvlmd9"},"type":"Feature","geometry":{"type":"Point","coordinates":[-83.0951852,42.465601]}},{"properties":{"name":"Bostnbill","description":"Posted by Van55Winthrop MA<a title=\"Built for Community Mapping\" href=\"http://www.platial.com\"><img src=\"http://media.geocommons.com/platial/images/logotype_small.jpg\"></a>","id":"a6geg14thjxw"},"type":"Feature","geometry":{"type":"Point","coordinates":[-70.982351,42.3816]}},{"properties":{"name":"Bunker1028","description":"Posted by Van55Perrineville, NJ<a title=\"Built for Community Mapping\" href=\"http://www.platial.com\"><img src=\"http://media.geocommons.com/platial/images/logotype_small.jpg\"></a>","id":"a6geg17ttwyb"},"type":"Feature","geometry":{"type":"Point","coordinates":[-74.4407064,40.2284441]}},{"properties":{"name":"Bunker1028","description":"Posted by Van55Perrineville, NJSmoke em if you gotz em<a title=\"Built for Community Mapping\" href=\"http://www.platial.com\"><img src=\"http://media.geocommons.com/platial/images/logotype_small.jpg\"></a>","id":"a6geg1ao4tup"},"type":"Feature","geometry":{"type":"Point","coordinates":[-74.4407064,40.2284441]}},{"properties":{"name":"DC1","description":"Posted by Van55Castle Rock, CO<a title=\"Built for Community Mapping\" href=\"http://www.platial.com\"><img src=\"http://media.geocommons.com/platial/images/logotype_small.jpg\"></a>","id":"a6geg1cqwscd"},"type":"Feature","geometry":{"type":"Point","coordinates":[-104.855556,39.372222]}},{"properties":{"name":"Doyle Puckett","description":"Posted by Van558104 river pointe court, saint augustine, fl. 32092<a title=\"Built for Community Mapping\" href=\"http://www.platial.com\"><img src=\"http://media.geocommons.com/platial/images/logotype_small.jpg\"></a>","id":"a6geg182ldbw"},"type":"Feature","geometry":{"type":"Point","coordinates":[-81.566371,29.963461]}},{"properties":{"name":"Gasdoc","description":"Posted by Van55livingston, NJ 07039<a title=\"Built for Community Mapping\" href=\"http://www.platial.com\"><img src=\"http://media.geocommons.com/platial/images/logotype_small.jpg\"></a>","id":"a6geg137kt2q"},"type":"Feature","geometry":{"type":"Point","coordinates":[-74.3235539,40.7930239]}},{"properties":{"name":"Gomer","description":"Posted by Van55clayton, Missouri<a title=\"Built for Community Mapping\" href=\"http://www.platial.com\"><img src=\"http://media.geocommons.com/platial/images/logotype_small.jpg\"></a>","id":"a6geg198inio"},"type":"Feature","geometry":{"type":"Point","coordinates":[-90.3237263,38.6425518]}},{"properties":{"name":"Habanophile","description":"Posted by Van5592869<a title=\"Built for Community Mapping\" href=\"http://www.platial.com\"><img src=\"http://media.geocommons.com/platial/images/logotype_small.jpg\"></a>","id":"a6geg19zl754"},"type":"Feature","geometry":{"type":"Point","coordinates":[-117.785437,33.800985]}},{"properties":{"name":"J-ROD","description":"Posted by Van5545875BuckNUT<a title=\"Built for Community Mapping\" href=\"http://www.platial.com\"><img src=\"http://media.geocommons.com/platial/images/logotype_small.jpg\"></a>","id":"a6geg17qhdyd"},"type":"Feature","geometry":{"type":"Point","coordinates":[-84.059029,41.007418]}},{"properties":{"name":"J-ROD","description":"Posted by Van55OTTAWA, oHIOBuckNUT<a title=\"Built for Community Mapping\" href=\"http://www.platial.com\"><img src=\"http://media.geocommons.com/platial/images/logotype_small.jpg\"></a>","id":"a6geg124kjcc"},"type":"Feature","geometry":{"type":"Point","coordinates":[-84.039619,41.01924]}},{"properties":{"name":"JFD","description":"Posted by Van5595603<a title=\"Built for Community Mapping\" href=\"http://www.platial.com\"><img src=\"http://media.geocommons.com/platial/images/logotype_small.jpg\"></a>","id":"a6geg15yn34z"},"type":"Feature","geometry":{"type":"Point","coordinates":[-121.084347,38.928311]}},{"properties":{"name":"JUUPEAjr","description":"Posted by Van55SPRINGFIELD<a title=\"Built for Community Mapping\" href=\"http://www.platial.com\"><img src=\"http://media.geocommons.com/platial/images/logotype_small.jpg\"></a>","id":"a6geg19uad1s"},"type":"Feature","geometry":{"type":"Point","coordinates":[-89.643611,39.801667]}},{"properties":{"name":"Joeypots","description":"Posted by Van55Wellfleet ma<a title=\"Built for Community Mapping\" href=\"http://www.platial.com\"><img src=\"http://media.geocommons.com/platial/images/logotype_small.jpg\"></a>","id":"a6geg11lzfaq"},"type":"Feature","geometry":{"type":"Point","coordinates":[-70.0327996,41.9376051]}},{"properties":{"name":"Jrhelly","description":"Posted by Van55singapore<a title=\"Built for Community Mapping\" href=\"http://www.platial.com\"><img src=\"http://media.geocommons.com/platial/images/logotype_small.jpg\"></a>","id":"a6geg145ehn1"},"type":"Feature","geometry":{"type":"Point","coordinates":[103.849998,1.299999]}},{"properties":{"name":"Kechke","description":"Posted by Van55<img src=\"http://media.geocommons.com/platial/img/2009/10/4/rass_cab_2_002.jpg\">welland ontario<a title=\"Built for Community Mapping\" href=\"http://www.platial.com\"><img src=\"http://media.geocommons.com/platial/images/logotype_small.jpg\"></a>","id":"a6geg13ozrzu"},"type":"Feature","geometry":{"type":"Point","coordinates":[-79.25059,42.991755]}},{"properties":{"name":"Kelvin","description":"Posted by Van55Franklin, NJ USAHere I am!<a title=\"Built for Community Mapping\" href=\"http://www.platial.com\"><img src=\"http://media.geocommons.com/platial/images/logotype_small.jpg\"></a>","id":"a6geg19xh7d0"},"type":"Feature","geometry":{"type":"Point","coordinates":[-74.5804378,41.1220409]}},{"properties":{"name":"Little nip","description":"Posted by Van55<img src=\"http://media.geocommons.com/platial/img/2009/10/4/che_pipe.jpg\">Hong KongI ruv you guys!<a title=\"Built for Community Mapping\" href=\"http://www.platial.com\"><img src=\"http://media.geocommons.com/platial/images/logotype_small.jpg\"></a>","id":"a6geg14hevh8"},"type":"Feature","geometry":{"type":"Point","coordinates":[114.150001,22.2833]}},{"properties":{"name":"Mad Dawg","description":"Posted by Van55Katy, TX<a title=\"Built for Community Mapping\" href=\"http://www.platial.com\"><img src=\"http://media.geocommons.com/platial/images/logotype_small.jpg\"></a>","id":"a6geg14vw4ws"},"type":"Feature","geometry":{"type":"Point","coordinates":[-95.824167,29.785556]}},{"properties":{"name":"MiamiSteve","description":"Posted by Van55cleveland<a title=\"Built for Community Mapping\" href=\"http://www.platial.com\"><img src=\"http://media.geocommons.com/platial/images/logotype_small.jpg\"></a>","id":"a6geg12c8aqm"},"type":"Feature","geometry":{"type":"Point","coordinates":[-81.695556,41.499444]}},{"properties":{"name":"Nova","description":"Posted by Van5508861<a title=\"Built for Community Mapping\" href=\"http://www.platial.com\"><img src=\"http://media.geocommons.com/platial/images/logotype_small.jpg\"></a>","id":"a6geg14dqsc0"},"type":"Feature","geometry":{"type":"Point","coordinates":[-74.275771,40.521502]}},{"properties":{"name":"Outfieldjack","description":"Posted by Van55lexington sc<a title=\"Built for Community Mapping\" href=\"http://www.platial.com\"><img src=\"http://media.geocommons.com/platial/images/logotype_small.jpg\"></a>","id":"a6geg16nkpfa"},"type":"Feature","geometry":{"type":"Point","coordinates":[-81.234936,33.986208]}},{"properties":{"name":"Phisherman","description":"Posted by Van55Norton,Ma<a title=\"Built for Community Mapping\" href=\"http://www.platial.com\"><img src=\"http://media.geocommons.com/platial/images/logotype_small.jpg\"></a>","id":"a6geg1a8dp61"},"type":"Feature","geometry":{"type":"Point","coordinates":[-71.1875,41.966667]}},{"properties":{"name":"Plume","description":"Posted by Van55<img src=\"http://media.geocommons.com/platial/img/2010/01/3/erdm_logo.jpg\">columbia, SC<a title=\"Built for Community Mapping\" href=\"http://www.platial.com\"><img src=\"http://media.geocommons.com/platial/images/logotype_small.jpg\"></a>","id":"a6geg1bp8gq1"},"type":"Feature","geometry":{"type":"Point","coordinates":[-81.035,34.000556]}},{"properties":{"name":"Professor Twain","description":"Posted by Van55<img src=\"http://media.geocommons.com/platial/img/2010/01/3/TwainVanityFairprint_avatar.jpg\">33761<a title=\"Built for Community Mapping\" href=\"http://www.platial.com\"><img src=\"http://media.geocommons.com/platial/images/logotype_small.jpg\"></a>","id":"a6geg15r51iq"},"type":"Feature","geometry":{"type":"Point","coordinates":[-82.800278,27.965556]}},{"properties":{"name":"Smaug aka Sean Powers","description":"Posted by Van55<img src=\"http://media.geocommons.com/platial/img/2009/10/4/SmaugwithSign_edited.jpg\">concord, Ca<a title=\"Built for Community Mapping\" href=\"http://www.platial.com\"><img src=\"http://media.geocommons.com/platial/images/logotype_small.jpg\"></a>","id":"a6geg129iy9v"},"type":"Feature","geometry":{"type":"Point","coordinates":[-122.03,37.978056]}},{"properties":{"name":"Snipersnest","description":"Posted by Van55Fairhaven, MA<a title=\"Built for Community Mapping\" href=\"http://www.platial.com\"><img src=\"http://media.geocommons.com/platial/images/logotype_small.jpg\"></a>","id":"a6geg1ewnpqv"},"type":"Feature","geometry":{"type":"Point","coordinates":[-70.904167,41.6375]}},{"properties":{"name":"Tall Guy31","description":"Posted by Van5511725<a title=\"Built for Community Mapping\" href=\"http://www.platial.com\"><img src=\"http://media.geocommons.com/platial/images/logotype_small.jpg\"></a>","id":"a6geg17ottiz"},"type":"Feature","geometry":{"type":"Point","coordinates":[-73.280564,40.839531]}},{"properties":{"name":"Tampa1257","description":"Posted by Van55<img src=\"http://media.geocommons.com/platial/img/2009/11/0/2009_Danbury_Pig_Pickin.jpg\">Winston-Salem, NC 27106Carolina Crew<a title=\"Built for Community Mapping\" href=\"http://www.platial.com\"><img src=\"http://media.geocommons.com/platial/images/logotype_small.jpg\"></a>","id":"a6geg1ad8748"},"type":"Feature","geometry":{"type":"Point","coordinates":[-80.324273,36.145437]}},{"properties":{"name":"Tandblov","description":"Posted by Van55Kitsap county, WA, USA<a title=\"Built for Community Mapping\" href=\"http://www.platial.com\"><img src=\"http://media.geocommons.com/platial/images/logotype_small.jpg\"></a>","id":"a6geg1dfnygq"},"type":"Feature","geometry":{"type":"Point","coordinates":[-122.6412583,47.6476607]}},{"properties":{"name":"Tim Rollins","description":"Posted by Van55<img src=\"http://media.geocommons.com/platial/img/2009/10/4/Profile_4_.jpg\">Irmo, South CarolinaHere I am!<a title=\"Built for Community Mapping\" href=\"http://www.platial.com\"><img src=\"http://media.geocommons.com/platial/images/logotype_small.jpg\"></a>","id":"a6geg1h9qpbj"},"type":"Feature","geometry":{"type":"Point","coordinates":[-81.1831513,34.0859829]}},{"properties":{"name":"Trent Bain","description":"Posted by Van55Nashville, Tennessee United States<a title=\"Built for Community Mapping\" href=\"http://www.platial.com\"><img src=\"http://media.geocommons.com/platial/images/logotype_small.jpg\"></a>","id":"a6geg14msjfd"},"type":"Feature","geometry":{"type":"Point","coordinates":[-86.782056,36.158887]}},{"properties":{"name":"Van55","description":"Posted by Van55Virginia Beach, VA 23454<a title=\"Built for Community Mapping\" href=\"http://www.platial.com\"><img src=\"http://media.geocommons.com/platial/images/logotype_small.jpg\"></a>","id":"a6geg1ccqb6u"},"type":"Feature","geometry":{"type":"Point","coordinates":[-76.050795,36.865319]}},{"properties":{"name":"Wacco","description":"Posted by Van55tombstone, az<a title=\"Built for Community Mapping\" href=\"http://www.platial.com\"><img src=\"http://media.geocommons.com/platial/images/logotype_small.jpg\"></a>","id":"a6geg1bvz0qn"},"type":"Feature","geometry":{"type":"Point","coordinates":[-110.066944,31.712778]}},{"properties":{"name":"dbowhntr","description":"Posted by Van55chicago<a title=\"Built for Community Mapping\" href=\"http://www.platial.com\"><img src=\"http://media.geocommons.com/platial/images/logotype_small.jpg\"></a>","id":"a6geg135oy0x"},"type":"Feature","geometry":{"type":"Point","coordinates":[-87.65,41.85]}},{"properties":{"name":"flashman","description":"Posted by Van55773 Oak, St-Lambert, QC<a title=\"Built for Community Mapping\" href=\"http://www.platial.com\"><img src=\"http://media.geocommons.com/platial/images/logotype_small.jpg\"></a>","id":"a6geg1cj8bz8"},"type":"Feature","geometry":{"type":"Point","coordinates":[-73.5005164,45.5035944]}},{"properties":{"name":"gpg","description":"Posted by Van55overland park, KS 66223<a title=\"Built for Community Mapping\" href=\"http://www.platial.com\"><img src=\"http://media.geocommons.com/platial/images/logotype_small.jpg\"></a>","id":"a6geg158ymeh"},"type":"Feature","geometry":{"type":"Point","coordinates":[-94.6760395,38.8630091]}},{"properties":{"name":"jgbutler","description":"Posted by Van55Wilburton, OK<a title=\"Built for Community Mapping\" href=\"http://www.platial.com\"><img src=\"http://media.geocommons.com/platial/images/logotype_small.jpg\"></a>","id":"a6geg16swwho"},"type":"Feature","geometry":{"type":"Point","coordinates":[-95.30875,34.91878]}},{"properties":{"name":"jhopephulle","description":"Posted by Van55bradenton<a title=\"Built for Community Mapping\" href=\"http://www.platial.com\"><img src=\"http://media.geocommons.com/platial/images/logotype_small.jpg\"></a>","id":"a6geg11zscih"},"type":"Feature","geometry":{"type":"Point","coordinates":[-82.575,27.498611]}},{"properties":{"name":"jj...","description":"Posted by Van5597045<a title=\"Built for Community Mapping\" href=\"http://www.platial.com\"><img src=\"http://media.geocommons.com/platial/images/logotype_small.jpg\"></a>","id":"a6geg18dumvy"},"type":"Feature","geometry":{"type":"Point","coordinates":[-122.54338,45.3394369]}},{"properties":{"name":"kbarr","description":"Posted by Van55<img src=\"http://media.geocommons.com/platial/img/2009/10/4/me&amp;chrissy.jpg\">Fairmont, NC<a title=\"Built for Community Mapping\" href=\"http://www.platial.com\"><img src=\"http://media.geocommons.com/platial/images/logotype_small.jpg\"></a>","id":"a6geg11ydg73"},"type":"Feature","geometry":{"type":"Point","coordinates":[-79.115259,34.496082]}},{"properties":{"name":"mrcoin","description":"Posted by Van55Mt Prospect, IL<a title=\"Built for Community Mapping\" href=\"http://www.platial.com\"><img src=\"http://media.geocommons.com/platial/images/logotype_small.jpg\"></a>","id":"a6geg1a0rb6k"},"type":"Feature","geometry":{"type":"Point","coordinates":[-87.9372908,42.0664167]}},{"properties":{"name":"nev coss","description":"Posted by Van55Stourbridge UK<a title=\"Built for Community Mapping\" href=\"http://www.platial.com\"><img src=\"http://media.geocommons.com/platial/images/logotype_small.jpg\"></a>","id":"a6geg15d4k2g"},"type":"Feature","geometry":{"type":"Point","coordinates":[-2.143233,52.455542]}},{"properties":{"name":"nmcowboy","description":"Posted by Van55edgewood<a title=\"Built for Community Mapping\" href=\"http://www.platial.com\"><img src=\"http://media.geocommons.com/platial/images/logotype_small.jpg\"></a>","id":"a6geg1247fjb"},"type":"Feature","geometry":{"type":"Point","coordinates":[-106.191472,35.061376]}},{"properties":{"name":"oldno43","description":"Posted by Van551523 Lincoln Blvd Bay Shore NY 11706<a title=\"Built for Community Mapping\" href=\"http://www.platial.com\"><img src=\"http://media.geocommons.com/platial/images/logotype_small.jpg\"></a>","id":"a6geg1gbru29"},"type":"Feature","geometry":{"type":"Point","coordinates":[-73.27498,40.75042]}},{"properties":{"name":"rastacat","description":"Posted by Van55Glastonbury, CT, USA<a title=\"Built for Community Mapping\" href=\"http://www.platial.com\"><img src=\"http://media.geocommons.com/platial/images/logotype_small.jpg\"></a>","id":"a6geg1de79gi"},"type":"Feature","geometry":{"type":"Point","coordinates":[-72.608146,41.712322]}},{"properties":{"name":"rebeljohn","description":"Posted by Van55wake forest north carolina<a title=\"Built for Community Mapping\" href=\"http://www.platial.com\"><img src=\"http://media.geocommons.com/platial/images/logotype_small.jpg\"></a>","id":"a6geg1dn2uxu"},"type":"Feature","geometry":{"type":"Point","coordinates":[-78.5097228,35.9798734]}},{"properties":{"name":"shrink","description":"Posted by Van55Bishop, CA 93514<a title=\"Built for Community Mapping\" href=\"http://www.platial.com\"><img src=\"http://media.geocommons.com/platial/images/logotype_small.jpg\"></a>","id":"a6geg11ynn5w"},"type":"Feature","geometry":{"type":"Point","coordinates":[-118.3951101,37.3635404]}},{"properties":{"name":"stogies&amp;hoagies","description":"Posted by Van55rock hill s.c.<a title=\"Built for Community Mapping\" href=\"http://www.platial.com\"><img src=\"http://media.geocommons.com/platial/images/logotype_small.jpg\"></a>","id":"a6geg1f7hoai"},"type":"Feature","geometry":{"type":"Point","coordinates":[-81.0250784,34.9248667]}},{"properties":{"name":"stogies&amp;hoagies","description":"Posted by Van55rock hill s.c.<a title=\"Built for Community Mapping\" href=\"http://www.platial.com\"><img src=\"http://media.geocommons.com/platial/images/logotype_small.jpg\"></a>","id":"a6geg17a8q4m"},"type":"Feature","geometry":{"type":"Point","coordinates":[-81.0250784,34.9248667]}},{"properties":{"name":"the_mantis","description":"Posted by Van55hendersonville<a title=\"Built for Community Mapping\" href=\"http://www.platial.com\"><img src=\"http://media.geocommons.com/platial/images/logotype_small.jpg\"></a>","id":"a6geg13ooa3n"},"type":"Feature","geometry":{"type":"Point","coordinates":[-82.461111,35.318611]}},{"properties":{"name":"tugboat","description":"Posted by Van55Va. Beach VA<a title=\"Built for Community Mapping\" href=\"http://www.platial.com\"><img src=\"http://media.geocommons.com/platial/images/logotype_small.jpg\"></a>","id":"a6geg1b3nbg7"},"type":"Feature","geometry":{"type":"Point","coordinates":[-76.1602137,36.8268149]}},{"properties":{"name":"wildfan","description":"Posted by Van5555074<a title=\"Built for Community Mapping\" href=\"http://www.platial.com\"><img src=\"http://media.geocommons.com/platial/images/logotype_small.jpg\"></a>","id":"a6geg11psjhh"},"type":"Feature","geometry":{"type":"Point","coordinates":[-92.7190503,45.3987097]}},{"properties":{"name":"wp2","description":"Posted by Van55Tinton Falls, NJ<a title=\"Built for Community Mapping\" href=\"http://www.platial.com\"><img src=\"http://media.geocommons.com/platial/images/logotype_small.jpg\"></a>","id":"a6geg17tm7kk"},"type":"Feature","geometry":{"type":"Point","coordinates":[-74.09531,40.273794]}}],"is_temporal":false,"author":{"url":"http://www.platial.com/map/771257","metadata":null,"contact_name":"van55","contact_address":null,"source":"platial:van55","contact_phone":null},"source":"http://www.platial.com/map/771257","pagination":{"sort":null,"start":0,"total":54,"limit":1000000},"state":"complete","tags":"platial,platial:id=771257,platial:user=van55","published":"2010-03-03T17:00:00Z","id":29397}