{"type":"FeatureCollection","data_type":"Dataset","url_type":null,"permissions":[{"permissions":{"download":true,"view":true},"group_id":"everyone"}],"classification":null,"title":"\n50 States for Family Widget\n","count":50,"stream_id":29468,"contributor":{"url":"http://geocommons.com/users/11444","name":"platial"},"data_attributes":null,"calculation_params":null,"icon_link":null,"link":"http://geocommons.com/overlays/29468.json","extent":[-158.821,21.3906,-69.0125,61.3047],"geometry_types":["point"],"unique_name":null,"name":"\n50 States for Family Widget\n","feature_count":50,"description":"\nA Map by Platialmaps\n\n\n","next_feature":null,"is_raster":false,"short_classification":"Y","stats":{},"features":[{"properties":{"name":"Alabama Kid-Friendly","description":"Posted by Platialmaps<img src=\"http://media.geocommons.com/platial/images/categories/ICON_family_verD.gif\"> Alabama, USA<a title=\"Built for Community Mapping\" href=\"http://www.platial.com\"><img src=\"http://media.geocommons.com/platial/images/logotype_small.jpg\"></a>","id":"a68v4mk43ng2"},"type":"Feature","geometry":{"type":"Point","coordinates":[-86.680737,32.576227]}},{"properties":{"name":"Alaska Kid-Friendly","description":"Posted by Platialmaps<img src=\"http://media.geocommons.com/platial/images/categories/ICON_family_verD.gif\"> Alaska, USA<a title=\"Built for Community Mapping\" href=\"http://www.platial.com\"><img src=\"http://media.geocommons.com/platial/images/logotype_small.jpg\"></a>","id":"a68v4mmgjo76"},"type":"Feature","geometry":{"type":"Point","coordinates":[-158.821461,61.304725]}},{"properties":{"name":"Arizona Kid-Friendly","description":"Posted by Platialmaps<img src=\"http://media.geocommons.com/platial/images/categories/ICON_family_verD.gif\"> Arizona, USA<a title=\"Built for Community Mapping\" href=\"http://www.platial.com\"><img src=\"http://media.geocommons.com/platial/images/logotype_small.jpg\"></a>","id":"a68v4mj05lpm"},"type":"Feature","geometry":{"type":"Point","coordinates":[-111.930705,34.167875]}},{"properties":{"name":"Arkansas Kid-Friendly","description":"Posted by Platialmaps<img src=\"http://media.geocommons.com/platial/images/categories/ICON_family_verD.gif\"> Arkansas, USA<a title=\"Built for Community Mapping\" href=\"http://www.platial.com\"><img src=\"http://media.geocommons.com/platial/images/logotype_small.jpg\"></a>","id":"a68v4mmtpcyg"},"type":"Feature","geometry":{"type":"Point","coordinates":[-92.13055,34.7519]}},{"properties":{"name":"California Kid-Friendly","description":"Posted by Platialmaps<img src=\"http://media.geocommons.com/platial/images/categories/ICON_family_verD.gif\"> California, USA<a title=\"Built for Community Mapping\" href=\"http://www.platial.com\"><img src=\"http://media.geocommons.com/platial/images/logotype_small.jpg\"></a>","id":"a68v4m9ktd6u"},"type":"Feature","geometry":{"type":"Point","coordinates":[-121.436583,38.561787]}},{"properties":{"name":"Colorado Kid-Friendly","description":"Posted by Platialmaps<img src=\"http://media.geocommons.com/platial/images/categories/ICON_family_verD.gif\"> Colorado, USA<a title=\"Built for Community Mapping\" href=\"http://www.platial.com\"><img src=\"http://media.geocommons.com/platial/images/logotype_small.jpg\"></a>","id":"a68v4md62neq"},"type":"Feature","geometry":{"type":"Point","coordinates":[-105.529984,38.999718]}},{"properties":{"name":"Connecticut Kid-Friendly","description":"Posted by Platialmaps<img src=\"http://media.geocommons.com/platial/images/categories/ICON_family_verD.gif\"> Connecticut, USA<a title=\"Built for Community Mapping\" href=\"http://www.platial.com\"><img src=\"http://media.geocommons.com/platial/images/logotype_small.jpg\"></a>","id":"a68v4mgr3417"},"type":"Feature","geometry":{"type":"Point","coordinates":[-72.685175,41.765867]}},{"properties":{"name":"Delaware Kid-Friendly","description":"Posted by Platialmaps<img src=\"http://media.geocommons.com/platial/images/categories/ICON_family_verD.gif\"> Delaware, USA<a title=\"Built for Community Mapping\" href=\"http://www.platial.com\"><img src=\"http://media.geocommons.com/platial/images/logotype_small.jpg\"></a>","id":"a68v4mirf26k"},"type":"Feature","geometry":{"type":"Point","coordinates":[-75.386461,39.145022]}},{"properties":{"name":"Florida Kid-Friendly","description":"Posted by Platialmaps<img src=\"http://media.geocommons.com/platial/images/categories/ICON_family_verD.gif\"> Florida, USA<a title=\"Built for Community Mapping\" href=\"http://www.platial.com\"><img src=\"http://media.geocommons.com/platial/images/logotype_small.jpg\"></a>","id":"a68v4mahep2d"},"type":"Feature","geometry":{"type":"Point","coordinates":[-83.83305,27.75143]}},{"properties":{"name":"Georgia Kid-Friendly","description":"Posted by Platialmaps<img src=\"http://media.geocommons.com/platial/images/categories/ICON_family_verD.gif\"> Georgia, USA<a title=\"Built for Community Mapping\" href=\"http://www.platial.com\"><img src=\"http://media.geocommons.com/platial/images/logotype_small.jpg\"></a>","id":"a68v4mjp7gmz"},"type":"Feature","geometry":{"type":"Point","coordinates":[-84.427846,33.774215]}},{"properties":{"name":"Hawaii Kid-Friendly","description":"Posted by Platialmaps<img src=\"http://media.geocommons.com/platial/images/categories/ICON_family_verD.gif\"> Hawaii, USA<a title=\"Built for Community Mapping\" href=\"http://www.platial.com\"><img src=\"http://media.geocommons.com/platial/images/logotype_small.jpg\"></a>","id":"a68v4mmh6795"},"type":"Feature","geometry":{"type":"Point","coordinates":[-157.919177,21.390551]}},{"properties":{"name":"Idaho Kid-Friendly","description":"Posted by Platialmaps<img src=\"http://media.geocommons.com/platial/images/categories/ICON_family_verD.gif\"> Idaho, USA<a title=\"Built for Community Mapping\" href=\"http://www.platial.com\"><img src=\"http://media.geocommons.com/platial/images/logotype_small.jpg\"></a>","id":"a68v4mczukdd"},"type":"Feature","geometry":{"type":"Point","coordinates":[-114.143262,45.494551]}},{"properties":{"name":"Illinois Kid-Friendly","description":"Posted by Platialmaps<img src=\"http://media.geocommons.com/platial/images/categories/ICON_family_verD.gif\"> Illinois, USA<a title=\"Built for Community Mapping\" href=\"http://www.platial.com\"><img src=\"http://media.geocommons.com/platial/images/logotype_small.jpg\"></a>","id":"a68v4mgmcyy8"},"type":"Feature","geometry":{"type":"Point","coordinates":[-89.319835,39.739255]}},{"properties":{"name":"Indiana Kid-Friendly","description":"Posted by Platialmaps<img src=\"http://media.geocommons.com/platial/images/categories/ICON_family_verD.gif\"> Indiana, USA<a title=\"Built for Community Mapping\" href=\"http://www.platial.com\"><img src=\"http://media.geocommons.com/platial/images/logotype_small.jpg\"></a>","id":"a68v4md96rzb"},"type":"Feature","geometry":{"type":"Point","coordinates":[-86.44105,39.76618]}},{"properties":{"name":"Iowa Kid-Friendly","description":"Posted by Platialmaps<img src=\"http://media.geocommons.com/platial/images/categories/ICON_family_verD.gif\"> Iowa, USA<a title=\"Built for Community Mapping\" href=\"http://www.platial.com\"><img src=\"http://media.geocommons.com/platial/images/logotype_small.jpg\"></a>","id":"a68v4mi0i0qa"},"type":"Feature","geometry":{"type":"Point","coordinates":[-93.615203,41.592129]}},{"properties":{"name":"Kansas Kid-Friendly","description":"Posted by Platialmaps<img src=\"http://media.geocommons.com/platial/images/categories/ICON_family_verD.gif\"> Kansas, USA<a title=\"Built for Community Mapping\" href=\"http://www.platial.com\"><img src=\"http://media.geocommons.com/platial/images/logotype_small.jpg\"></a>","id":"a68v4mola7gs"},"type":"Feature","geometry":{"type":"Point","coordinates":[-95.708156,39.038988]}},{"properties":{"name":"Kentucky Kid-Friendly","description":"Posted by Platialmaps<img src=\"http://media.geocommons.com/platial/images/categories/ICON_family_verD.gif\"> Kentucky, USA<a title=\"Built for Community Mapping\" href=\"http://www.platial.com\"><img src=\"http://media.geocommons.com/platial/images/logotype_small.jpg\"></a>","id":"a68v4mhxct6i"},"type":"Feature","geometry":{"type":"Point","coordinates":[-85.76824,37.822244]}},{"properties":{"name":"Louisiana Kid-Friendly","description":"Posted by Platialmaps<img src=\"http://media.geocommons.com/platial/images/categories/ICON_family_verD.gif\"> Louisiana, USA<a title=\"Built for Community Mapping\" href=\"http://www.platial.com\"><img src=\"http://media.geocommons.com/platial/images/logotype_small.jpg\"></a>","id":"a68v4mfytare"},"type":"Feature","geometry":{"type":"Point","coordinates":[-91.42642,30.9742]}},{"properties":{"name":"Maine Kid-Friendly","description":"Posted by Platialmaps<img src=\"http://media.geocommons.com/platial/images/categories/ICON_family_verD.gif\"> Maine, USA<a title=\"Built for Community Mapping\" href=\"http://www.platial.com\"><img src=\"http://media.geocommons.com/platial/images/logotype_small.jpg\"></a>","id":"a68v4mfbgcxo"},"type":"Feature","geometry":{"type":"Point","coordinates":[-69.01249,45.254195]}},{"properties":{"name":"Maryland Kid-Friendly","description":"Posted by Platialmaps<img src=\"http://media.geocommons.com/platial/images/categories/ICON_family_verD.gif\"> Maryland, USA<a title=\"Built for Community Mapping\" href=\"http://www.platial.com\"><img src=\"http://media.geocommons.com/platial/images/logotype_small.jpg\"></a>","id":"a68v4mbqpv5v"},"type":"Feature","geometry":{"type":"Point","coordinates":[-77.236968,38.805114]}},{"properties":{"name":"Massachusetts Kid-Friendly","description":"Posted by Platialmaps<img src=\"http://media.geocommons.com/platial/images/categories/ICON_family_verD.gif\"> Massachusetts, USA<a title=\"Built for Community Mapping\" href=\"http://www.platial.com\"><img src=\"http://media.geocommons.com/platial/images/logotype_small.jpg\"></a>","id":"a68v4mmltgol"},"type":"Feature","geometry":{"type":"Point","coordinates":[-71.683502,42.037301]}},{"properties":{"name":"Michigan Kid-Friendly","description":"Posted by Platialmaps<img src=\"http://media.geocommons.com/platial/images/categories/ICON_family_verD.gif\"> Michigan, USA<a title=\"Built for Community Mapping\" href=\"http://www.platial.com\"><img src=\"http://media.geocommons.com/platial/images/logotype_small.jpg\"></a>","id":"a68v4mc73yj0"},"type":"Feature","geometry":{"type":"Point","coordinates":[-86.270625,45.000965]}},{"properties":{"name":"Minnesota Kid-Friendly","description":"Posted by Platialmaps<img src=\"http://media.geocommons.com/platial/images/categories/ICON_family_verD.gif\"> Minnesota, USA<a title=\"Built for Community Mapping\" href=\"http://www.platial.com\"><img src=\"http://media.geocommons.com/platial/images/logotype_small.jpg\"></a>","id":"a68v4mfgh0mh"},"type":"Feature","geometry":{"type":"Point","coordinates":[-93.36132,46.44186]}},{"properties":{"name":"Mississippi Kid-Friendly","description":"Posted by Platialmaps<img src=\"http://media.geocommons.com/platial/images/categories/ICON_family_verD.gif\"> Mississippi, USA<a title=\"Built for Community Mapping\" href=\"http://www.platial.com\"><img src=\"http://media.geocommons.com/platial/images/logotype_small.jpg\"></a>","id":"a68v4mezv8jj"},"type":"Feature","geometry":{"type":"Point","coordinates":[-89.876449,32.571032]}},{"properties":{"name":"Missouri Kid-Friendly","description":"Posted by Platialmaps<img src=\"http://media.geocommons.com/platial/images/categories/ICON_family_verD.gif\"> Missouri, USA<a title=\"Built for Community Mapping\" href=\"http://www.platial.com\"><img src=\"http://media.geocommons.com/platial/images/logotype_small.jpg\"></a>","id":"a68v4maabtn3"},"type":"Feature","geometry":{"type":"Point","coordinates":[-92.436773,38.304558]}},{"properties":{"name":"Montana Kid-Friendly","description":"Posted by Platialmaps<img src=\"http://media.geocommons.com/platial/images/categories/ICON_family_verD.gif\"> Montana, USA<a title=\"Built for Community Mapping\" href=\"http://www.platial.com\"><img src=\"http://media.geocommons.com/platial/images/logotype_small.jpg\"></a>","id":"a68v4mntuivy"},"type":"Feature","geometry":{"type":"Point","coordinates":[-110.044545,46.679491]}},{"properties":{"name":"Nebraska Kid-Friendly","description":"Posted by Platialmaps<img src=\"http://media.geocommons.com/platial/images/categories/ICON_family_verD.gif\"> Nebraska, USA<a title=\"Built for Community Mapping\" href=\"http://www.platial.com\"><img src=\"http://media.geocommons.com/platial/images/logotype_small.jpg\"></a>","id":"a68v4mnnhxp8"},"type":"Feature","geometry":{"type":"Point","coordinates":[-99.680902,41.500713]}},{"properties":{"name":"Nevada Kid-Friendly","description":"Posted by Platialmaps<img src=\"http://media.geocommons.com/platial/images/categories/ICON_family_verD.gif\"> Nevada, USA<a title=\"Built for Community Mapping\" href=\"http://www.platial.com\"><img src=\"http://media.geocommons.com/platial/images/logotype_small.jpg\"></a>","id":"a68v4mgxr4by"},"type":"Feature","geometry":{"type":"Point","coordinates":[-117.022585,38.501855]}},{"properties":{"name":"New Hampshire Kid-Friendly","description":"Posted by Platialmaps<img src=\"http://media.geocommons.com/platial/images/categories/ICON_family_verD.gif\"> New Hampshire, USA<a title=\"Built for Community Mapping\" href=\"http://www.platial.com\"><img src=\"http://media.geocommons.com/platial/images/logotype_small.jpg\"></a>","id":"a68v4mjafzv3"},"type":"Feature","geometry":{"type":"Point","coordinates":[-71.627615,44.001175]}},{"properties":{"name":"New Jersey Kid-Friendly","description":"Posted by Platialmaps<img src=\"http://media.geocommons.com/platial/images/categories/ICON_family_verD.gif\"> New Jersey, USA<a title=\"Built for Community Mapping\" href=\"http://www.platial.com\"><img src=\"http://media.geocommons.com/platial/images/logotype_small.jpg\"></a>","id":"a68v4mcejmrk"},"type":"Feature","geometry":{"type":"Point","coordinates":[-74.728565,40.07241]}},{"properties":{"name":"New Mexico Kid-Friendly","description":"Posted by Platialmaps<img src=\"http://media.geocommons.com/platial/images/categories/ICON_family_verD.gif\"> New Mexico, USA<a title=\"Built for Community Mapping\" href=\"http://www.platial.com\"><img src=\"http://media.geocommons.com/platial/images/logotype_small.jpg\"></a>","id":"a68v4m96znfs"},"type":"Feature","geometry":{"type":"Point","coordinates":[-106.026119,34.166233]}},{"properties":{"name":"New York Kid-Friendly","description":"Posted by Platialmaps<img src=\"http://media.geocommons.com/platial/images/categories/ICON_family_verD.gif\"> New York, USA<a title=\"Built for Community Mapping\" href=\"http://www.platial.com\"><img src=\"http://media.geocommons.com/platial/images/logotype_small.jpg\"></a>","id":"a68v4mo3znuc"},"type":"Feature","geometry":{"type":"Point","coordinates":[-74.006389,40.714167]}},{"properties":{"name":"North Carolina Kid-Friendly","description":"Posted by Platialmaps<img src=\"http://media.geocommons.com/platial/images/categories/ICON_family_verD.gif\"> North Carolina, USA<a title=\"Built for Community Mapping\" href=\"http://www.platial.com\"><img src=\"http://media.geocommons.com/platial/images/logotype_small.jpg\"></a>","id":"a68v4madf70u"},"type":"Feature","geometry":{"type":"Point","coordinates":[-79.89086,35.21387]}},{"properties":{"name":"North Dakota Kid-Friendly","description":"Posted by Platialmaps<img src=\"http://media.geocommons.com/platial/images/categories/ICON_family_verD.gif\"> North Dakota, USA<a title=\"Built for Community Mapping\" href=\"http://www.platial.com\"><img src=\"http://media.geocommons.com/platial/images/logotype_small.jpg\"></a>","id":"a68v4mk6c4gu"},"type":"Feature","geometry":{"type":"Point","coordinates":[-100.301711,47.467857]}},{"properties":{"name":"Ohio Kid-Friendly","description":"Posted by Platialmaps<img src=\"http://media.geocommons.com/platial/images/categories/ICON_family_verD.gif\"> Ohio, USA<a title=\"Built for Community Mapping\" href=\"http://www.platial.com\"><img src=\"http://media.geocommons.com/platial/images/logotype_small.jpg\"></a>","id":"a68v4moqjtd2"},"type":"Feature","geometry":{"type":"Point","coordinates":[-82.988826,40.00218]}},{"properties":{"name":"Oklahoma Kid-Friendly","description":"Posted by Platialmaps<img src=\"http://media.geocommons.com/platial/images/categories/ICON_family_verD.gif\"> Oklahoma, USA<a title=\"Built for Community Mapping\" href=\"http://www.platial.com\"><img src=\"http://media.geocommons.com/platial/images/logotype_small.jpg\"></a>","id":"a68v4mhr53rj"},"type":"Feature","geometry":{"type":"Point","coordinates":[-98.717005,35.30914]}},{"properties":{"name":"Oregon Kid-Friendly","description":"Posted by Platialmaps<img src=\"http://media.geocommons.com/platial/images/categories/ICON_family_verD.gif\"> Oregon, USA<a title=\"Built for Community Mapping\" href=\"http://www.platial.com\"><img src=\"http://media.geocommons.com/platial/images/logotype_small.jpg\"></a>","id":"a68v4m9ao4ti"},"type":"Feature","geometry":{"type":"Point","coordinates":[-120.51484,44.143125]}},{"properties":{"name":"Pennsylvania Kid-Friendly","description":"Posted by Platialmaps<img src=\"http://media.geocommons.com/platial/images/categories/ICON_family_verD.gif\"> Pennnsylvania, USA<a title=\"Built for Community Mapping\" href=\"http://www.platial.com\"><img src=\"http://media.geocommons.com/platial/images/logotype_small.jpg\"></a>","id":"a68v4mls5vwc"},"type":"Feature","geometry":{"type":"Point","coordinates":[-77.604676,41.117937]}},{"properties":{"name":"Rhode Island Kid-Friendly","description":"Posted by Platialmaps<img src=\"http://media.geocommons.com/platial/images/categories/ICON_family_verD.gif\"> Rhode Island, USA<a title=\"Built for Community Mapping\" href=\"http://www.platial.com\"><img src=\"http://media.geocommons.com/platial/images/logotype_small.jpg\"></a>","id":"a68v4mcfb1dn"},"type":"Feature","geometry":{"type":"Point","coordinates":[-71.497913,41.557321]}},{"properties":{"name":"South Carolina Kid-Friendly","description":"Posted by Platialmaps<img src=\"http://media.geocommons.com/platial/images/categories/ICON_family_verD.gif\"> South Carolina, USA<a title=\"Built for Community Mapping\" href=\"http://www.platial.com\"><img src=\"http://media.geocommons.com/platial/images/logotype_small.jpg\"></a>","id":"a68v4moi0tgq"},"type":"Feature","geometry":{"type":"Point","coordinates":[-80.926628,33.631139]}},{"properties":{"name":"South Dakota Kid-Friendly","description":"Posted by Platialmaps<img src=\"http://media.geocommons.com/platial/images/categories/ICON_family_verD.gif\"> South Dakota, USA<a title=\"Built for Community Mapping\" href=\"http://www.platial.com\"><img src=\"http://media.geocommons.com/platial/images/logotype_small.jpg\"></a>","id":"a68v4ml549et"},"type":"Feature","geometry":{"type":"Point","coordinates":[-100.321057,44.369514]}},{"properties":{"name":"Tennessee Kid-Friendly","description":"Posted by Platialmaps<img src=\"http://media.geocommons.com/platial/images/categories/ICON_family_verD.gif\"> Tennessee, USA<a title=\"Built for Community Mapping\" href=\"http://www.platial.com\"><img src=\"http://media.geocommons.com/platial/images/logotype_small.jpg\"></a>","id":"a68v4me8umyv"},"type":"Feature","geometry":{"type":"Point","coordinates":[-86.756604,36.145046]}},{"properties":{"name":"Texas Kid-Friendly","description":"Posted by Platialmaps<img src=\"http://media.geocommons.com/platial/images/categories/ICON_family_verD.gif\"> Texas, USA<a title=\"Built for Community Mapping\" href=\"http://www.platial.com\"><img src=\"http://media.geocommons.com/platial/images/logotype_small.jpg\"></a>","id":"a68v4mhm1unt"},"type":"Feature","geometry":{"type":"Point","coordinates":[-100.07715,31.168895]}},{"properties":{"name":"Utah Kid-Friendly","description":"Posted by Platialmaps<img src=\"http://media.geocommons.com/platial/images/categories/ICON_family_verD.gif\"> Utah, USA<a title=\"Built for Community Mapping\" href=\"http://www.platial.com\"><img src=\"http://media.geocommons.com/platial/images/logotype_small.jpg\"></a>","id":"a68v4mlmlusi"},"type":"Feature","geometry":{"type":"Point","coordinates":[-111.54732,39.49974]}},{"properties":{"name":"Vermont Kid-Friendly","description":"Posted by Platialmaps<img src=\"http://media.geocommons.com/platial/images/categories/ICON_family_verD.gif\"> Vermont, USA<a title=\"Built for Community Mapping\" href=\"http://www.platial.com\"><img src=\"http://media.geocommons.com/platial/images/logotype_small.jpg\"></a>","id":"a68v4mjzec34"},"type":"Feature","geometry":{"type":"Point","coordinates":[-72.451795,43.871655]}},{"properties":{"name":"Virginia Kid-Friendly","description":"Posted by Platialmaps<img src=\"http://media.geocommons.com/platial/images/categories/ICON_family_verD.gif\"> Virginia, USA<a title=\"Built for Community Mapping\" href=\"http://www.platial.com\"><img src=\"http://media.geocommons.com/platial/images/logotype_small.jpg\"></a>","id":"a68v4mm7vzho"},"type":"Feature","geometry":{"type":"Point","coordinates":[-79.446579,38.002449]}},{"properties":{"name":"Washington Kid-Friendly","description":"Posted by Platialmaps<img src=\"http://media.geocommons.com/platial/images/categories/ICON_family_verD.gif\"> Washington, USA<a title=\"Built for Community Mapping\" href=\"http://www.platial.com\"><img src=\"http://media.geocommons.com/platial/images/logotype_small.jpg\"></a>","id":"a68v4mk5l9hk"},"type":"Feature","geometry":{"type":"Point","coordinates":[-120.800808,47.284615]}},{"properties":{"name":"West Virginia Kid-Friendly","description":"Posted by Platialmaps<img src=\"http://media.geocommons.com/platial/images/categories/ICON_family_verD.gif\"> West Virginia, USA<a title=\"Built for Community Mapping\" href=\"http://www.platial.com\"><img src=\"http://media.geocommons.com/platial/images/logotype_small.jpg\"></a>","id":"a68v4mnwmkzn"},"type":"Feature","geometry":{"type":"Point","coordinates":[-80.181837,38.920142]}},{"properties":{"name":"Wisconsin Kid-Friendly","description":"Posted by Platialmaps<img src=\"http://media.geocommons.com/platial/images/categories/ICON_family_verD.gif\"> Wisconsin, USA<a title=\"Built for Community Mapping\" href=\"http://www.platial.com\"><img src=\"http://media.geocommons.com/platial/images/logotype_small.jpg\"></a>","id":"a68v4mivlgxo"},"type":"Feature","geometry":{"type":"Point","coordinates":[-89.56946,44.901]}},{"properties":{"name":"Wyoming Kid-Friendly","description":"Posted by Platialmaps<img src=\"http://media.geocommons.com/platial/images/categories/ICON_family_verD.gif\"> Wyoming, USA<a title=\"Built for Community Mapping\" href=\"http://www.platial.com\"><img src=\"http://media.geocommons.com/platial/images/logotype_small.jpg\"></a>","id":"a68v4m8vo4mf"},"type":"Feature","geometry":{"type":"Point","coordinates":[-107.55405,43.000285]}}],"is_temporal":false,"author":{"url":"http://www.platial.com/map/69885","metadata":null,"contact_name":"platialmaps","contact_address":null,"source":"platial:platialmaps","contact_phone":null},"source":"http://www.platial.com/map/69885","pagination":{"sort":null,"start":0,"total":50,"limit":1000000},"state":"complete","tags":"platial,platial:id=69885,platial:user=platialmaps","published":"2010-03-03T17:00:00Z","id":29468}