{"type":"FeatureCollection","data_type":"Dataset","url_type":null,"permissions":[{"permissions":{"download":true,"view":true},"group_id":"everyone"}],"classification":null,"title":"New Heat Map Filtered","count":80,"stream_id":306421,"contributor":{"url":"http://geocommons.com/users/57990","name":"yibin"},"data_attributes":null,"calculation_params":null,"icon_link":null,"link":"http://geocommons.com/overlays/306421.json","extent":[-123.126,25.439,-71.3513,47.6212],"geometry_types":["point"],"unique_name":null,"name":"New Heat Map Filtered","feature_count":80,"description":"","next_feature":null,"is_raster":false,"short_classification":"Y","stats":{"latitude":{"max":47.621239,"mean":37.29089338125,"variance":25.2467961587734,"stdev":5.02461900633008,"median":38.4231645,"min":25.439022},"dma":{"max":881,"mean":628.6375,"variance":11983.4238924051,"stdev":109.468826121435,"median":588,"min":504},"impressions":{"max":3585835,"mean":424575.2875,"variance":455420384535.701,"stdev":674848.415968876,"median":193991,"min":3107},"clicks":{"max":41300,"mean":4851.3,"variance":67792965.8835443,"stdev":8233.648394457,"median":1514,"min":2},"longitude":{"max":-71.351281,"mean":-90.1192391375,"variance":206.630059091657,"stdev":14.3746324854466,"median":-86.062314,"min":-123.1256445}},"features":[{"properties":{"city":"Philadelphia, PA","latitude":39.8995855,"dma":504,"impressions":248753,"clicks":1450,"longitude":-75.3874975,"id":"aaua2c99m9vs"},"type":"Feature","geometry":{"type":"Point","coordinates":[-75.3874975,39.8995855]}},{"properties":{"city":"Detroit, MI","latitude":42.7069935,"dma":505,"impressions":1544348,"clicks":15815,"longitude":-83.2883905,"id":"aaua2co9f8tl"},"type":"Feature","geometry":{"type":"Point","coordinates":[-83.2883905,42.7069935]}},{"properties":{"city":"Boston, MA (Manchester, NH)","latitude":42.501023,"dma":506,"impressions":223706,"clicks":927,"longitude":-71.460493,"id":"aaua2ch6580b"},"type":"Feature","geometry":{"type":"Point","coordinates":[-71.460493,42.501023]}},{"properties":{"city":"Savannah, GA","latitude":32.168191,"dma":507,"impressions":20406,"clicks":153,"longitude":-81.6330685,"id":"aaua2cgxytjp"},"type":"Feature","geometry":{"type":"Point","coordinates":[-81.6330685,32.168191]}},{"properties":{"city":"Pittsburgh, PA","latitude":40.409733,"dma":508,"impressions":49527,"clicks":244,"longitude":-79.6590145,"id":"aaua2c96qz9r"},"type":"Feature","geometry":{"type":"Point","coordinates":[-79.6590145,40.409733]}},{"properties":{"city":"Ft. Wayne, IN","latitude":41.0334615,"dma":509,"impressions":145530,"clicks":1349,"longitude":-85.1430895,"id":"aaua2cnqzybz"},"type":"Feature","geometry":{"type":"Point","coordinates":[-85.1430895,41.0334615]}},{"properties":{"city":"Washington, DC (Hagerstown, MD)","latitude":39.127683,"dma":511,"impressions":160442,"clicks":671,"longitude":-77.904362,"id":"aaua2cgqegd6"},"type":"Feature","geometry":{"type":"Point","coordinates":[-77.904362,39.127683]}},{"properties":{"city":"Baltimore, MD","latitude":38.972515,"dma":512,"impressions":54265,"clicks":129,"longitude":-76.506469,"id":"aaua2cfxcp1m"},"type":"Feature","geometry":{"type":"Point","coordinates":[-76.506469,38.972515]}},{"properties":{"city":"Flint-Saginaw-Bay City, MI","latitude":43.643882,"dma":513,"impressions":287277,"clicks":3200,"longitude":-83.847331,"id":"aaua2cl5m9dv"},"type":"Feature","geometry":{"type":"Point","coordinates":[-83.847331,43.643882]}},{"properties":{"city":"Charleston, SC","latitude":33.181204,"dma":519,"impressions":193991,"clicks":2281,"longitude":-80.042272,"id":"aaua2car41ep"},"type":"Feature","geometry":{"type":"Point","coordinates":[-80.042272,33.181204]}},{"properties":{"city":"Augusta, GA","latitude":33.2388275,"dma":520,"impressions":10026,"clicks":35,"longitude":-81.9064505,"id":"aaua2cox6m19"},"type":"Feature","geometry":{"type":"Point","coordinates":[-81.9064505,33.2388275]}},{"properties":{"city":"Providence, RI-New Bedford, MA","latitude":41.620932,"dma":521,"impressions":37925,"clicks":508,"longitude":-71.351281,"id":"aaua2clea69x"},"type":"Feature","geometry":{"type":"Point","coordinates":[-71.351281,41.620932]}},{"properties":{"city":"Burlington, VT-Plattsburgh, NY","latitude":44.071301,"dma":523,"impressions":14369,"clicks":23,"longitude":-73.0368725,"id":"aaua2cais2ck"},"type":"Feature","geometry":{"type":"Point","coordinates":[-73.0368725,44.071301]}},{"properties":{"city":"Atlanta, GA","latitude":33.9253975,"dma":524,"impressions":164404,"clicks":704,"longitude":-84.3335135,"id":"aaua2cc1lzhi"},"type":"Feature","geometry":{"type":"Point","coordinates":[-84.3335135,33.9253975]}},{"properties":{"city":"Indianapolis, IN","latitude":39.84288,"dma":527,"impressions":757577,"clicks":6803,"longitude":-86.1652105,"id":"aaua2caxly9h"},"type":"Feature","geometry":{"type":"Point","coordinates":[-86.1652105,39.84288]}},{"properties":{"city":"Miami-Fort Lauderdale, FL","latitude":25.439022,"dma":528,"impressions":1115284,"clicks":12737,"longitude":-80.940626,"id":"aaua2cae5bxt"},"type":"Feature","geometry":{"type":"Point","coordinates":[-80.940626,25.439022]}},{"properties":{"city":"Tallahassee, FL-Thomasville, GA","latitude":30.462299,"dma":530,"impressions":157945,"clicks":1514,"longitude":-83.675708,"id":"aaua2cgeit8y"},"type":"Feature","geometry":{"type":"Point","coordinates":[-83.675708,30.462299]}},{"properties":{"city":"Tri-Cities, TN-VA","latitude":36.732483,"dma":531,"impressions":135386,"clicks":1214,"longitude":-82.468517,"id":"aaua2cbmt77y"},"type":"Feature","geometry":{"type":"Point","coordinates":[-82.468517,36.732483]}},{"properties":{"city":"Hartford &amp; New Haven, CT","latitude":41.612664,"dma":533,"impressions":67169,"clicks":257,"longitude":-72.659358,"id":"aaua2ckfhwts"},"type":"Feature","geometry":{"type":"Point","coordinates":[-72.659358,41.612664]}},{"properties":{"city":"Orlando-Daytona Beach-Melbourne, FL","latitude":28.6562235,"dma":534,"impressions":1071409,"clicks":11009,"longitude":-81.4963015,"id":"aaua2cccilyu"},"type":"Feature","geometry":{"type":"Point","coordinates":[-81.4963015,28.6562235]}},{"properties":{"city":"Tampa-St. Petersburg (Sarasota), FL","latitude":27.9989465,"dma":539,"impressions":250468,"clicks":858,"longitude":-81.8973955,"id":"aaua2ch67v6f"},"type":"Feature","geometry":{"type":"Point","coordinates":[-81.8973955,27.9989465]}},{"properties":{"city":"Springfield-Holyoke, MA","latitude":42.3856895,"dma":543,"impressions":21436,"clicks":55,"longitude":-72.6017095,"id":"aaua2co1vgd4"},"type":"Feature","geometry":{"type":"Point","coordinates":[-72.6017095,42.3856895]}},{"properties":{"city":"West Palm Beach-Ft. Pierce, FL","latitude":27.096694,"dma":548,"impressions":423640,"clicks":4295,"longitude":-80.6271745,"id":"aaua2cms9uq8"},"type":"Feature","geometry":{"type":"Point","coordinates":[-80.6271745,27.096694]}},{"properties":{"city":"Lansing, MI","latitude":42.4074535,"dma":551,"impressions":179127,"clicks":1788,"longitude":-84.602594,"id":"aaua2cct1dpr"},"type":"Feature","geometry":{"type":"Point","coordinates":[-84.602594,42.4074535]}},{"properties":{"city":"Wheeling, WV-Steubenville, OH","latitude":39.96655,"dma":554,"impressions":3360,"clicks":2,"longitude":-81.0435735,"id":"aaua2cjvnjvf"},"type":"Feature","geometry":{"type":"Point","coordinates":[-81.0435735,39.96655]}},{"properties":{"city":"Richmond-Petersburg, VA","latitude":37.4686305,"dma":556,"impressions":24984,"clicks":44,"longitude":-77.5349825,"id":"aaua2cnh00ni"},"type":"Feature","geometry":{"type":"Point","coordinates":[-77.5349825,37.4686305]}},{"properties":{"city":"Knoxville, TN","latitude":36.112655,"dma":557,"impressions":237075,"clicks":2154,"longitude":-84.0422025,"id":"aaua2cowhxyf"},"type":"Feature","geometry":{"type":"Point","coordinates":[-84.0422025,36.112655]}},{"properties":{"city":"Jacksonville, FL","latitude":30.427575,"dma":561,"impressions":446407,"clicks":5199,"longitude":-82.006576,"id":"aaua2cmrjf3k"},"type":"Feature","geometry":{"type":"Point","coordinates":[-82.006576,30.427575]}},{"properties":{"city":"Grand Rapids-Kalamazoo-Battle Creek, MI","latitude":42.7892405,"dma":563,"impressions":496991,"clicks":4662,"longitude":-85.624075,"id":"aaua2cgj55q0"},"type":"Feature","geometry":{"type":"Point","coordinates":[-85.624075,42.7892405]}},{"properties":{"city":"Harrisburg-Lancaster-Lebanon-York, PA","latitude":40.2836345,"dma":566,"impressions":32938,"clicks":73,"longitude":-76.882001,"id":"aaua2cdwb8lz"},"type":"Feature","geometry":{"type":"Point","coordinates":[-76.882001,40.2836345]}},{"properties":{"city":"Harrisonburg, VA","latitude":38.4231645,"dma":569,"impressions":3107,"clicks":6,"longitude":-79.0679395,"id":"aaua2chcgvpi"},"type":"Feature","geometry":{"type":"Point","coordinates":[-79.0679395,38.4231645]}},{"properties":{"city":"Myrtle Beach-Florence, SC","latitude":34.2987775,"dma":570,"impressions":19703,"clicks":198,"longitude":-79.419767,"id":"aaua2ckvrhpe"},"type":"Feature","geometry":{"type":"Point","coordinates":[-79.419767,34.2987775]}},{"properties":{"city":"Ft. Myers-Naples, FL","latitude":26.5720265,"dma":571,"impressions":247074,"clicks":2335,"longitude":-81.6230635,"id":"aaua2cm4jn5d"},"type":"Feature","geometry":{"type":"Point","coordinates":[-81.6230635,26.5720265]}},{"properties":{"city":"Roanoke-Lynchburg, VA","latitude":37.6408795,"dma":573,"impressions":12861,"clicks":31,"longitude":-79.9113685,"id":"aaua2chypb2f"},"type":"Feature","geometry":{"type":"Point","coordinates":[-79.9113685,37.6408795]}},{"properties":{"city":"Johnstown-Altoona, PA","latitude":40.673069,"dma":574,"impressions":10590,"clicks":21,"longitude":-78.328162,"id":"aaua2cg3uwf9"},"type":"Feature","geometry":{"type":"Point","coordinates":[-78.328162,40.673069]}},{"properties":{"city":"Chattanooga, TN","latitude":35.204094,"dma":575,"impressions":222156,"clicks":2451,"longitude":-84.7884855,"id":"aaua2cj68j2b"},"type":"Feature","geometry":{"type":"Point","coordinates":[-84.7884855,35.204094]}},{"properties":{"city":"Salisbury, MD","latitude":38.4437985,"dma":576,"impressions":15396,"clicks":76,"longitude":-75.548586,"id":"aaua2cc6yhct"},"type":"Feature","geometry":{"type":"Point","coordinates":[-75.548586,38.4437985]}},{"properties":{"city":"Wilkes Barre-Scranton, PA","latitude":41.2488125,"dma":577,"impressions":23778,"clicks":79,"longitude":-76.530153,"id":"aaua2cmcvdl2"},"type":"Feature","geometry":{"type":"Point","coordinates":[-76.530153,41.2488125]}},{"properties":{"city":"Lafayette, IN","latitude":40.3451955,"dma":582,"impressions":78975,"clicks":659,"longitude":-87.113428,"id":"aaua2cc2jkar"},"type":"Feature","geometry":{"type":"Point","coordinates":[-87.113428,40.3451955]}},{"properties":{"city":"Charlottesville, VA","latitude":38.1802125,"dma":584,"impressions":5369,"clicks":8,"longitude":-78.4610955,"id":"aaua2cjs5cg7"},"type":"Feature","geometry":{"type":"Point","coordinates":[-78.4610955,38.1802125]}},{"properties":{"city":"South Bend-Elkhart, IN","latitude":41.576527,"dma":588,"impressions":35335,"clicks":216,"longitude":-86.062314,"id":"aaua2cdh3k41"},"type":"Feature","geometry":{"type":"Point","coordinates":[-86.062314,41.576527]}},{"properties":{"city":"Chicago, IL","latitude":41.615065,"dma":602,"impressions":257323,"clicks":876,"longitude":-87.8455645,"id":"aaua2ccsw6zz"},"type":"Feature","geometry":{"type":"Point","coordinates":[-87.8455645,41.615065]}},{"properties":{"city":"Rockford, IL","latitude":42.0453555,"dma":610,"impressions":129180,"clicks":1431,"longitude":-89.316059,"id":"aaua2cj35wbr"},"type":"Feature","geometry":{"type":"Point","coordinates":[-89.316059,42.0453555]}},{"properties":{"city":"Shreveport, LA","latitude":32.820852,"dma":612,"impressions":224720,"clicks":3208,"longitude":-94.0138375,"id":"aaua2caa2304"},"type":"Feature","geometry":{"type":"Point","coordinates":[-94.0138375,32.820852]}},{"properties":{"city":"Minneapolis-St. Paul, MN","latitude":46.0197555,"dma":613,"impressions":1445552,"clicks":14460,"longitude":-94.199023,"id":"aaua2ce8umb0"},"type":"Feature","geometry":{"type":"Point","coordinates":[-94.199023,46.0197555]}},{"properties":{"city":"Kansas City, MO","latitude":39.3042305,"dma":616,"impressions":42838,"clicks":104,"longitude":-94.208994,"id":"aaua2cc6i5lr"},"type":"Feature","geometry":{"type":"Point","coordinates":[-94.208994,39.3042305]}},{"properties":{"city":"Milwaukee, WI","latitude":43.1921015,"dma":617,"impressions":12178,"clicks":10,"longitude":-88.358241,"id":"aaua2cbiax56"},"type":"Feature","geometry":{"type":"Point","coordinates":[-88.358241,43.1921015]}},{"properties":{"city":"Houston, TX","latitude":29.606092,"dma":618,"impressions":2307286,"clicks":29019,"longitude":-95.6464085,"id":"aaua2cgdg8hy"},"type":"Feature","geometry":{"type":"Point","coordinates":[-95.6464085,29.606092]}},{"properties":{"city":"Monroe, LA-El Dorado, AR","latitude":32.1842885,"dma":628,"impressions":100655,"clicks":1639,"longitude":-91.9321725,"id":"aaua2cmm99s8"},"type":"Feature","geometry":{"type":"Point","coordinates":[-91.9321725,32.1842885]}},{"properties":{"city":"Birmingham (Anniston and Tuscaloosa), AL","latitude":33.5031,"dma":630,"impressions":24582,"clicks":93,"longitude":-86.869635,"id":"aaua2cavo2sl"},"type":"Feature","geometry":{"type":"Point","coordinates":[-86.869635,33.5031]}},{"properties":{"city":"Paducah, KY-Cape Girardeau, MO-Harrisburg, IL","latitude":37.2352865,"dma":632,"impressions":202415,"clicks":2078,"longitude":-89.497325,"id":"aaua2cd5ts8e"},"type":"Feature","geometry":{"type":"Point","coordinates":[-89.497325,37.2352865]}},{"properties":{"city":"Memphis, TN","latitude":35.1946395,"dma":640,"impressions":426284,"clicks":5242,"longitude":-89.757956,"id":"aaua2chifzuy"},"type":"Feature","geometry":{"type":"Point","coordinates":[-89.757956,35.1946395]}},{"properties":{"city":"Champaign &amp; Springfield-Decatur, IL","latitude":39.9606635,"dma":648,"impressions":39445,"clicks":232,"longitude":-89.0627055,"id":"aaua2cjlzvlw"},"type":"Feature","geometry":{"type":"Point","coordinates":[-89.0627055,39.9606635]}},{"properties":{"city":"Panama City, FL","latitude":30.293713,"dma":656,"impressions":91761,"clicks":837,"longitude":-85.3696325,"id":"aaua2cn7jp64"},"type":"Feature","geometry":{"type":"Point","coordinates":[-85.3696325,30.293713]}},{"properties":{"city":"Nashville, TN","latitude":36.07259,"dma":659,"impressions":844638,"clicks":11083,"longitude":-86.631128,"id":"aaua2c92n4o0"},"type":"Feature","geometry":{"type":"Point","coordinates":[-86.631128,36.07259]}},{"properties":{"city":"Columbus-Tupelo-West Point, MS","latitude":33.9623585,"dma":673,"impressions":94074,"clicks":1068,"longitude":-88.939003,"id":"aaua2cnuxddl"},"type":"Feature","geometry":{"type":"Point","coordinates":[-88.939003,33.9623585]}},{"properties":{"city":"Peoria-Bloomington, IL","latitude":40.6826125,"dma":675,"impressions":198175,"clicks":1848,"longitude":-89.343186,"id":"aaua2cc7j2xa"},"type":"Feature","geometry":{"type":"Point","coordinates":[-89.343186,40.6826125]}},{"properties":{"city":"Mobile, AL-Pensacola (Ft. Walton Beach), FL","latitude":31.1061175,"dma":686,"impressions":422902,"clicks":5493,"longitude":-87.6151775,"id":"aaua2canxf6g"},"type":"Feature","geometry":{"type":"Point","coordinates":[-87.6151775,31.1061175]}},{"properties":{"city":"Huntsville-Decatur (Florence), AL","latitude":34.7953925,"dma":691,"impressions":273538,"clicks":3112,"longitude":-86.8583345,"id":"aaua2c9v0vt0"},"type":"Feature","geometry":{"type":"Point","coordinates":[-86.8583345,34.7953925]}},{"properties":{"city":"Little Rock-Pine Bluff, AR","latitude":34.647081,"dma":693,"impressions":476544,"clicks":6024,"longitude":-92.670434,"id":"aaua2cihxtbp"},"type":"Feature","geometry":{"type":"Point","coordinates":[-92.670434,34.647081]}},{"properties":{"city":"Hattiesburg-Laurel, MS","latitude":31.5670435,"dma":710,"impressions":62645,"clicks":1068,"longitude":-89.2449615,"id":"aaua2cfrdilb"},"type":"Feature","geometry":{"type":"Point","coordinates":[-89.2449615,31.5670435]}},{"properties":{"city":"Meridian, MS","latitude":32.3468715,"dma":711,"impressions":40165,"clicks":395,"longitude":-88.5817905,"id":"aaua2cfcx0r1"},"type":"Feature","geometry":{"type":"Point","coordinates":[-88.5817905,32.3468715]}},{"properties":{"city":"Quincy, IL-Hannibal, MO-Keokuk, IA","latitude":40.066065,"dma":717,"impressions":40991,"clicks":597,"longitude":-91.1726125,"id":"aaua2cdl1dl0"},"type":"Feature","geometry":{"type":"Point","coordinates":[-91.1726125,40.066065]}},{"properties":{"city":"Jackson, MS","latitude":32.1874215,"dma":718,"impressions":322921,"clicks":6015,"longitude":-90.485657,"id":"aaua2cizjait"},"type":"Feature","geometry":{"type":"Point","coordinates":[-90.485657,32.1874215]}},{"properties":{"city":"Denver, CO","latitude":40.9981425,"dma":751,"impressions":1820467,"clicks":24232,"longitude":-108.925452,"id":"aaua2ck690z3"},"type":"Feature","geometry":{"type":"Point","coordinates":[-108.925452,40.9981425]}},{"properties":{"city":"Colorado Springs-Pueblo, CO","latitude":38.061384,"dma":752,"impressions":422554,"clicks":5677,"longitude":-104.0271685,"id":"aaua2cbp54pt"},"type":"Feature","geometry":{"type":"Point","coordinates":[-104.0271685,38.061384]}},{"properties":{"city":"El Paso, TX","latitude":31.840946,"dma":765,"impressions":17449,"clicks":120,"longitude":-105.6619505,"id":"aaua2comgi9c"},"type":"Feature","geometry":{"type":"Point","coordinates":[-105.6619505,31.840946]}},{"properties":{"city":"Salt Lake City, UT","latitude":40.23193,"dma":770,"impressions":1730527,"clicks":20292,"longitude":-112.26407,"id":"aaua2cc0afwr"},"type":"Feature","geometry":{"type":"Point","coordinates":[-112.26407,40.23193]}},{"properties":{"city":"Tucson (Sierra Vista), AZ","latitude":31.923023,"dma":789,"impressions":338843,"clicks":3664,"longitude":-111.1907555,"id":"aaua2cev3r6f"},"type":"Feature","geometry":{"type":"Point","coordinates":[-111.1907555,31.923023]}},{"properties":{"city":"Albuquerque-Santa Fe, NM","latitude":34.4952755,"dma":790,"impressions":572773,"clicks":7540,"longitude":-106.526644,"id":"aaua2cgh0y3o"},"type":"Feature","geometry":{"type":"Point","coordinates":[-106.526644,34.4952755]}},{"properties":{"city":"Eugene, OR","latitude":43.6937855,"dma":801,"impressions":307006,"clicks":3915,"longitude":-123.1256445,"id":"aaua2cc4mtss"},"type":"Feature","geometry":{"type":"Point","coordinates":[-123.1256445,43.6937855]}},{"properties":{"city":"San Francisco-Oakland-San Jose, CA","latitude":38.4477155,"dma":807,"impressions":3585835,"clicks":41300,"longitude":-122.6193155,"id":"aaua2ce5croz"},"type":"Feature","geometry":{"type":"Point","coordinates":[-122.6193155,38.4477155]}},{"properties":{"city":"Seattle-Tacoma, WA","latitude":47.621239,"dma":819,"impressions":2841929,"clicks":35901,"longitude":-121.842349,"id":"aaua2c9jni9w"},"type":"Feature","geometry":{"type":"Point","coordinates":[-121.842349,47.621239]}},{"properties":{"city":"Portland, OR","latitude":44.191309,"dma":820,"impressions":1564930,"clicks":18293,"longitude":-120.4498885,"id":"aaua2cb25j71"},"type":"Feature","geometry":{"type":"Point","coordinates":[-120.4498885,44.191309]}},{"properties":{"city":"San Diego, CA","latitude":33.0195915,"dma":825,"impressions":30036,"clicks":86,"longitude":-116.8402815,"id":"aaua2cn96seq"},"type":"Feature","geometry":{"type":"Point","coordinates":[-116.8402815,33.0195915]}},{"properties":{"city":"Monterey-Salinas, CA","latitude":36.537526,"dma":828,"impressions":220431,"clicks":2749,"longitude":-121.265832,"id":"aaua2cjlzd2v"},"type":"Feature","geometry":{"type":"Point","coordinates":[-121.265832,36.537526]}},{"properties":{"city":"Sacramento-Stockton-Modesto, CA","latitude":38.7885185,"dma":862,"impressions":1871546,"clicks":25130,"longitude":-120.9905465,"id":"aaua2cfb48i1"},"type":"Feature","geometry":{"type":"Point","coordinates":[-120.9905465,38.7885185]}},{"properties":{"city":"Fresno-Visalia, CA","latitude":36.846642,"dma":866,"impressions":636435,"clicks":8759,"longitude":-119.613123,"id":"aaua2cfn2uth"},"type":"Feature","geometry":{"type":"Point","coordinates":[-119.613123,36.846642]}},{"properties":{"city":"Chico-Redding, CA","latitude":40.3359675,"dma":868,"impressions":178512,"clicks":2084,"longitude":-122.350166,"id":"aaua2cdd7c6e"},"type":"Feature","geometry":{"type":"Point","coordinates":[-122.350166,40.3359675]}},{"properties":{"city":"Spokane, WA","latitude":47.0398515,"dma":881,"impressions":495429,"clicks":6197,"longitude":-117.603633,"id":"aaua2cjdxg6i"},"type":"Feature","geometry":{"type":"Point","coordinates":[-117.603633,47.0398515]}}],"is_temporal":false,"author":{"url":"","metadata":"","contact_name":"","contact_address":"","source":"","contact_phone":""},"source":"","pagination":{"sort":null,"start":0,"total":80,"limit":1000000},"state":"complete","tags":"","published":"2014-08-16T20:57:32-04:00","id":306421}