{"type":"FeatureCollection","data_type":"Dataset","url_type":null,"permissions":[{"permissions":{"download":true,"view":true},"group_id":"everyone"}],"classification":null,"title":"\nvampyre's places\n","count":36,"stream_id":31670,"contributor":{"url":"http://geocommons.com/users/11444","name":"platial"},"data_attributes":null,"calculation_params":null,"icon_link":null,"link":"http://geocommons.com/overlays/31670.json","extent":[-122.487,26.1154,83.7617,60.4856],"geometry_types":["point"],"unique_name":null,"name":"\nvampyre's places\n","feature_count":36,"description":"\nA Map by Vampyre\n\n\n","next_feature":null,"is_raster":false,"short_classification":"Y","stats":{},"features":[{"properties":{"name":"Bloody","description":"Posted by Vampyre<img src=\"http://media.geocommons.com/platial/img/2008/11/0/IMG_2395.JPG\">Gifhornwhohoooo xD here i am xp greetz from germany <a title=\"Built for Community Mapping\" href=\"http://www.platial.com\"><img src=\"http://media.geocommons.com/platial/images/logotype_small.jpg\"></a>","id":"a6hbyaeunphd"},"type":"Feature","geometry":{"type":"Point","coordinates":[10.547035,52.485394]}},{"properties":{"name":"Bullshaz","description":"Posted by VampyrePlymouth, MN<a title=\"Built for Community Mapping\" href=\"http://www.platial.com\"><img src=\"http://media.geocommons.com/platial/images/logotype_small.jpg\"></a>","id":"a6hbyagk4vvh"},"type":"Feature","geometry":{"type":"Point","coordinates":[-93.455278,45.010556]}},{"properties":{"name":"Butchman92","description":"Posted by VampyreLeicester<a title=\"Built for Community Mapping\" href=\"http://www.platial.com\"><img src=\"http://media.geocommons.com/platial/images/logotype_small.jpg\"></a>","id":"a6hbyagk7rbs"},"type":"Feature","geometry":{"type":"Point","coordinates":[-1.129126,52.634228]}},{"properties":{"name":"Callisto","description":"Posted by Vampyre<img src=\"http://media.geocommons.com/platial/img/2008/10/0/Picture_139.jpg\">Bristolhi lts folk<a title=\"Built for Community Mapping\" href=\"http://www.platial.com\"><img src=\"http://media.geocommons.com/platial/images/logotype_small.jpg\"></a>","id":"a6hbyakryv2a"},"type":"Feature","geometry":{"type":"Point","coordinates":[-2.591902,51.455313]}},{"properties":{"name":"Ebben","description":"Posted by VampyreBorlänge<a title=\"Built for Community Mapping\" href=\"http://www.platial.com\"><img src=\"http://media.geocommons.com/platial/images/logotype_small.jpg\"></a>","id":"a6hbyad5k9jk"},"type":"Feature","geometry":{"type":"Point","coordinates":[15.436302,60.485605]}},{"properties":{"name":"Entarka","description":"Posted by VampyrePadova<a title=\"Built for Community Mapping\" href=\"http://www.platial.com\"><img src=\"http://media.geocommons.com/platial/images/logotype_small.jpg\"></a>","id":"a6hbyahq6eej"},"type":"Feature","geometry":{"type":"Point","coordinates":[11.877194,45.407737]}},{"properties":{"name":"Evileye","description":"Posted by VampyreLelystad<a title=\"Built for Community Mapping\" href=\"http://www.platial.com\"><img src=\"http://media.geocommons.com/platial/images/logotype_small.jpg\"></a>","id":"a6hbyafv0ls2"},"type":"Feature","geometry":{"type":"Point","coordinates":[5.45,52.516666]}},{"properties":{"name":"Grasstradamus","description":"Posted by Vampyre<img src=\"http://media.geocommons.com/platial/img/2008/10/4/hatchetman_beer3_copy.gif\">Charlotte, NC<a title=\"Built for Community Mapping\" href=\"http://www.platial.com\"><img src=\"http://media.geocommons.com/platial/images/logotype_small.jpg\"></a>","id":"a6hbya63pozz"},"type":"Feature","geometry":{"type":"Point","coordinates":[-80.843333,35.226944]}},{"properties":{"name":"Hendas","description":"Posted by VampyreGateshead<a title=\"Built for Community Mapping\" href=\"http://www.platial.com\"><img src=\"http://media.geocommons.com/platial/images/logotype_small.jpg\"></a>","id":"a6hbyak43rqr"},"type":"Feature","geometry":{"type":"Point","coordinates":[-1.601964,54.959198]}},{"properties":{"name":"Håkon M. Tørnquist","description":"Posted by Vampyrefitjar<a title=\"Built for Community Mapping\" href=\"http://www.platial.com\"><img src=\"http://media.geocommons.com/platial/images/logotype_small.jpg\"></a>","id":"a6hbyab87g7q"},"type":"Feature","geometry":{"type":"Point","coordinates":[5.319203,59.918441]}},{"properties":{"name":"Marty2810","description":"Posted by VampyreLeicestershire<a title=\"Built for Community Mapping\" href=\"http://www.platial.com\"><img src=\"http://media.geocommons.com/platial/images/logotype_small.jpg\"></a>","id":"a6hbya9py5tn"},"type":"Feature","geometry":{"type":"Point","coordinates":[-1.130826,52.684892]}},{"properties":{"name":"Perception","description":"Posted by VampyreBellingham waThought We\\'d have at least one person representing the West Coast of the U.S.<a title=\"Built for Community Mapping\" href=\"http://www.platial.com\"><img src=\"http://media.geocommons.com/platial/images/logotype_small.jpg\"></a>","id":"a6hbyal0crbx"},"type":"Feature","geometry":{"type":"Point","coordinates":[-122.486944,48.759722]}},{"properties":{"name":"Philip","description":"Posted by Vampyre<img src=\"http://media.geocommons.com/platial/img/2008/10/0/avat1.jpg\">WASHINGTON, DC<a title=\"Built for Community Mapping\" href=\"http://www.platial.com\"><img src=\"http://media.geocommons.com/platial/images/logotype_small.jpg\"></a>","id":"a6hbyal7zmlq"},"type":"Feature","geometry":{"type":"Point","coordinates":[-77.036667,38.895]}},{"properties":{"name":"Sc4l3rgrl","description":"Posted by VampyreStaffordshire, united kingdom<a title=\"Built for Community Mapping\" href=\"http://www.platial.com\"><img src=\"http://media.geocommons.com/platial/images/logotype_small.jpg\"></a>","id":"a6hbyabrik96"},"type":"Feature","geometry":{"type":"Point","coordinates":[-2.104524,52.769796]}},{"properties":{"name":"Sondra","description":"Posted by Vampyreport huronyip! I\\'m that little peg :)<a title=\"Built for Community Mapping\" href=\"http://www.platial.com\"><img src=\"http://media.geocommons.com/platial/images/logotype_small.jpg\"></a>","id":"a6hbya78n10r"},"type":"Feature","geometry":{"type":"Point","coordinates":[-82.42845,42.97583]}},{"properties":{"name":"Thibor","description":"Posted by Vampyre<img src=\"http://media.geocommons.com/platial/img/2008/09/3/phil1.jpg\">Burton On TrentHEY YOU GUYYSSSSS!!!<a title=\"Built for Community Mapping\" href=\"http://www.platial.com\"><img src=\"http://media.geocommons.com/platial/images/logotype_small.jpg\"></a>","id":"a6hbyafhx9c6"},"type":"Feature","geometry":{"type":"Point","coordinates":[-1.643034,52.806875]}},{"properties":{"name":"VAMPYRE","description":"Posted by VampyredublinLtS<a title=\"Built for Community Mapping\" href=\"http://www.platial.com\"><img src=\"http://media.geocommons.com/platial/images/logotype_small.jpg\"></a>","id":"a6hbyah8repu"},"type":"Feature","geometry":{"type":"Point","coordinates":[-6.25,53.330001]}},{"properties":{"name":"Viper","description":"Posted by VampyreMiddlesbrough<a title=\"Built for Community Mapping\" href=\"http://www.platial.com\"><img src=\"http://media.geocommons.com/platial/images/logotype_small.jpg\"></a>","id":"a6hbyagj456j"},"type":"Feature","geometry":{"type":"Point","coordinates":[-1.237755,54.573002]}},{"properties":{"name":"Yan","description":"Posted by VampyreBarnaulHi pplz<a title=\"Built for Community Mapping\" href=\"http://www.platial.com\"><img src=\"http://media.geocommons.com/platial/images/logotype_small.jpg\"></a>","id":"a6hbyaciejyh"},"type":"Feature","geometry":{"type":"Point","coordinates":[83.76165,53.356338]}},{"properties":{"name":"Zappanator","description":"Posted by Vampyrerochester<a title=\"Built for Community Mapping\" href=\"http://www.platial.com\"><img src=\"http://media.geocommons.com/platial/images/logotype_small.jpg\"></a>","id":"a6hbyalo1etj"},"type":"Feature","geometry":{"type":"Point","coordinates":[-77.615833,43.154722]}},{"properties":{"name":"andysafcp","description":"Posted by Vampyre<img src=\"http://media.geocommons.com/platial/img/2009/01/1/andyspic.jpg\">sunderlandhi iam andysafcp<a title=\"Built for Community Mapping\" href=\"http://www.platial.com\"><img src=\"http://media.geocommons.com/platial/images/logotype_small.jpg\"></a>","id":"a6hbyajx9gfn"},"type":"Feature","geometry":{"type":"Point","coordinates":[-1.381453,54.904448]}},{"properties":{"name":"babbit","description":"Posted by VampyrePenrith, Cumbria, UK<a title=\"Built for Community Mapping\" href=\"http://www.platial.com\"><img src=\"http://media.geocommons.com/platial/images/logotype_small.jpg\"></a>","id":"a6hbyacrdhei"},"type":"Feature","geometry":{"type":"Point","coordinates":[-2.754948,54.666686]}},{"properties":{"name":"bingobabe","description":"Posted by VampyreLeicestershire<a title=\"Built for Community Mapping\" href=\"http://www.platial.com\"><img src=\"http://media.geocommons.com/platial/images/logotype_small.jpg\"></a>","id":"a6hbyajt8eod"},"type":"Feature","geometry":{"type":"Point","coordinates":[-1.130826,52.684892]}},{"properties":{"name":"chippy","description":"Posted by VampyreSt. John\\'s Newfoundland<a title=\"Built for Community Mapping\" href=\"http://www.platial.com\"><img src=\"http://media.geocommons.com/platial/images/logotype_small.jpg\"></a>","id":"a6hbyadtp0w9"},"type":"Feature","geometry":{"type":"Point","coordinates":[-52.701129,47.576727]}},{"properties":{"name":"crazybird","description":"Posted by Vampyre<img src=\"http://media.geocommons.com/platial/img/2008/10/0/avat1_2_.jpg\">WASHINGTON, DC<a title=\"Built for Community Mapping\" href=\"http://www.platial.com\"><img src=\"http://media.geocommons.com/platial/images/logotype_small.jpg\"></a>","id":"a6hbyajk2a57"},"type":"Feature","geometry":{"type":"Point","coordinates":[-77.036667,38.895]}},{"properties":{"name":"cucala","description":"Posted by Vampyreegypt<a title=\"Built for Community Mapping\" href=\"http://www.platial.com\"><img src=\"http://media.geocommons.com/platial/images/logotype_small.jpg\"></a>","id":"a6hbyajfn3el"},"type":"Feature","geometry":{"type":"Point","coordinates":[30.802498,26.820553]}},{"properties":{"name":"everton1995 and sweetiepie82","description":"Posted by VampyrewallaseyHey everybody!!!!<a title=\"Built for Community Mapping\" href=\"http://www.platial.com\"><img src=\"http://media.geocommons.com/platial/images/logotype_small.jpg\"></a>","id":"a6hbyaicjeo4"},"type":"Feature","geometry":{"type":"Point","coordinates":[-3.066667,53.433334]}},{"properties":{"name":"folanjo","description":"Posted by VampyreBrentwood, Essex, England<a title=\"Built for Community Mapping\" href=\"http://www.platial.com\"><img src=\"http://media.geocommons.com/platial/images/logotype_small.jpg\"></a>","id":"a6hbyal6hs7w"},"type":"Feature","geometry":{"type":"Point","coordinates":[0.305749,51.621407]}},{"properties":{"name":"ginga","description":"Posted by VampyreNottingham<a title=\"Built for Community Mapping\" href=\"http://www.platial.com\"><img src=\"http://media.geocommons.com/platial/images/logotype_small.jpg\"></a>","id":"a6hbya88rbpb"},"type":"Feature","geometry":{"type":"Point","coordinates":[-1.1493,52.955073]}},{"properties":{"name":"i dont know","description":"Posted by Vampyrepärnuhi &gt;o<a title=\"Built for Community Mapping\" href=\"http://www.platial.com\"><img src=\"http://media.geocommons.com/platial/images/logotype_small.jpg\"></a>","id":"a6hbyab44x65"},"type":"Feature","geometry":{"type":"Point","coordinates":[24.498637,58.386015]}},{"properties":{"name":"idontknow","description":"Posted by Vampyrepärnuhi<a title=\"Built for Community Mapping\" href=\"http://www.platial.com\"><img src=\"http://media.geocommons.com/platial/images/logotype_small.jpg\"></a>","id":"a6hbya9dlo3p"},"type":"Feature","geometry":{"type":"Point","coordinates":[24.498637,58.386015]}},{"properties":{"name":"lee1978","description":"Posted by VampyrewesthayPeace!<a title=\"Built for Community Mapping\" href=\"http://www.platial.com\"><img src=\"http://media.geocommons.com/platial/images/logotype_small.jpg\"></a>","id":"a6hbyadain9g"},"type":"Feature","geometry":{"type":"Point","coordinates":[-2.8169388,51.1741497]}},{"properties":{"name":"ricko","description":"Posted by Vampyre12850 west state road 84, davie, fllovethescene<a title=\"Built for Community Mapping\" href=\"http://www.platial.com\"><img src=\"http://media.geocommons.com/platial/images/logotype_small.jpg\"></a>","id":"a6hbyagom07s"},"type":"Feature","geometry":{"type":"Point","coordinates":[-80.3190791,26.1153706]}},{"properties":{"name":"shawn","description":"Posted by VampyreMonticello, MNhey lts members<a title=\"Built for Community Mapping\" href=\"http://www.platial.com\"><img src=\"http://media.geocommons.com/platial/images/logotype_small.jpg\"></a>","id":"a6hbya5m5unx"},"type":"Feature","geometry":{"type":"Point","coordinates":[-93.797065,45.301622]}},{"properties":{"name":"slinkz","description":"Posted by Vampyrestoke on trent<a title=\"Built for Community Mapping\" href=\"http://www.platial.com\"><img src=\"http://media.geocommons.com/platial/images/logotype_small.jpg\"></a>","id":"a6hbyabtodu4"},"type":"Feature","geometry":{"type":"Point","coordinates":[-2.183333,53.0]}},{"properties":{"name":"td188uk","description":"Posted by Vampyrecatterick<a title=\"Built for Community Mapping\" href=\"http://www.platial.com\"><img src=\"http://media.geocommons.com/platial/images/logotype_small.jpg\"></a>","id":"a6hbyag6k4qd"},"type":"Feature","geometry":{"type":"Point","coordinates":[-1.63012,54.376819]}}],"is_temporal":false,"author":{"url":"http://www.platial.com/map/492991","metadata":null,"contact_name":"vampyre","contact_address":null,"source":"platial:vampyre","contact_phone":null},"source":"http://www.platial.com/map/492991","pagination":{"sort":null,"start":0,"total":36,"limit":1000000},"state":"complete","tags":"platial,platial:id=492991,platial:user=vampyre","published":"2010-03-04T17:00:00Z","id":31670}