{"type":"FeatureCollection","data_type":"Dataset","url_type":null,"permissions":[{"permissions":{"download":true,"view":true},"group_id":"everyone"}],"classification":null,"title":"Salisbury vacant buildings","count":218,"stream_id":326291,"contributor":{"url":"http://geocommons.com/users/63607","name":"jcoxreporter"},"data_attributes":null,"calculation_params":null,"icon_link":null,"link":"http://geocommons.com/overlays/326291.json","extent":[-79.437,38.2485,-75.1538,39.7222],"geometry_types":["point"],"unique_name":null,"name":"Salisbury vacant buildings","feature_count":218,"description":"","next_feature":null,"is_raster":false,"short_classification":"Y","stats":{},"features":[{"properties":{"column_4":null,"column_6":null,"owners name":"REPC &amp; HTC LLC","geo_score":0.847,"original registration date":"4/21/09","id":"acjkpq4tz314","address":"511 Alabama Ave Salisbury, MD","geo_precision":"range","column_3":null},"type":"Feature","geometry":{"type":"Point","coordinates":[-75.609636,38.359072]}},{"properties":{"column_4":null,"column_6":null,"owners name":"REPC &amp; HTC LLC","geo_score":0.847,"original registration date":"4/21/09","id":"acjkpq5wod9x","address":"517 Alabama Ave Salisbury, MD","geo_precision":"range","column_3":null},"type":"Feature","geometry":{"type":"Point","coordinates":[-75.609518,38.358931]}},{"properties":{"column_4":null,"column_6":null,"owners name":"Watkins, Marsha","geo_score":0.516,"original registration date":"3/22/12","id":"acjkpqbkqulh","address":"101 Alexander Ave Salisbury, MD","geo_precision":"city","column_3":null},"type":"Feature","geometry":{"type":"Point","coordinates":[-75.633621,38.382445]}},{"properties":{"column_4":null,"column_6":null,"owners name":"Daric Schroen","geo_score":0.851,"original registration date":"5/10/12","id":"acjkpq40x9fm","address":"710 Alvin Ave Salisbury, MD","geo_precision":"range","column_3":null},"type":"Feature","geometry":{"type":"Point","coordinates":[-75.584519,38.365845]}},{"properties":{"column_4":null,"column_6":null,"owners name":"Asset Protection Trustee Services Trustee","geo_score":0.854,"original registration date":"8/3/10","id":"acjkpqh4d8jo","address":"714 Baker st Salisbury, MD","geo_precision":"range","column_3":null},"type":"Feature","geometry":{"type":"Point","coordinates":[-75.590238,38.372278]}},{"properties":{"column_4":null,"column_6":null,"owners name":"Chandler Trusts LLP","geo_score":0.849,"original registration date":"2/10/09","id":"acjkpq508xcg","address":"309 Barclay St Salisbury, MD","geo_precision":"range","column_3":null},"type":"Feature","geometry":{"type":"Point","coordinates":[-75.590352,38.371323]}},{"properties":{"column_4":null,"column_6":null,"owners name":"Fidel, Ana V","geo_score":0.849,"original registration date":"5/18/10","id":"acjkpqfl02fi","address":"321 Barclay St Salisbury, MD","geo_precision":"range","column_3":null},"type":"Feature","geometry":{"type":"Point","coordinates":[-75.590127,38.370887]}},{"properties":{"column_4":null,"column_6":null,"owners name":"Dean, David (Great Improvements)","geo_score":0.849,"original registration date":"4/11/12","id":"acjkpqeu8inl","address":"333 Barclay St Salisbury, MD","geo_precision":"range","column_3":null},"type":"Feature","geometry":{"type":"Point","coordinates":[-75.589835,38.370416]}},{"properties":{"column_4":null,"column_6":null,"owners name":"Abernathy, Mark H","geo_score":0.847,"original registration date":"12/29/10","id":"acjkpqesgfh6","address":"1009 Bayshore Ct Salisbury, MD","geo_precision":"range","column_3":null},"type":"Feature","geometry":{"type":"Point","coordinates":[-75.56475,38.354862]}},{"properties":{"column_4":null,"column_6":null,"owners name":"Robert Adams/Elizabeth Hess","geo_score":0.854,"original registration date":"1/2/13","id":"acjkpqcxlbo5","address":"1003 Bell Ave Salisbury, MD","geo_precision":"range","column_3":null},"type":"Feature","geometry":{"type":"Point","coordinates":[-75.58088,38.37111]}},{"properties":{"column_4":null,"column_6":null,"owners name":"Tilghman, Merrill &amp; Barrie","geo_score":0.854,"original registration date":"2/23/11","id":"acjkpq7k3fhl","address":"823 Benny St Salisbury, MD","geo_precision":"range","column_3":null},"type":"Feature","geometry":{"type":"Point","coordinates":[-75.586327,38.372749]}},{"properties":{"column_4":null,"column_6":null,"owners name":"Helen Williams","geo_score":0.854,"original registration date":"12/2/10","id":"acjkpq7f7maw","address":"411 Booth St Salisbury, MD","geo_precision":"range","column_3":null},"type":"Feature","geometry":{"type":"Point","coordinates":[-75.603081,38.377008]}},{"properties":{"column_4":null,"column_6":null,"owners name":"Wicomico County Housing Authority","geo_score":0.801,"original registration date":"7/17/09","id":"acjkpqdc81wr","address":"300 Buena Vista Ave Salisbury, MD","geo_precision":"range","column_3":null},"type":"Feature","geometry":{"type":"Point","coordinates":[-75.593228,38.36349]}},{"properties":{"column_4":null,"column_6":null,"owners name":"Wicomico County Housing Authority","geo_score":0.801,"original registration date":"4/15/11","id":"acjkpq5wdsuh","address":"301 Buena Vista Ave Salisbury, MD","geo_precision":"range","column_3":null},"type":"Feature","geometry":{"type":"Point","coordinates":[-75.593866,38.363697]}},{"properties":{"column_4":null,"column_6":null,"owners name":"Wicomico County Housing Authority","geo_score":0.801,"original registration date":"7/17/09","id":"acjkpqc79uw8","address":"309 Buena Vista Ave Salisbury, MD","geo_precision":"range","column_3":null},"type":"Feature","geometry":{"type":"Point","coordinates":[-75.593913,38.363707]}},{"properties":{"column_4":null,"column_6":null,"owners name":"Wicomico County Housing Authority","geo_score":0.801,"original registration date":"11/15/11","id":"acjkpq3vdwad","address":"313 Buena Vista Ave Salisbury, MD","geo_precision":"range","column_3":null},"type":"Feature","geometry":{"type":"Point","coordinates":[-75.593937,38.363713]}},{"properties":{"column_4":null,"column_6":null,"owners name":"Chance Properties LLC","geo_score":0.849,"original registration date":"10/16/08","id":"acjkpqiq1t2x","address":"329 Camden Ave Salisbury, MD","geo_precision":"range","column_3":null},"type":"Feature","geometry":{"type":"Point","coordinates":[-75.603996,38.363611]}},{"properties":{"column_4":null,"column_6":null,"owners name":"Generations Resort Properties, Inc","geo_score":0.849,"original registration date":"1/6/09","id":"acjkpqb3vpat","address":"607 Camden Ave Salisbury, MD","geo_precision":"range","column_3":null},"type":"Feature","geometry":{"type":"Point","coordinates":[-75.605032,38.359296]}},{"properties":{"column_4":null,"column_6":null,"owners name":"Shore Bank/ Bank of Hampton Roads","geo_score":0.849,"original registration date":"10/27/10","id":"acjkpqa9519b","address":"511 Camden Ave Salisbury, MD","geo_precision":"range","column_3":null},"type":"Feature","geometry":{"type":"Point","coordinates":[-75.604482,38.361312]}},{"properties":{"column_4":null,"column_6":null,"owners name":"Fannie Mae","geo_score":0.843,"original registration date":"2/13/13","id":"acjkpqgry5bu","address":"229 Canal Park Dr  Salisbury, MD","geo_precision":"range","column_3":null},"type":"Feature","geometry":{"type":"Point","coordinates":[-75.609146,38.33357]}},{"properties":{"column_4":null,"column_6":null,"owners name":"Russell, Susan","geo_score":0.843,"original registration date":"2/19/13","id":"acjkpqem1u8c","address":"713 Canvasback Ct Salisbury, MD","geo_precision":"range","column_3":null},"type":"Feature","geometry":{"type":"Point","coordinates":[-75.568199,38.353267]}},{"properties":{"column_4":null,"column_6":null,"owners name":"Kinsall, Theodore and Amy","geo_score":0.517,"original registration date":"8/5/11","id":"acjkpqh8zjv6","address":"212 Castlebar Dr Salisbury, MD","geo_precision":"city","column_3":null},"type":"Feature","geometry":{"type":"Point","coordinates":[-75.633621,38.382445]}},{"properties":{"column_4":null,"column_6":null,"owners name":"Dashiell, Valencia","geo_score":0.778,"original registration date":"3/30/12","id":"acjkpq8pucop","address":"106 Catherine Salisbury, MD","geo_precision":"range","column_3":null},"type":"Feature","geometry":{"type":"Point","coordinates":[-75.611688,38.366559]}},{"properties":{"column_4":null,"column_6":null,"owners name":"Breeding, Brandon L","geo_score":0.854,"original registration date":"5/18/09","id":"acjkpqiqhuga","address":"1006 Cecil St Salisbury, MD","geo_precision":"range","column_3":null},"type":"Feature","geometry":{"type":"Point","coordinates":[-75.592965,38.349574]}},{"properties":{"column_4":null,"column_6":null,"owners name":"Dukes, Michael","geo_score":0.845,"original registration date":"1/14/13","id":"acjkpq55zchy","address":"107 Centenary Dr Salisbury, MD","geo_precision":"range","column_3":null},"type":"Feature","geometry":{"type":"Point","coordinates":[-75.575207,38.373274]}},{"properties":{"column_4":null,"column_6":null,"owners name":"Niblett, Maurice","geo_score":0.751,"original registration date":"3/27/12","id":"acjkpqd8t7nk","address":"1412 Chateau Dr Salisbury, MD","geo_precision":"street","column_3":null},"type":"Feature","geometry":{"type":"Point","coordinates":[-75.632835,38.353951]}},{"properties":{"column_4":null,"column_6":null,"owners name":"Afridi, Salman","geo_score":0.851,"original registration date":"6/25/12","id":"acjkpqidmx5a","address":"109 Cherry St Salisbury, MD","geo_precision":"range","column_3":null},"type":"Feature","geometry":{"type":"Point","coordinates":[-75.593733,38.374426]}},{"properties":{"column_4":null,"column_6":null,"owners name":"GNI Properties","geo_score":0.516,"original registration date":"8/1/12","id":"acjkpqbu1orn","address":"406 Clairborne St Salisbury, MD","geo_precision":"city","column_3":null},"type":"Feature","geometry":{"type":"Point","coordinates":[-75.633621,38.382445]}},{"properties":{"column_4":null,"column_6":null,"owners name":"Cannon Property Management","geo_score":0.845,"original registration date":"9/8/11","id":"acjkpq5ml1mj","address":"410 Claiborne St Salisbury, MD","geo_precision":"range","column_3":null},"type":"Feature","geometry":{"type":"Point","coordinates":[-75.605203,38.370839]}},{"properties":{"column_4":null,"column_6":null,"owners name":"Myers, Kathryn E &amp; Leslie A","geo_score":0.857,"original registration date":"3/17/08","id":"acjkpqg51seh","address":"208 Clay St Salisbury, MD","geo_precision":"range","column_3":null},"type":"Feature","geometry":{"type":"Point","coordinates":[-75.585313,38.371226]}},{"properties":{"column_4":null,"column_6":null,"owners name":"SMS Real Estate, LLC","geo_score":0.556,"original registration date":"8/18/10","id":"acjkpq84160i","address":"200   (aka350) Cypress St Salisbury, MD","geo_precision":"range","column_3":null},"type":"Feature","geometry":{"type":"Point","coordinates":[-75.607238,38.365891]}},{"properties":{"column_4":null,"column_6":null,"owners name":"Wicomico County Housing Authority","geo_score":0.845,"original registration date":null,"id":"acjkpqdz926a","address":"147 Davis Street Salisbury, MD","geo_precision":"range","column_3":null},"type":"Feature","geometry":{"type":"Point","coordinates":[-75.588818,38.369091]}},{"properties":{"column_4":null,"column_6":null,"owners name":"Cheryl Banks","geo_score":0.847,"original registration date":"1/17/12","id":"acjkpq73a2q6","address":"301 Decatur Ave Salisbury, MD","geo_precision":"range","column_3":null},"type":"Feature","geometry":{"type":"Point","coordinates":[-75.582735,38.376708]}},{"properties":{"column_4":null,"column_6":null,"owners name":"Wicomico County Housing Authority","geo_score":0.847,"original registration date":"3/23/09","id":"acjkpqig300t","address":"511 Decatur Ave Salisbury, MD","geo_precision":"range","column_3":null},"type":"Feature","geometry":{"type":"Point","coordinates":[-75.58288,38.379242]}},{"properties":{"column_4":null,"column_6":null,"owners name":"Wright, David E &amp; Portia F","geo_score":0.845,"original registration date":"6/17/10","id":"acjkpq53otom","address":"151 Delaware Ave Salisbury, MD","geo_precision":"range","column_3":null},"type":"Feature","geometry":{"type":"Point","coordinates":[-75.610532,38.366599]}},{"properties":{"column_4":null,"column_6":null,"owners name":"Briddell, Laverne","geo_score":0.845,"original registration date":"7/3/12","id":"acjkpqc448ps","address":"216 Delaware Ave Salisbury, MD","geo_precision":"range","column_3":null},"type":"Feature","geometry":{"type":"Point","coordinates":[-75.610165,38.367706]}},{"properties":{"column_4":null,"column_6":null,"owners name":"Purnell, Mary","geo_score":0.845,"original registration date":"3/19/12","id":"acjkpqj6qhiq","address":"329 Delaware Ave Salisbury, MD","geo_precision":"range","column_3":null},"type":"Feature","geometry":{"type":"Point","coordinates":[-75.608292,38.370191]}},{"properties":{"column_4":null,"column_6":null,"owners name":"Parker Brothers","geo_score":0.845,"original registration date":"7/2/12","id":"acjkpqc6pcdf","address":"419 Delaware Ave Salisbury, MD","geo_precision":"range","column_3":null},"type":"Feature","geometry":{"type":"Point","coordinates":[-75.607011,38.371429]}},{"properties":{"column_4":null,"column_6":null,"owners name":"Kornegay, Terry","geo_score":0.845,"original registration date":"2/10/12","id":"acjkpq9pz1pz","address":"420 Delaware Ave Salisbury, MD","geo_precision":"range","column_3":null},"type":"Feature","geometry":{"type":"Point","coordinates":[-75.607141,38.371506]}},{"properties":{"column_4":null,"column_6":null,"owners name":"Patton, Ethea","geo_score":0.854,"original registration date":"12/9/11","id":"acjkpqfl6hge","address":"403 Dover St Salisbury, MD","geo_precision":"range","column_3":null},"type":"Feature","geometry":{"type":"Point","coordinates":[-75.58374,38.376286]}},{"properties":{"column_4":null,"column_6":null,"owners name":"D'Acquisto, Anthony","geo_score":0.854,"original registration date":"1/28/13","id":"acjkpqi4ed11","address":"636 Dover St Salisbury, MD","geo_precision":"range","column_3":null},"type":"Feature","geometry":{"type":"Point","coordinates":[-75.585445,38.380989]}},{"properties":{"column_4":null,"column_6":null,"owners name":"Miller, Christopher &amp; Kimberly","geo_score":0.845,"original registration date":"10/4/11","id":"acjkpq7iljgc","address":"203 Elizabeth St Salisbury, MD","geo_precision":"range","column_3":null},"type":"Feature","geometry":{"type":"Point","coordinates":[-75.59564,38.371357]}},{"properties":{"column_4":null,"column_6":null,"owners name":"Lasinski, Matthew","geo_score":0.845,"original registration date":"2/13/13","id":"acjkpqgf16yl","address":"208 Elizabeth St Salisbury, MD","geo_precision":"range","column_3":null},"type":"Feature","geometry":{"type":"Point","coordinates":[-75.595629,38.37119]}},{"properties":{"column_4":null,"column_6":null,"owners name":"Sharoff, David","geo_score":0.845,"original registration date":"8/26/10","id":"acjkpq531i6x","address":"210 Elizabeth St Salisbury, MD","geo_precision":"range","column_3":null},"type":"Feature","geometry":{"type":"Point","coordinates":[-75.595606,38.37118]}},{"properties":{"column_4":null,"column_6":null,"owners name":"Leonard, James R","geo_score":0.845,"original registration date":"8/10/10","id":"acjkpq5f0mvo","address":"410 Elizabeth St Salisbury, MD","geo_precision":"range","column_3":null},"type":"Feature","geometry":{"type":"Point","coordinates":[-75.592361,38.370073]}},{"properties":{"column_4":null,"column_6":null,"owners name":"Workman, Howard","geo_score":0.845,"original registration date":"9/21/11","id":"acjkpq4xdofe","address":"412 Elizabeth St Salisbury, MD","geo_precision":"range","column_3":null},"type":"Feature","geometry":{"type":"Point","coordinates":[-75.592161,38.370029]}},{"properties":{"column_4":null,"column_6":null,"owners name":"Willey, Perry W","geo_score":0.845,"original registration date":"2/12/10","id":"acjkpqbc7fq1","address":"414 Elizabeth St Salisbury, MD","geo_precision":"range","column_3":null},"type":"Feature","geometry":{"type":"Point","coordinates":[-75.592063,38.369983]}},{"properties":{"column_4":null,"column_6":null,"owners name":"Wicomico County Housing Authority","geo_score":0.8,"original registration date":"7/17/09","id":"acjkpq8fjbhl","address":"310 E Carol St Salisbury, MD","geo_precision":"range","column_3":null},"type":"Feature","geometry":{"type":"Point","coordinates":[-75.59491,38.363102]}},{"properties":{"column_4":null,"column_6":null,"owners name":"Weldon, William","geo_score":0.847,"original registration date":"11/17/10","id":"acjkpqfs1tnl","address":"519 E Church St Salisbury, MD","geo_precision":"range","column_3":null},"type":"Feature","geometry":{"type":"Point","coordinates":[-75.592152,38.369553]}},{"properties":{"column_4":null,"column_6":null,"owners name":"Leonard, James R","geo_score":0.847,"original registration date":"8/10/10","id":"acjkpqi01j09","address":"600 E. Church St Salisbury, MD","geo_precision":"range","column_3":null},"type":"Feature","geometry":{"type":"Point","coordinates":[-75.590736,38.370055]}},{"properties":{"column_4":null,"column_6":null,"owners name":"Leonard, James R","geo_score":0.847,"original registration date":"8/10/10","id":"acjkpqa2cf3f","address":"604 E Church St Salisbury, MD","geo_precision":"range","column_3":null},"type":"Feature","geometry":{"type":"Point","coordinates":[-75.590814,38.369942]}},{"properties":{"column_4":null,"column_6":null,"owners name":"Denisof, Gerald","geo_score":0.847,"original registration date":"11/9/09","id":"acjkpq3nttae","address":"711 E Church St Salisbury, MD","geo_precision":"range","column_3":null},"type":"Feature","geometry":{"type":"Point","coordinates":[-75.589619,38.370505]}},{"properties":{"column_4":null,"column_6":null,"owners name":"Shores, Charles","geo_score":0.847,"original registration date":"10/17/11","id":"acjkpqbqrg9s","address":"816 E Church St Salisbury, MD","geo_precision":"range","column_3":null},"type":"Feature","geometry":{"type":"Point","coordinates":[-75.585933,38.371698]}},{"properties":{"column_4":null,"column_6":null,"owners name":"Louis, Marie &amp; Ernest","geo_score":0.847,"original registration date":"1/11/11","id":"acjkpq6c4c8n","address":"1121 E Church St Salisbury, MD","geo_precision":"range","column_3":null},"type":"Feature","geometry":{"type":"Point","coordinates":[-75.576646,38.373294]}},{"properties":{"column_4":null,"column_6":null,"owners name":"Fields, Jesse &amp; Ivy","geo_score":0.847,"original registration date":"6/9/10","id":"acjkpq56z2av","address":"1123 E Church St Salisbury, MD","geo_precision":"range","column_3":null},"type":"Feature","geometry":{"type":"Point","coordinates":[-75.576713,38.373289]}},{"properties":{"column_4":null,"column_6":null,"owners name":"Clark, Eve Elizabeth","geo_score":0.843,"original registration date":"10/28/08","id":"acjkpq5lcvph","address":"311 E College Ave Salisbury, MD","geo_precision":"range","column_3":null},"type":"Feature","geometry":{"type":"Point","coordinates":[-75.593905,38.347899]}},{"properties":{"column_4":null,"column_6":null,"owners name":"Atkinson, Charles &amp; Nancy","geo_score":0.843,"original registration date":"1/7/10","id":"acjkpqf1gb32","address":"317 E College Ave Salisbury, MD","geo_precision":"range","column_3":null},"type":"Feature","geometry":{"type":"Point","coordinates":[-75.593376,38.347893]}},{"properties":{"column_4":null,"column_6":null,"owners name":"Miska Jean Baptiste &amp; Habacuc Petion","geo_score":0.843,"original registration date":"12/14/11","id":"acjkpqcwhxln","address":"108 E Isabella St Salisbury, MD","geo_precision":"range","column_3":null},"type":"Feature","geometry":{"type":"Point","coordinates":[-75.598179,38.371107]}},{"properties":{"column_4":null,"column_6":null,"owners name":"Hales, Edward &amp; Reba","geo_score":0.843,"original registration date":"6/22/10","id":"acjkpqd8i3oc","address":"507 E Isabella St Salisbury, MD","geo_precision":"range","column_3":null},"type":"Feature","geometry":{"type":"Point","coordinates":[-75.592476,38.369318]}},{"properties":{"column_4":null,"column_6":null,"owners name":"Thorpe, Ronald","geo_score":0.843,"original registration date":"5/17/10","id":"acjkpq9dew26","address":"409 E Lincoln Ave Salisbury, MD","geo_precision":"range","column_3":null},"type":"Feature","geometry":{"type":"Point","coordinates":[-75.592234,38.354008]}},{"properties":{"column_4":null,"column_6":null,"owners name":"Wicomico County Housing Authority","geo_score":0.847,"original registration date":"7/17/10","id":"acjkpqk38zos","address":"313 E Locust St Salisbury, MD","geo_precision":"range","column_3":null},"type":"Feature","geometry":{"type":"Point","coordinates":[-75.594475,38.362457]}},{"properties":{"column_4":null,"column_6":null,"owners name":"Richard Harrington","geo_score":0.851,"original registration date":"1/14/13","id":"acjkpqhoda5y","address":"309 E Main St Salisbury, MD","geo_precision":"range","column_3":null},"type":"Feature","geometry":{"type":"Point","coordinates":[-75.595457,38.365912]}},{"properties":{"column_4":null,"column_6":null,"owners name":"830 East Main Street LLC","geo_score":0.851,"original registration date":"7/20/10","id":"acjkpqipb6ud","address":"830 E Main St Salisbury, MD","geo_precision":"range","column_3":null},"type":"Feature","geometry":{"type":"Point","coordinates":[-75.583466,38.367448]}},{"properties":{"column_4":null,"column_6":null,"owners name":"Gallagher, Donald","geo_score":0.836,"original registration date":"3/19/12","id":"acjkpqjckull","address":"111 E Philadelphia Ave Salisbury, MD","geo_precision":"range","column_3":null},"type":"Feature","geometry":{"type":"Point","coordinates":[-75.593496,38.372704]}},{"properties":{"column_4":null,"column_6":null,"owners name":"McFadden, Rhonda &amp; Kendrick","geo_score":0.847,"original registration date":"10/12/11","id":"acjkpq941yfm","address":"1411 E Upland Dr Salisbury, MD","geo_precision":"range","column_3":null},"type":"Feature","geometry":{"type":"Point","coordinates":[-75.634066,38.356677]}},{"properties":{"column_4":null,"column_6":null,"owners name":"Corry Properties","geo_score":0.851,"original registration date":"1/30/13","id":"acjkpqfic83m","address":"312 E Vine St Salisbury, MD","geo_precision":"range","column_3":null},"type":"Feature","geometry":{"type":"Point","coordinates":[-75.59355,38.359875]}},{"properties":{"column_4":null,"column_6":null,"owners name":"Hardin, William","geo_score":0.851,"original registration date":"8/6/08","id":"acjkpqby1tit","address":"429 E Vine St Salisbury, MD","geo_precision":"range","column_3":null},"type":"Feature","geometry":{"type":"Point","coordinates":[-75.590978,38.359035]}},{"properties":{"column_4":null,"column_6":null,"owners name":"CPCA Trust 1","geo_score":0.845,"original registration date":"1/24/11","id":"acjkpqjxnbdc","address":"306 E William St Salisbury, MD","geo_precision":"range","column_3":null},"type":"Feature","geometry":{"type":"Point","coordinates":[-75.596505,38.369468]}},{"properties":{"column_4":null,"column_6":null,"owners name":"Mary Matra","geo_score":0.845,"original registration date":"5/18/12","id":"acjkpq9qp7al","address":"309 E William St Salisbury, MD","geo_precision":"range","column_3":null},"type":"Feature","geometry":{"type":"Point","coordinates":[-75.596421,38.369595]}},{"properties":{"column_4":null,"column_6":null,"owners name":"Baptise, Miska Jean &amp; Petion Habacuc","geo_score":0.845,"original registration date":"4/8/10","id":"acjkpqdegm3k","address":"515 E William St Salisbury, MD","geo_precision":"range","column_3":null},"type":"Feature","geometry":{"type":"Point","coordinates":[-75.592331,38.36818]}},{"properties":{"column_4":null,"column_6":null,"owners name":"Clark, Eve Elizabeth","geo_score":0.845,"original registration date":"4/7/10","id":"acjkpqbv6zl3","address":"531 E William St Salisbury, MD","geo_precision":"range","column_3":null},"type":"Feature","geometry":{"type":"Point","coordinates":[-75.592109,38.368085]}},{"properties":{"column_4":null,"column_6":null,"owners name":"Rutledge, Kris and Kathleen","geo_score":0.62,"original registration date":"1/9/12","id":"acjkpq6k4fgh","address":"1115 Fairview Dr Salisbury, MD","geo_precision":"street","column_3":null},"type":"Feature","geometry":{"type":"Point","coordinates":[-77.891104,39.722156]}},{"properties":{"column_4":null,"column_6":null,"owners name":"Salvatore &amp; Donna Difrancesca","geo_score":0.537,"original registration date":"10/19/12","id":"acjkpqht64sw","address":"1006 Fairwinds Ct. Salisbury, MD","geo_precision":"street","column_3":null},"type":"Feature","geometry":{"type":"Point","coordinates":[-76.762405,39.333473]}},{"properties":{"column_4":null,"column_6":null,"owners name":"Allen, Bobbie Jo","geo_score":0.847,"original registration date":"7/16/12","id":"acjkpq7di2ph","address":"729 Ferndale Rd Salisbury, MD","geo_precision":"range","column_3":null},"type":"Feature","geometry":{"type":"Point","coordinates":[-75.597151,38.374101]}},{"properties":{"column_4":null,"column_6":null,"owners name":"Hull, Gail","geo_score":0.756,"original registration date":"7/2/12","id":"acjkpqbbyst4","address":"120 First St Salisbury, MD","geo_precision":"range","column_3":null},"type":"Feature","geometry":{"type":"Point","coordinates":[-75.609804,38.365387]}},{"properties":{"column_4":null,"column_6":null,"owners name":"Dashiells, Anna E","geo_score":0.659,"original registration date":"2/27/09","id":"acjkpq9s9o64","address":"127-129 First St Salisbury, MD","geo_precision":"range","column_3":null},"type":"Feature","geometry":{"type":"Point","coordinates":[-75.6091,38.366136]}},{"properties":{"column_4":null,"column_6":null,"owners name":"Robinson, Franklin","geo_score":0.845,"original registration date":"6/11/08","id":"acjkpqdkm29z","address":"675 Fitzwater St Salisbury, MD","geo_precision":"range","column_3":null},"type":"Feature","geometry":{"type":"Point","coordinates":[-75.610144,38.364022]}},{"properties":{"column_4":null,"column_6":null,"owners name":"Richardson, Major","geo_score":0.845,"original registration date":"6/11/08","id":"acjkpqgebl8t","address":"687 Fitzwater St Salisbury, MD","geo_precision":"range","column_3":null},"type":"Feature","geometry":{"type":"Point","coordinates":[-75.610767,38.363824]}},{"properties":{"column_4":null,"column_6":null,"owners name":"Weaver, Joana","geo_score":0.847,"original registration date":"8/10/09","id":"acjkpqdvyulg","address":"501 Georgia Ave Salisbury, MD","geo_precision":"range","column_3":null},"type":"Feature","geometry":{"type":"Point","coordinates":[-75.606802,38.356778]}},{"properties":{"column_4":null,"column_6":null,"owners name":"Hudson, Dolores Ann Trustee","geo_score":0.845,"original registration date":"2/29/08","id":"acjkpq8yhj9a","address":"624 Germania Cir Salisbury, MD","geo_precision":"range","column_3":null},"type":"Feature","geometry":{"type":"Point","coordinates":[-75.608182,38.36525]}},{"properties":{"column_4":null,"column_6":null,"owners name":"Wicomico County Housing Authority","geo_score":0.854,"original registration date":"7/17/09","id":"acjkpqfxy9hv","address":"709 Grace St Salisbury, MD","geo_precision":"range","column_3":null},"type":"Feature","geometry":{"type":"Point","coordinates":[-75.586732,38.368889]}},{"properties":{"column_4":null,"column_6":null,"owners name":"Foskey, David","geo_score":0.854,"original registration date":"10/4/11","id":"acjkpqhow6hn","address":"207 Glen Ave Salisbury, MD","geo_precision":"range","column_3":null},"type":"Feature","geometry":{"type":"Point","coordinates":[-75.584444,38.364434]}},{"properties":{"column_4":null,"column_6":null,"owners name":"Weldon, Kami","geo_score":0.849,"original registration date":"10/12/10","id":"acjkpqffy3gg","address":"306 Hammond St Salisbury, MD","geo_precision":"range","column_3":null},"type":"Feature","geometry":{"type":"Point","coordinates":[-75.57997,38.373401]}},{"properties":{"column_4":null,"column_6":null,"owners name":"Patel, Vipin M","geo_score":0.717,"original registration date":"5/18/09","id":"acjkpqd93xdg","address":"1503 Handy's Meadow Dr Salisbury, MD","geo_precision":"range","column_3":null},"type":"Feature","geometry":{"type":"Point","coordinates":[-75.631278,38.351887]}},{"properties":{"column_4":null,"column_6":null,"owners name":"Disney, Darren","geo_score":0.847,"original registration date":"1/14/11","id":"acjkpqig5eyt","address":"405 Hastings St. Salisbury, MD","geo_precision":"range","column_3":null},"type":"Feature","geometry":{"type":"Point","coordinates":[-75.591635,38.361201]}},{"properties":{"column_4":null,"column_6":null,"owners name":"Phippin, Barry","geo_score":0.847,"original registration date":"7/3/12","id":"acjkpqgd2w6l","address":"407 Hastings St. Salisbury, MD","geo_precision":"range","column_3":null},"type":"Feature","geometry":{"type":"Point","coordinates":[-75.591645,38.361163]}},{"properties":{"column_4":null,"column_6":null,"owners name":"Chen, Xudong","geo_score":0.851,"original registration date":"2/6/13","id":"acjkpqeen46o","address":"224 Hazel Ave Salisbury, MD","geo_precision":"range","column_3":null},"type":"Feature","geometry":{"type":"Point","coordinates":[-75.603685,38.356869]}},{"properties":{"column_4":null,"column_6":null,"owners name":"Quicken Loans LLC","geo_score":0.854,"original registration date":"10/19/12","id":"acjkpq5dd24a","address":"1006 Heron Ct  Salisbury, MD","geo_precision":"range","column_3":null},"type":"Feature","geometry":{"type":"Point","coordinates":[-75.565341,38.356099]}},{"properties":{"column_4":null,"column_6":null,"owners name":"Oscar Emerson W Jr.","geo_score":0.371,"original registration date":"10/19/12","id":"acjkpqel09jo","address":"1436 Hidden Meadow Ln Salisbury, MD","geo_precision":"street","column_3":null},"type":"Feature","geometry":{"type":"Point","coordinates":[-79.437013,39.334699]}},{"properties":{"column_4":null,"column_6":null,"owners name":"GNI Properties","geo_score":0.857,"original registration date":"4/13/12","id":"acjkpq5uwtjw","address":"610 Hill St Salisbury, MD","geo_precision":"range","column_3":null},"type":"Feature","geometry":{"type":"Point","coordinates":[-75.609844,38.364309]}},{"properties":{"column_4":null,"column_6":null,"owners name":"Antoinette Giordano","geo_score":0.847,"original registration date":"8/7/12","id":"acjkpq7ht4n6","address":"128 Holland Ave Salisbury, MD","geo_precision":"range","column_3":null},"type":"Feature","geometry":{"type":"Point","coordinates":[-75.5828,38.370106]}},{"properties":{"column_4":null,"column_6":null,"owners name":"Reyes, Jose &amp; Maria","geo_score":0.854,"original registration date":"2/14/09","id":"acjkpqg38z9o","address":"622 Homer St Salisbury, MD","geo_precision":"range","column_3":null},"type":"Feature","geometry":{"type":"Point","coordinates":[-75.584626,38.381981]}},{"properties":{"column_4":null,"column_6":null,"owners name":"Machining Technologies Inc. T/A Matech Inc./Manu Support Ind","geo_score":0.854,"original registration date":"1/19/10","id":"acjkpqgiqmgk","address":"635 Homer St Salisbury, MD","geo_precision":"range","column_3":null},"type":"Feature","geometry":{"type":"Point","coordinates":[-75.584367,38.381571]}},{"properties":{"column_4":null,"column_6":null,"owners name":"US Bank National Association Trustee","geo_score":0.519,"original registration date":"3/21/11","id":"acjkpq99u6xm","address":"729 Jackson St Salisbury, MD","geo_precision":"city","column_3":null},"type":"Feature","geometry":{"type":"Point","coordinates":[-75.633621,38.382445]}},{"properties":{"column_4":null,"column_6":null,"owners name":"US Bank National Association Trustee","geo_score":0.845,"original registration date":"1/8/13","id":"acjkpqgz7mhw","address":"309 Jefferson St Salisbury, MD","geo_precision":"range","column_3":null},"type":"Feature","geometry":{"type":"Point","coordinates":[-75.580565,38.374005]}},{"properties":{"column_4":null,"column_6":null,"owners name":"Denisof, Gerald","geo_score":0.845,"original registration date":"6/10/11","id":"acjkpqbiwh1f","address":"403 Jefferson St Salisbury, MD","geo_precision":"range","column_3":null},"type":"Feature","geometry":{"type":"Point","coordinates":[-75.580984,38.376536]}},{"properties":{"column_4":null,"column_6":null,"owners name":"Nutter, William","geo_score":0.845,"original registration date":"11/9/11","id":"acjkpq3w1xlh","address":"521 Jefferson St Salisbury, MD","geo_precision":"range","column_3":null},"type":"Feature","geometry":{"type":"Point","coordinates":[-75.581249,38.378376]}},{"properties":{"column_4":null,"column_6":null,"owners name":"Wicomico County Housing Authority","geo_score":0.845,"original registration date":"5/18/12","id":"acjkpqadvlpb","address":"627 Jefferson St Salisbury, MD","geo_precision":"range","column_3":null},"type":"Feature","geometry":{"type":"Point","coordinates":[-75.581572,38.380481]}},{"properties":{"column_4":null,"column_6":null,"owners name":"Wicomico County Housing Authority","geo_score":0.845,"original registration date":"7/17/09","id":"acjkpqbgdppp","address":"700 Jefferson St Salisbury, MD","geo_precision":"range","column_3":null},"type":"Feature","geometry":{"type":"Point","coordinates":[-75.581745,38.382768]}},{"properties":{"column_4":null,"column_6":null,"owners name":"Lowe, Elmer &amp; Jackie","geo_score":0.849,"original registration date":"9/9/10","id":"acjkpq92e1au","address":"922 Johnson St Salisbury, MD","geo_precision":"range","column_3":null},"type":"Feature","geometry":{"type":"Point","coordinates":[-75.58296,38.37931]}},{"properties":{"column_4":null,"column_6":null,"owners name":"Jackson, Orville &amp; Marjorie","geo_score":0.857,"original registration date":"5/20/09","id":"acjkpq68vfc8","address":"223 Lake St Salisbury, MD","geo_precision":"range","column_3":null},"type":"Feature","geometry":{"type":"Point","coordinates":[-75.60485,38.366867]}},{"properties":{"column_4":null,"column_6":null,"owners name":"Salkap, LLC","geo_score":0.857,"original registration date":"5/22/12","id":"acjkpqd3e3ae","address":"317 Lake St Salisbury, MD","geo_precision":"range","column_3":null},"type":"Feature","geometry":{"type":"Point","coordinates":[-75.604476,38.368585]}},{"properties":{"column_4":null,"column_6":null,"owners name":"Wicomico County Housing Authority","geo_score":0.857,"original registration date":"7/17/09","id":"acjkpq5m5fbs","address":"607 Lake St Salisbury, MD","geo_precision":"range","column_3":null},"type":"Feature","geometry":{"type":"Point","coordinates":[-75.603413,38.374418]}},{"properties":{"column_4":null,"column_6":null,"owners name":"Wicomico County Housing Authority","geo_score":0.857,"original registration date":"7/17/09","id":"acjkpqdm4xc0","address":"609 Lake St Salisbury, MD","geo_precision":"range","column_3":null},"type":"Feature","geometry":{"type":"Point","coordinates":[-75.603387,38.374166]}},{"properties":{"column_4":null,"column_6":null,"owners name":"Wicomico County Housing Authority","geo_score":0.857,"original registration date":"7/17/09","id":"acjkpqjolayw","address":"611 Lake St Salisbury, MD","geo_precision":"range","column_3":null},"type":"Feature","geometry":{"type":"Point","coordinates":[-75.603418,38.373922]}},{"properties":{"column_4":null,"column_6":null,"owners name":"Wicomico County Housing Authority","geo_score":0.857,"original registration date":"9/28/10","id":"acjkpqedebit","address":"613 Lake St Salisbury, MD","geo_precision":"range","column_3":null},"type":"Feature","geometry":{"type":"Point","coordinates":[-75.60345,38.373678]}},{"properties":{"column_4":null,"column_6":null,"owners name":"Strosnider, John","geo_score":0.857,"original registration date":"9/6/11","id":"acjkpqftnbb0","address":"801 Lake St Salisbury, MD","geo_precision":"range","column_3":null},"type":"Feature","geometry":{"type":"Point","coordinates":[-75.603184,38.377252]}},{"properties":{"column_4":null,"column_6":null,"owners name":"N&amp;D Enterprises LLC","geo_score":0.847,"original registration date":"2/3/12","id":"acjkpqjw6jiw","address":"603 Lakeside Dr Salisbury, MD","geo_precision":"range","column_3":null},"type":"Feature","geometry":{"type":"Point","coordinates":[-75.599607,38.373889]}},{"properties":{"column_4":null,"column_6":null,"owners name":"Moore, Henrietta","geo_score":0.847,"original registration date":"11/6/09","id":"acjkpq9fkkk7","address":"701 Lakeside Dr Salisbury, MD","geo_precision":"range","column_3":null},"type":"Feature","geometry":{"type":"Point","coordinates":[-75.599623,38.373965]}},{"properties":{"column_4":null,"column_6":null,"owners name":"Badaki, Rebekah","geo_score":0.849,"original registration date":"6/29/12","id":"acjkpq62dghb","address":"425 Liberty St Salisbury, MD","geo_precision":"range","column_3":null},"type":"Feature","geometry":{"type":"Point","coordinates":[-75.584976,38.377143]}},{"properties":{"column_4":null,"column_6":null,"owners name":"George O. Lokey","geo_score":0.849,"original registration date":"9/17/12","id":"acjkpq9c4i9m","address":"609 Liberty St Salisbury, MD","geo_precision":"range","column_3":null},"type":"Feature","geometry":{"type":"Point","coordinates":[-75.58629,38.381166]}},{"properties":{"column_4":null,"column_6":null,"owners name":"Jarmon, James &amp; Mabel","geo_score":0.849,"original registration date":"3/2/10","id":"acjkpq8cwnt4","address":"611 Liberty St Salisbury, MD","geo_precision":"range","column_3":null},"type":"Feature","geometry":{"type":"Point","coordinates":[-75.586274,38.381104]}},{"properties":{"column_4":null,"column_6":null,"owners name":"Vinca, Michael &amp; Aimee","geo_score":0.362,"original registration date":"6/6/11","id":"acjkpqc4b3b6","address":"611 Light St Salisbury, MD","geo_precision":"street","column_3":null},"type":"Feature","geometry":{"type":"Point","coordinates":[-75.153778,38.248526]}},{"properties":{"column_4":null,"column_6":null,"owners name":"Nichols, Howard &amp; Tina","geo_score":0.802,"original registration date":"8/16/11","id":"acjkpq51m1e1","address":"211 Lincoln Ave Salisbury, MD","geo_precision":"range","column_3":null},"type":"Feature","geometry":{"type":"Point","coordinates":[-75.594627,38.355501]}},{"properties":{"column_4":null,"column_6":null,"owners name":"Harris, Susanna","geo_score":0.515,"original registration date":"11/14/11","id":"acjkpqhr65do","address":"420 Lindenhurst Ct Salisbury, MD","geo_precision":"city","column_3":null},"type":"Feature","geometry":{"type":"Point","coordinates":[-75.633621,38.382445]}},{"properties":{"column_4":null,"column_6":null,"owners name":"Adams, Kevin &amp; Kristine","geo_score":0.849,"original registration date":"2/14/11","id":"acjkpq6wfapd","address":"701 Madison St Salisbury, MD","geo_precision":"range","column_3":null},"type":"Feature","geometry":{"type":"Point","coordinates":[-75.593919,38.357903]}},{"properties":{"column_4":null,"column_6":null,"owners name":"Lavern Taylor","geo_score":0.849,"original registration date":"11/16/12","id":"acjkpqbeuoyh","address":"703 Madison St Salisbury, MD","geo_precision":"range","column_3":null},"type":"Feature","geometry":{"type":"Point","coordinates":[-75.593892,38.3577]}},{"properties":{"column_4":null,"column_6":null,"owners name":"Caceres, Carina","geo_score":0.854,"original registration date":"12/29/09","id":"acjkpqdlwi9l","address":"604 Manor Dr Salisbury, MD","geo_precision":"range","column_3":null},"type":"Feature","geometry":{"type":"Point","coordinates":[-75.615259,38.352953]}},{"properties":{"column_4":null,"column_6":null,"owners name":"Caceres, Carina","geo_score":0.74,"original registration date":"1/6/12","id":"acjkpqj5pwtb","address":"203 Marshall St Salisbury, MD","geo_precision":"range","column_3":null},"type":"Feature","geometry":{"type":"Point","coordinates":[-75.586299,38.371009]}},{"properties":{"column_4":null,"column_6":null,"owners name":"Bogman Inc","geo_score":0.573,"original registration date":"11/26/12","id":"acjkpqim2f6x","address":"803 Marquis Ave Salisbury, MD","geo_precision":"street","column_3":null},"type":"Feature","geometry":{"type":"Point","coordinates":[-75.622442,38.392437]}},{"properties":{"column_4":null,"column_6":null,"owners name":"Tabe Kendema","geo_score":0.781,"original registration date":"8/27/12","id":"acjkpqad7h5a","address":"811 Meadow Point Rd Salisbury, MD","geo_precision":"range","column_3":null},"type":"Feature","geometry":{"type":"Point","coordinates":[-75.633825,38.355045]}},{"properties":{"column_4":null,"column_6":null,"owners name":"Rose, Amber &amp; Dudley","geo_score":0.781,"original registration date":"2/14/09","id":"acjkpq44xvwn","address":"822 Meadow Point Rd Salisbury, MD","geo_precision":"range","column_3":null},"type":"Feature","geometry":{"type":"Point","coordinates":[-75.634475,38.353856]}},{"properties":{"column_4":null,"column_6":null,"owners name":"Gonzalez, Tyson","geo_score":0.451,"original registration date":"10/7/10","id":"acjkpq4cpcar","address":"1010 Meadow View Dr Salisbury, MD","geo_precision":"street","column_3":null},"type":"Feature","geometry":{"type":"Point","coordinates":[-75.573867,38.390952]}},{"properties":{"column_4":null,"column_6":null,"owners name":"Adewale, Adebisi O &amp; Mopelade K","geo_score":0.451,"original registration date":"9/30/11","id":"acjkpqb7h9pm","address":"1016 Meadow View Dr Salisbury, MD","geo_precision":"street","column_3":null},"type":"Feature","geometry":{"type":"Point","coordinates":[-75.573867,38.390952]}},{"properties":{"column_4":null,"column_6":null,"owners name":"James Doerzbach","geo_score":0.82,"original registration date":"10/5/12","id":"acjkpq6dg4vq","address":"300 Merrimac Ct Salisbury, MD","geo_precision":"range","column_3":null},"type":"Feature","geometry":{"type":"Point","coordinates":[-75.595028,38.378527]}},{"properties":{"column_4":null,"column_6":null,"owners name":"DKR Mortgage Asset 1 Delaware Statutory Trust","geo_score":0.849,"original registration date":"2/29/12","id":"acjkpqeamuio","address":"1010 Monitor Ct Salisbury, MD","geo_precision":"range","column_3":null},"type":"Feature","geometry":{"type":"Point","coordinates":[-75.596999,38.379094]}},{"properties":{"column_4":null,"column_6":null,"owners name":"Habash, Mitri, Elizabeth","geo_score":0.841,"original registration date":"11/15/10","id":"acjkpq5vh47j","address":"420 Monticello Ave Salisbury, MD","geo_precision":"range","column_3":null},"type":"Feature","geometry":{"type":"Point","coordinates":[-75.610807,38.35412]}},{"properties":{"column_4":null,"column_6":null,"owners name":"Verdieu, David","geo_score":0.851,"original registration date":"1/19/11","id":"acjkpqeg6iet","address":"127 Naylor St Salisbury, MD","geo_precision":"range","column_3":null},"type":"Feature","geometry":{"type":"Point","coordinates":[-75.586601,38.369095]}},{"properties":{"column_4":null,"column_6":null,"owners name":"Cohen, Julie &amp; Robert Rexer","geo_score":0.779,"original registration date":"4/15/11","id":"acjkpq42gv2n","address":"218 N Clairmont Dr Salisbury, MD","geo_precision":"range","column_3":null},"type":"Feature","geometry":{"type":"Point","coordinates":[-75.603305,38.35053]}},{"properties":{"column_4":null,"column_6":null,"owners name":"Cathy, Rebecca","geo_score":0.843,"original registration date":"11/13/12","id":"acjkpqc2m2q1","address":"324 N Division St Salisbury, MD","geo_precision":"range","column_3":null},"type":"Feature","geometry":{"type":"Point","coordinates":[-75.599509,38.369134]}},{"properties":{"column_4":null,"column_6":null,"owners name":"Carter, Kent &amp; Barbara","geo_score":0.843,"original registration date":"6/14/10","id":"acjkpq98wsp5","address":"325 N Division St Salisbury, MD","geo_precision":"range","column_3":null},"type":"Feature","geometry":{"type":"Point","coordinates":[-75.598766,38.37029]}},{"properties":{"column_4":null,"column_6":null,"owners name":"Miller, Charles &amp; Lisa Tucker","geo_score":0.843,"original registration date":"1/19/11","id":"acjkpqja17l3","address":"913 N Division St Salisbury, MD","geo_precision":"range","column_3":null},"type":"Feature","geometry":{"type":"Point","coordinates":[-75.593856,38.375395]}},{"properties":{"column_4":null,"column_6":null,"owners name":"Bunting, David","geo_score":0.843,"original registration date":"4/11/11","id":"acjkpqjdxi84","address":"1619 N Division St Salisbury, MD","geo_precision":"range","column_3":null},"type":"Feature","geometry":{"type":"Point","coordinates":[-75.583005,38.383477]}},{"properties":{"column_4":null,"column_6":null,"owners name":"Leventhal, Harry &amp; Elaine","geo_score":0.839,"original registration date":"6/14/10","id":"acjkpq4vhi99","address":"1220 N Salisbury Blvd Salisbury, MD","geo_precision":"range","column_3":null},"type":"Feature","geometry":{"type":"Point","coordinates":[-75.590899,38.377944]}},{"properties":{"column_4":null,"column_6":null,"owners name":"Siobain-Vi LLC","geo_score":0.839,"original registration date":"12/29/10","id":"acjkpqc30qw4","address":"1237 N Salisbury Blvd Salisbury, MD","geo_precision":"range","column_3":null},"type":"Feature","geometry":{"type":"Point","coordinates":[-75.590873,38.377671]}},{"properties":{"column_4":null,"column_6":null,"owners name":"Charles Anderson Trust","geo_score":0.839,"original registration date":"11/16/12","id":"acjkpq8vznfw","address":"1536 N Salisbury Blvd Salisbury, MD","geo_precision":"range","column_3":null},"type":"Feature","geometry":{"type":"Point","coordinates":[-75.586137,38.382154]}},{"properties":{"column_4":null,"column_6":null,"owners name":"Secretary of Housing and Urban Development","geo_score":0.843,"original registration date":"11/15/11","id":"acjkpq7eh9gb","address":"202 N Saratoga St Salisbury, MD","geo_precision":"range","column_3":null},"type":"Feature","geometry":{"type":"Point","coordinates":[-75.57898,38.37307]}},{"properties":{"column_4":null,"column_6":null,"owners name":"Smith, Melody &amp; Ronald","geo_score":0.845,"original registration date":"3/31/09","id":"acjkpq8a9b5y","address":"209 New York Ave Salisbury, MD","geo_precision":"range","column_3":null},"type":"Feature","geometry":{"type":"Point","coordinates":[-75.596983,38.375244]}},{"properties":{"column_4":null,"column_6":null,"owners name":"REPC &amp; HTC LLC","geo_score":0.851,"original registration date":"9/16/08","id":"acjkpq8qfp5q","address":"226 Newton St Salisbury, MD","geo_precision":"range","column_3":null},"type":"Feature","geometry":{"type":"Point","coordinates":[-75.601728,38.359905]}},{"properties":{"column_4":null,"column_6":null,"owners name":"REPC LLC","geo_score":0.851,"original registration date":"9/16/08","id":"acjkpqa575s1","address":"228 Newton St Salisbury, MD","geo_precision":"range","column_3":null},"type":"Feature","geometry":{"type":"Point","coordinates":[-75.601477,38.359891]}},{"properties":{"column_4":null,"column_6":null,"owners name":"Beard, Florence Rev Trust","geo_score":0.851,"original registration date":"5/19/11","id":"acjkpq89heaw","address":"233 Newton St Salisbury, MD","geo_precision":"range","column_3":null},"type":"Feature","geometry":{"type":"Point","coordinates":[-75.602498,38.36052]}},{"properties":{"column_4":null,"column_6":null,"owners name":"Warwick, Devin/ Michelle &amp; Robert Faulkner","geo_score":0.841,"original registration date":"5/17/11","id":"acjkpqhaakcq","address":"403 Newton Terrace Salisbury, MD","geo_precision":"range","column_3":null},"type":"Feature","geometry":{"type":"Point","coordinates":[-75.602372,38.361171]}},{"properties":{"column_4":null,"column_6":null,"owners name":"Bailey, Alfred","geo_score":0.845,"original registration date":"4/2/12","id":"acjkpqce719q","address":"1924 Northwood Dr Salisbury, MD","geo_precision":"range","column_3":null},"type":"Feature","geometry":{"type":"Point","coordinates":[-75.58442,38.390914]}},{"properties":{"column_4":null,"column_6":null,"owners name":"Simms, William &amp; Betty","geo_score":0.845,"original registration date":"1/22/10","id":"acjkpqd02uhj","address":"2028 Northwood Dr Salisbury, MD","geo_precision":"range","column_3":null},"type":"Feature","geometry":{"type":"Point","coordinates":[-75.582043,38.395891]}},{"properties":{"column_4":null,"column_6":null,"owners name":"Marvin, Katherine","geo_score":0.854,"original registration date":"8/31/10","id":"acjkpq9m49i2","address":"302 Park Ave Salisbury, MD","geo_precision":"range","column_3":null},"type":"Feature","geometry":{"type":"Point","coordinates":[-75.600089,38.370727]}},{"properties":{"column_4":null,"column_6":null,"owners name":"Voitiuc, Maria &amp; Nicholas","geo_score":0.854,"original registration date":"4/10/12","id":"acjkpq3sd9xg","address":"500 Park Ave Salisbury, MD","geo_precision":"range","column_3":null},"type":"Feature","geometry":{"type":"Point","coordinates":[-75.598129,38.372623]}},{"properties":{"column_4":null,"column_6":null,"owners name":"Browne, Kenneth","geo_score":0.843,"original registration date":"8/27/10","id":"acjkpq7f38gt","address":"413 Patterson Ave Salisbury, MD","geo_precision":"range","column_3":null},"type":"Feature","geometry":{"type":"Point","coordinates":[-75.592223,38.36131]}},{"properties":{"column_4":null,"column_6":null,"owners name":"Siggers, Lavonzella","geo_score":0.854,"original registration date":null,"id":"acjkpqi9t3ee","address":"607 Pearl St Salisbury, MD","geo_precision":"range","column_3":null},"type":"Feature","geometry":{"type":"Point","coordinates":[-75.608856,38.364863]}},{"properties":{"column_4":null,"column_6":null,"owners name":"Ayres, Lykeiftha &amp; Avonda Ellison","geo_score":0.854,"original registration date":"9/28/10","id":"acjkpqfxty54","address":"610 Pearl St Salisbury, MD","geo_precision":"range","column_3":null},"type":"Feature","geometry":{"type":"Point","coordinates":[-75.609305,38.364991]}},{"properties":{"column_4":null,"column_6":null,"owners name":"Michael T Sharp","geo_score":0.857,"original registration date":"10/19/12","id":"acjkpqbkp3h6","address":"308 Penn St Salisbury, MD","geo_precision":"range","column_3":null},"type":"Feature","geometry":{"type":"Point","coordinates":[-75.611305,38.369918]}},{"properties":{"column_4":null,"column_6":null,"owners name":"Holsinger, Michael","geo_score":0.845,"original registration date":"5/9/12","id":"acjkpqj6n5cz","address":"1017 Phillips Ave Salisbury, MD","geo_precision":"range","column_3":null},"type":"Feature","geometry":{"type":"Point","coordinates":[-75.579101,38.371975]}},{"properties":{"column_4":null,"column_6":null,"owners name":"Romano, Douglas","geo_score":0.843,"original registration date":"12/12/12","id":"acjkpqd38t66","address":"409 Poplar Street Salisbury, MD","geo_precision":"range","column_3":null},"type":"Feature","geometry":{"type":"Point","coordinates":[-75.590776,38.360673]}},{"properties":{"column_4":null,"column_6":null,"owners name":"Phillips, John P","geo_score":0.84,"original registration date":"1/5/09","id":"acjkpq8qs037","address":"501 Poplar Hill Ave Salisbury, MD","geo_precision":"range","column_3":null},"type":"Feature","geometry":{"type":"Point","coordinates":[-75.595692,38.371297]}},{"properties":{"column_4":null,"column_6":null,"owners name":"Bogman Inc","geo_score":0.845,"original registration date":"2/20/13","id":"acjkpq5ujptp","address":"626 Priscilla St Salisbury, MD","geo_precision":"range","column_3":null},"type":"Feature","geometry":{"type":"Point","coordinates":[-75.58244,38.380751]}},{"properties":{"column_4":null,"column_6":null,"owners name":"Fuchs, Colleen","geo_score":0.851,"original registration date":"4/6/10","id":"acjkpqeqte82","address":"431 Prince St Salisbury, MD","geo_precision":"range","column_3":null},"type":"Feature","geometry":{"type":"Point","coordinates":[-75.58962,38.356759]}},{"properties":{"column_4":null,"column_6":null,"owners name":"Brady, William &amp; Sharon","geo_score":0.851,"original registration date":"3/24/10","id":"acjkpqaetk1t","address":"315 Pryor Ave Salisbury, MD","geo_precision":"range","column_3":null},"type":"Feature","geometry":{"type":"Point","coordinates":[-75.594005,38.350735]}},{"properties":{"column_4":null,"column_6":null,"owners name":"Wicomico County Housing Authority","geo_score":0.843,"original registration date":"8/18/09","id":"acjkpqi6kpog","address":"1014 Queen Anne St Salisbury, MD","geo_precision":"range","column_3":null},"type":"Feature","geometry":{"type":"Point","coordinates":[-75.580599,38.381163]}},{"properties":{"column_4":null,"column_6":null,"owners name":"Pusey, Freddie","geo_score":0.849,"original registration date":"1/18/12","id":"acjkpqeyu69w","address":"208 Records St Salisbury, MD","geo_precision":"range","column_3":null},"type":"Feature","geometry":{"type":"Point","coordinates":[-75.590003,38.368815]}},{"properties":{"column_4":null,"column_6":null,"owners name":"Denisof, Gerald","geo_score":0.847,"original registration date":"5/27/10","id":"acjkpq49q9h2","address":"806 Register St Salisbury, MD","geo_precision":"range","column_3":null},"type":"Feature","geometry":{"type":"Point","coordinates":[-75.601811,38.353676]}},{"properties":{"column_4":null,"column_6":null,"owners name":"Epilepsy Association of the Eastern Shore Inc","geo_score":0.845,"original registration date":"12/15/10","id":"acjkpqeshiz5","address":"814 Riverside Dr. Salisbury, MD","geo_precision":"range","column_3":null},"type":"Feature","geometry":{"type":"Point","coordinates":[-75.612953,38.356179]}},{"properties":{"column_4":null,"column_6":null,"owners name":"Collegiate Group","geo_score":0.845,"original registration date":"8/13/12","id":"acjkpqax9t4f","address":"820 Riverside Dr. Salisbury, MD","geo_precision":"range","column_3":null},"type":"Feature","geometry":{"type":"Point","coordinates":[-75.613073,38.356076]}},{"properties":{"column_4":null,"column_6":null,"owners name":"Federal National Mortgage Association      C/O John Blake Century 21 Harbor Realty   112 South Blvd. Salisbury Md.","geo_score":0.845,"original registration date":"10/23/12","id":"acjkpq3runi9","address":"907 Riverside Rd Salisbury, MD","geo_precision":"range","column_3":null},"type":"Feature","geometry":{"type":"Point","coordinates":[-75.612879,38.35463]}},{"properties":{"column_4":null,"column_6":null,"owners name":"Heng, Tepnavin &amp; Zia Hassan &amp; Azeem Zafar","geo_score":0.518,"original registration date":"8/27/10","id":"acjkpqc4fm1v","address":"1005 Rori Court Salisbury, MD","geo_precision":"city","column_3":null},"type":"Feature","geometry":{"type":"Point","coordinates":[-75.633621,38.382445]}},{"properties":{"column_4":null,"column_6":null,"owners name":"Mcarr, Marcus","geo_score":0.857,"original registration date":"8/12/11","id":"acjkpq7j1ww3","address":"416 Rose St Salisbury, MD","geo_precision":"range","column_3":null},"type":"Feature","geometry":{"type":"Point","coordinates":[-75.603201,38.374875]}},{"properties":{"column_4":null,"column_6":null,"owners name":"Arapaho Realty LLC","geo_score":0.843,"original registration date":"2/26/13","id":"acjkpqiz7lsp","address":"601 S Division St Salisbury, MD","geo_precision":"range","column_3":null},"type":"Feature","geometry":{"type":"Point","coordinates":[-75.597011,38.359662]}},{"properties":{"column_4":null,"column_6":null,"owners name":"REPC LLC","geo_score":0.843,"original registration date":"6/14/10","id":"acjkpqh6sz6v","address":"616 S Division St Salisbury, MD","geo_precision":"range","column_3":null},"type":"Feature","geometry":{"type":"Point","coordinates":[-75.596713,38.358962]}},{"properties":{"column_4":null,"column_6":null,"owners name":"REPC &amp; HTC LLC","geo_score":0.843,"original registration date":"4/21/09","id":"acjkpqdxqpy9","address":"726 S Division St Salisbury, MD","geo_precision":"range","column_3":null},"type":"Feature","geometry":{"type":"Point","coordinates":[-75.595709,38.357388]}},{"properties":{"column_4":null,"column_6":null,"owners name":"Mildenberger, Keith","geo_score":0.843,"original registration date":"9/17/10","id":"acjkpq5ttd0f","address":"741 S Division St Salisbury, MD","geo_precision":"range","column_3":null},"type":"Feature","geometry":{"type":"Point","coordinates":[-75.595422,38.357135]}},{"properties":{"column_4":null,"column_6":null,"owners name":"Clark, Eve Elizabeth","geo_score":0.843,"original registration date":"4/7/10","id":"acjkpq9hif06","address":"828 S Division St Salisbury, MD","geo_precision":"range","column_3":null},"type":"Feature","geometry":{"type":"Point","coordinates":[-75.596163,38.353542]}},{"properties":{"column_4":null,"column_6":null,"owners name":"Kinnamon, Mary","geo_score":0.847,"original registration date":"12/29/08","id":"acjkpqfbeiq8","address":"321 S Haven Ave Salisbury, MD","geo_precision":"range","column_3":null},"type":"Feature","geometry":{"type":"Point","coordinates":[-75.593533,38.351793]}},{"properties":{"column_4":null,"column_6":null,"owners name":"Snyder, Mel","geo_score":0.851,"original registration date":"4/19/10","id":"acjkpqi6r3q9","address":"412 S Park Dr Salisbury, MD","geo_precision":"range","column_3":null},"type":"Feature","geometry":{"type":"Point","coordinates":[-75.593746,38.364366]}},{"properties":{"column_4":null,"column_6":null,"owners name":"Keith Cordrey","geo_score":0.839,"original registration date":"11/8/12","id":"acjkpq9mlbkg","address":"1501 S Salisbury Blvd Salisbury, MD","geo_precision":"range","column_3":null},"type":"Feature","geometry":{"type":"Point","coordinates":[-75.606206,38.339466]}},{"properties":{"column_4":null,"column_6":null,"owners name":"Cooks, Stephanie &amp; Charles","geo_score":0.843,"original registration date":"9/26/11","id":"acjkpqbuq57o","address":"106 S Saratoga St Salisbury, MD","geo_precision":"range","column_3":null},"type":"Feature","geometry":{"type":"Point","coordinates":[-75.577627,38.371176]}},{"properties":{"column_4":null,"column_6":null,"owners name":"Briddell, Laverne","geo_score":0.754,"original registration date":"10/24/11","id":"acjkpq3t4m3i","address":"142 Second St Salisbury, MD","geo_precision":"range","column_3":null},"type":"Feature","geometry":{"type":"Point","coordinates":[-75.610428,38.365777]}},{"properties":{"column_4":null,"column_6":null,"owners name":"Rodriguez, Franklin &amp; Rosa","geo_score":0.854,"original registration date":"4/4/11","id":"acjkpq61ypzh","address":"621 Smith St Salisbury, MD","geo_precision":"range","column_3":null},"type":"Feature","geometry":{"type":"Point","coordinates":[-75.603203,38.358896]}},{"properties":{"column_4":null,"column_6":null,"owners name":"Ashley, Patrick &amp; Deniece","geo_score":0.854,"original registration date":"6/28/11","id":"acjkpqgrn4zn","address":"703 Smith St Salisbury, MD","geo_precision":"range","column_3":null},"type":"Feature","geometry":{"type":"Point","coordinates":[-75.603426,38.358081]}},{"properties":{"column_4":null,"column_6":null,"owners name":"Crutchley, Frank &amp; Katherine","geo_score":0.854,"original registration date":"9/10/10","id":"acjkpq4t0w4i","address":"710 Smith St Salisbury, MD","geo_precision":"range","column_3":null},"type":"Feature","geometry":{"type":"Point","coordinates":[-75.603641,38.357611]}},{"properties":{"column_4":null,"column_6":null,"owners name":"Crutchley, Frank &amp; Katherine","geo_score":0.854,"original registration date":"9/10/10","id":"acjkpq999ej9","address":"712 Smith St Salisbury, MD","geo_precision":"range","column_3":null},"type":"Feature","geometry":{"type":"Point","coordinates":[-75.603641,38.357611]}},{"properties":{"column_4":null,"column_6":null,"owners name":"Hannon, Patrick","geo_score":0.845,"original registration date":"10/25/11","id":"acjkpq9uia18","address":"429 Somerset Ave Salisbury, MD","geo_precision":"range","column_3":null},"type":"Feature","geometry":{"type":"Point","coordinates":[-75.610367,38.350995]}},{"properties":{"column_4":null,"column_6":null,"owners name":"Paladino, Carl","geo_score":0.732,"original registration date":"3/16/12","id":"acjkpqauuvgp","address":"501 South Blvd Salisbury, MD","geo_precision":"range","column_3":null},"type":"Feature","geometry":{"type":"Point","coordinates":[-75.61214,38.356614]}},{"properties":{"column_4":null,"column_6":null,"owners name":"Townsend, William","geo_score":0.836,"original registration date":"1/29/13","id":"acjkpqhecani","address":"836 Springfield Circle Salisbury, MD","geo_precision":"range","column_3":null},"type":"Feature","geometry":{"type":"Point","coordinates":[-75.591858,38.352113]}},{"properties":{"column_4":null,"column_6":null,"owners name":"Davis, Barbara","geo_score":0.517,"original registration date":"12/9/11","id":"acjkpqh8vzet","address":"1821 Sweetbay Dr Salisbury, MD","geo_precision":"city","column_3":null},"type":"Feature","geometry":{"type":"Point","coordinates":[-75.633621,38.382445]}},{"properties":{"column_4":null,"column_6":null,"owners name":"Stevens, Irwin","geo_score":0.519,"original registration date":"1/14/13","id":"acjkpqbe55j2","address":"5910 Tappan Ln Salisbury, MD","geo_precision":"city","column_3":null},"type":"Feature","geometry":{"type":"Point","coordinates":[-75.633621,38.382445]}},{"properties":{"column_4":null,"column_6":null,"owners name":"Williams, Robert Jr &amp; Gayle","geo_score":0.49,"original registration date":"6/23/11","id":"acjkpq3z5avk","address":"6117 Tarry Town Rd Salisbury, MD","geo_precision":"street","column_3":null},"type":"Feature","geometry":{"type":"Point","coordinates":[-75.672566,38.344975]}},{"properties":{"column_4":null,"column_6":null,"owners name":"Warwick, Devin/ Michelle &amp; Robert Faulkner","geo_score":0.518,"original registration date":"5/17/11","id":"acjkpqe79zek","address":"206 Tilghman St Salisbury, MD","geo_precision":"city","column_3":null},"type":"Feature","geometry":{"type":"Point","coordinates":[-75.633621,38.382445]}},{"properties":{"column_4":null,"column_6":null,"owners name":"Mahew, Frank &amp; Antoinette","geo_score":0.843,"original registration date":"2/9/12","id":"acjkpqetlfn1","address":"131 Truitt Street Salisbury, MD","geo_precision":"range","column_3":null},"type":"Feature","geometry":{"type":"Point","coordinates":[-75.583805,38.370428]}},{"properties":{"column_4":null,"column_6":null,"owners name":"Fairfax Station Enterprises, LLC.","geo_score":0.843,"original registration date":"9/27/12","id":"acjkpq60yp2g","address":"331 Truitt Street Salisbury, MD","geo_precision":"range","column_3":null},"type":"Feature","geometry":{"type":"Point","coordinates":[-75.585147,38.374662]}},{"properties":{"column_4":null,"column_6":null,"owners name":"Wicomico County Housing Authority","geo_score":0.745,"original registration date":"1/11/10","id":"acjkpqgckidt","address":"500 Truitt Street Salisbury, MD","geo_precision":"street","column_3":null},"type":"Feature","geometry":{"type":"Point","coordinates":[-75.585687,38.376107]}},{"properties":{"column_4":null,"column_6":null,"owners name":"Knowles, Harold","geo_score":0.843,"original registration date":"6/3/11","id":"acjkpqagzjrf","address":"623 Truitt Street Salisbury, MD","geo_precision":"range","column_3":null},"type":"Feature","geometry":{"type":"Point","coordinates":[-75.587116,38.380728]}},{"properties":{"column_4":null,"column_6":null,"owners name":"James Anoia","geo_score":0.845,"original registration date":"10/31/12","id":"acjkpqhsexrf","address":"311 Union Avenue Salisbury, MD","geo_precision":"range","column_3":null},"type":"Feature","geometry":{"type":"Point","coordinates":[-75.595069,38.379509]}},{"properties":{"column_4":null,"column_6":null,"owners name":"Gochnour, Kim &amp; Joan","geo_score":0.778,"original registration date":"11/26/08","id":"acjkpqa0p7l3","address":"115 Van Buren Salisbury, MD","geo_precision":"range","column_3":null},"type":"Feature","geometry":{"type":"Point","coordinates":[-75.595744,38.353537]}},{"properties":{"column_4":null,"column_6":null,"owners name":"Robert Merzger/Timothy Metzger","geo_score":0.778,"original registration date":"10/19/12","id":"acjkpqjcxdfq","address":"119 Van Buren Salisbury, MD","geo_precision":"range","column_3":null},"type":"Feature","geometry":{"type":"Point","coordinates":[-75.595665,38.353515]}},{"properties":{"column_4":null,"column_6":null,"owners name":"Parker, George","geo_score":0.851,"original registration date":"4/22/10","id":"acjkpq7kao3i","address":"405 Venton Pl Salisbury, MD","geo_precision":"range","column_3":null},"type":"Feature","geometry":{"type":"Point","coordinates":[-75.591212,38.355422]}},{"properties":{"column_4":null,"column_6":null,"owners name":"Merritt, George","geo_score":0.849,"original registration date":"3/19/12","id":"acjkpq96ga8o","address":"908 Vincent St Salisbury, MD","geo_precision":"range","column_3":null},"type":"Feature","geometry":{"type":"Point","coordinates":[-75.595137,38.351918]}},{"properties":{"column_4":null,"column_6":null,"owners name":"Myers, Jennifer","geo_score":0.843,"original registration date":"8/27/10","id":"acjkpqghs4qx","address":"108 W Isabella St Salisbury, MD","geo_precision":"range","column_3":null},"type":"Feature","geometry":{"type":"Point","coordinates":[-75.599374,38.371476]}},{"properties":{"column_4":null,"column_6":null,"owners name":"Fitzhugh, Barbara &amp; Donald","geo_score":0.843,"original registration date":"4/10/12","id":"acjkpqijifrk","address":"110 W Isabella St Salisbury, MD","geo_precision":"range","column_3":null},"type":"Feature","geometry":{"type":"Point","coordinates":[-75.599356,38.37147]}},{"properties":{"column_4":null,"column_6":null,"owners name":"Townsend, George","geo_score":0.843,"original registration date":"1/14/13","id":"acjkpqfdrhpt","address":"609 W Isabella St Salisbury, MD","geo_precision":"range","column_3":null},"type":"Feature","geometry":{"type":"Point","coordinates":[-75.605858,38.371675]}},{"properties":{"column_4":null,"column_6":null,"owners name":"Kelley, Andrea","geo_score":0.843,"original registration date":"2/3/09","id":"acjkpq4nt2t2","address":"613 W Isabella St Salisbury, MD","geo_precision":"range","column_3":null},"type":"Feature","geometry":{"type":"Point","coordinates":[-75.605899,38.371672]}},{"properties":{"column_4":null,"column_6":null,"owners name":"Farmers Bank of Willards","geo_score":0.843,"original registration date":"10/4/11","id":"acjkpq4uf0ur","address":"924 W Isabella St Salisbury, MD","geo_precision":"range","column_3":null},"type":"Feature","geometry":{"type":"Point","coordinates":[-75.6117,38.370179]}},{"properties":{"column_4":null,"column_6":null,"owners name":"Charles Anderson Trust","geo_score":0.745,"original registration date":"11/19/12","id":"acjkpqbqg0ci","address":"1000 W Isabella St Salisbury, MD","geo_precision":"street","column_3":null},"type":"Feature","geometry":{"type":"Point","coordinates":[-75.613143,38.369889]}},{"properties":{"column_4":null,"column_6":null,"owners name":"Gouloubandi, Madjed &amp; Habibollah","geo_score":0.851,"original registration date":"8/5/11","id":"acjkpqfr1d0o","address":"201 W Main St Salisbury, MD","geo_precision":"range","column_3":null},"type":"Feature","geometry":{"type":"Point","coordinates":[-75.602057,38.365389]}},{"properties":{"column_4":null,"column_6":null,"owners name":"Birckhead, Robert","geo_score":0.851,"original registration date":"3/22/11","id":"acjkpqhxnlsi","address":"628 W Main St Salisbury, MD","geo_precision":"range","column_3":null},"type":"Feature","geometry":{"type":"Point","coordinates":[-75.607004,38.365434]}},{"properties":{"column_4":null,"column_6":null,"owners name":"Wharfside Associates","geo_score":0.847,"original registration date":"1/23/13","id":"acjkpqev60mf","address":"112 W Market St Salisbury, MD","geo_precision":"range","column_3":null},"type":"Feature","geometry":{"type":"Point","coordinates":[-75.600889,38.363466]}},{"properties":{"column_4":null,"column_6":null,"owners name":"Wharfside Associates","geo_score":0.847,"original registration date":"1/23/13","id":"acjkpq86aqcu","address":"114 W Market St Salisbury, MD","geo_precision":"range","column_3":null},"type":"Feature","geometry":{"type":"Point","coordinates":[-75.601028,38.363398]}},{"properties":{"column_4":null,"column_6":null,"owners name":"Feldman Brothers Inc","geo_score":0.847,"original registration date":"10/19/09","id":"acjkpq8bzij5","address":"150 W Market St Salisbury, MD","geo_precision":"range","column_3":null},"type":"Feature","geometry":{"type":"Point","coordinates":[-75.603079,38.365189]}},{"properties":{"column_4":null,"column_6":null,"owners name":"Scott, Stephen &amp; Allen","geo_score":0.836,"original registration date":"5/7/09","id":"acjkpq6evou0","address":"204 W Philadelphia Ave Salisbury, MD","geo_precision":"range","column_3":null},"type":"Feature","geometry":{"type":"Point","coordinates":[-75.597677,38.374468]}},{"properties":{"column_4":null,"column_6":null,"owners name":"Afridi, Salman","geo_score":0.836,"original registration date":"1/31/12","id":"acjkpqdw07kn","address":"208 W Philadelphia Ave Salisbury, MD","geo_precision":"range","column_3":null},"type":"Feature","geometry":{"type":"Point","coordinates":[-75.59881,38.375296]}},{"properties":{"column_4":null,"column_6":null,"owners name":"Hughes, Chandler &amp; Beth","geo_score":0.836,"original registration date":"10/20/10","id":"acjkpq3w537v","address":"209 W Philadelphia Ave Salisbury, MD","geo_precision":"range","column_3":null},"type":"Feature","geometry":{"type":"Point","coordinates":[-75.598253,38.375051]}},{"properties":{"column_4":null,"column_6":null,"owners name":"Stutez, Joseph","geo_score":0.851,"original registration date":"3/11/10","id":"acjkpqhzdzu4","address":"515 Wailes St Salisbury, MD","geo_precision":"range","column_3":null},"type":"Feature","geometry":{"type":"Point","coordinates":[-75.592937,38.368853]}},{"properties":{"column_4":null,"column_6":null,"owners name":"Windsor, James","geo_score":0.851,"original registration date":"10/13/10","id":"acjkpqjfohm7","address":"527 Wailes St Salisbury, MD","geo_precision":"range","column_3":null},"type":"Feature","geometry":{"type":"Point","coordinates":[-75.592537,38.368727]}},{"properties":{"column_4":null,"column_6":null,"owners name":"Benge, Scott","geo_score":0.847,"original registration date":"12/29/09","id":"acjkpqdqu92l","address":"111 Walston Ave Salisbury, MD","geo_precision":"range","column_3":null},"type":"Feature","geometry":{"type":"Point","coordinates":[-75.581675,38.370232]}},{"properties":{"column_4":null,"column_6":null,"owners name":"Wicomico County Housing Authority","geo_score":0.843,"original registration date":"7/31/12","id":"acjkpq83eudk","address":"526 Washington St Salisbury, MD","geo_precision":"range","column_3":null},"type":"Feature","geometry":{"type":"Point","coordinates":[-75.589159,38.357471]}},{"properties":{"column_4":null,"column_6":null,"owners name":"Gilkerson Properties","geo_score":0.841,"original registration date":"1/18/12","id":"acjkpq4thpzt","address":"1317 Westchester St Salisbury, MD","geo_precision":"range","column_3":null},"type":"Feature","geometry":{"type":"Point","coordinates":[-75.59049,38.379642]}},{"properties":{"column_4":null,"column_6":null,"owners name":"Johnson, Kym","geo_score":0.847,"original registration date":"1/21/11","id":"acjkpq7vcolk","address":"506 Wicomico St Salisbury, MD","geo_precision":"range","column_3":null},"type":"Feature","geometry":{"type":"Point","coordinates":[-75.609156,38.361562]}},{"properties":{"column_4":null,"column_6":null,"owners name":"Megan &amp; Thomas Fields","geo_score":0.851,"original registration date":"10/19/12","id":"acjkpq4bya27","address":"410 Winder St Salisbury, MD","geo_precision":"range","column_3":null},"type":"Feature","geometry":{"type":"Point","coordinates":[-75.607346,38.358564]}},{"properties":{"column_4":null,"column_6":null,"owners name":"Evans, Clayton","geo_score":0.851,"original registration date":"1/14/13","id":"acjkpqen7uoi","address":"523 Winder St Salisbury, MD","geo_precision":"range","column_3":null},"type":"Feature","geometry":{"type":"Point","coordinates":[-75.608387,38.359825]}},{"properties":{"column_4":null,"column_6":null,"owners name":"Tilghman, David","geo_score":0.851,"original registration date":"6/25/09","id":"acjkpqb2lqyt","address":"534 Winder St Salisbury, MD","geo_precision":"range","column_3":null},"type":"Feature","geometry":{"type":"Point","coordinates":[-75.609697,38.361047]}},{"properties":{"column_4":null,"column_6":null,"owners name":"Elliott, Gamee","geo_score":0.851,"original registration date":"6/25/09","id":"acjkpqa7b515","address":"535 Winder St Salisbury, MD","geo_precision":"range","column_3":null},"type":"Feature","geometry":{"type":"Point","coordinates":[-75.609575,38.361134]}}],"is_temporal":false,"author":{"url":"","metadata":"","contact_name":"","contact_address":"","source":"","contact_phone":""},"source":"","pagination":{"sort":null,"start":0,"total":218,"limit":1000000},"state":"complete","tags":"","published":"2014-08-16T20:36:00-04:00","id":326291}