{"url_type":null,"title":"Washington State Department of Health, Farmworker Housing, Washington, 2008","count":180,"stream_id":3270,"contributor":{"name":"Burkey","url":"http://geocommons.com/users/139"},"extent":[-122.793,45.7184,-119.014,48.9938],"data_attributes":null,"calculation_params":null,"icon_link":null,"link":"http://geocommons.com/overlays/3270.json","features":[{"NAME":"ANNIES BERRY FARM","CITY":"LA CENTER","CERTAINTY":"1","ZCTA":"98629","AV_CO":"011","ZIP":"98629","N_LCODE":"AS1","N_HOUSENUM":"39609","GEOLEVEL":"CENSUSTRACT","AV_SCORE":100,"RUCA":2.0,"N_STREET":"41ST","AV_ALPHA":"06","TRACT00":"040202","BLOCK00":"2010","N_ADDRESS":"39609 NE 41ST AVE","N_UNIT":"","X_COORD":-122.62845,"TYPE":"Temporary Worker Housing License","N_ZIP4":"4613","N_STATE":"WA","TRACT90":"040200","BLOCK90":"43","Y_COORDS":"45.90793","N_ZIP":"98629","AV_ZIP":"98629","BG00":"2","STATE":"WA","N_CITY":"LA CENTER","N_POSTDIR":"","AV_DATE":"Mon Mar 31 07:38:38 2008","BG90":"2","ACCURACY":"Close","TRACT90D":"0402.002","geometry":{"type":"Point","coordinates":[-122.628452974908,45.9079278830518]},"ZIP4":"","N_STRSUF":"AVE","Y_COORD":45.90793,"id":"a652y5cftijc","ADDRESS":"39609 NE 41ST AVE","N_MCODE":"S80","N_PREDIR":"NE","SOURCE":"TIGER 2006","QUALITY":"03","TRACT00D":"0402.022","X_COORDS":"-122.62845","AV_CITY":""},{"NAME":"Alamo Orchards Company / Cashmere","CITY":"Cashmere","CERTAINTY":"1","ZCTA":"98815","AV_CO":"007","ZIP":"98815","N_LCODE":"AS1","N_HOUSENUM":"7200","GEOLEVEL":"CENSUSTRACT","AV_SCORE":100,"RUCA":2.0,"N_STREET":"DRYDEN","AV_ALPHA":"04","TRACT00":"960500","BLOCK00":"2009","N_ADDRESS":"7200 N DRYDEN RD","N_UNIT":"","X_COORD":-120.52811,"TYPE":"Temporary Worker Housing License","N_ZIP4":"9407","N_STATE":"WA","TRACT90":"960500","BLOCK90":"52","Y_COORDS":"47.53982","N_ZIP":"98815","AV_ZIP":"98815","BG00":"2","STATE":"WA","N_CITY":"CASHMERE","N_POSTDIR":"","AV_DATE":"Mon Mar 31 07:38:38 2008","BG90":"2","ACCURACY":"Close","TRACT90D":"9605.002","geometry":{"type":"Point","coordinates":[-120.528108043596,47.5398237076268]},"ZIP4":"9407","N_STRSUF":"RD","Y_COORD":47.53982,"id":"a652y5hyy24y","ADDRESS":"7200 N Dryden Rd","N_MCODE":"S00","N_PREDIR":"N","SOURCE":"TIGER 2006","QUALITY":"03","TRACT00D":"9605.002","X_COORDS":"-120.52811","AV_CITY":""},{"NAME":"Alamo Orchards Company / Pateros","CITY":"Pateros","CERTAINTY":"1","ZCTA":"98846","AV_CO":"047","ZIP":"98846","N_LCODE":"AS1","N_HOUSENUM":"201","GEOLEVEL":"CENSUSTRACT","AV_SCORE":100,"RUCA":10.0,"N_STREET":"BILL SHAW","AV_ALPHA":"24","TRACT00":"970800","BLOCK00":"5010","N_ADDRESS":"201 BILL SHAW RD # A","N_UNIT":"A","X_COORD":-119.9576,"TYPE":"Temporary Worker Housing License","N_ZIP4":"9613","N_STATE":"WA","TRACT90":"970800","BLOCK90":"02B","Y_COORDS":"48.08629","N_ZIP":"98846","AV_ZIP":"98846","BG00":"5","STATE":"WA","N_CITY":"PATEROS","N_POSTDIR":"","AV_DATE":"Mon Mar 31 07:38:38 2008","BG90":"5","ACCURACY":"Close","TRACT90D":"9708.005","geometry":{"type":"Point","coordinates":[-119.957599005145,48.0862905652239]},"ZIP4":"9613","N_STRSUF":"RD","Y_COORD":48.08629,"id":"a652y5jk1un1","ADDRESS":"201 Bill Shaw Rd # A","N_MCODE":"S00","N_PREDIR":"","SOURCE":"TIGER 2006","QUALITY":"03","TRACT00D":"9708.005","X_COORDS":"-119.95760","AV_CITY":""},{"NAME":"Apple Eye Orchards","CITY":"Manson","CERTAINTY":"1","ZCTA":"98831","AV_CO":"007","ZIP":"98831","N_LCODE":"AS1","N_HOUSENUM":"500","GEOLEVEL":"CENSUSTRACT","AV_SCORE":100,"RUCA":10.6,"N_STREET":"COOLEY","AV_ALPHA":"04","TRACT00":"960400","BLOCK00":"1036","N_ADDRESS":"500 COOLEY RD","N_UNIT":"","X_COORD":-120.09713,"TYPE":"Temporary Worker Housing License","N_ZIP4":"","N_STATE":"WA","TRACT90":"960400","BLOCK90":"35","Y_COORDS":"47.89587","N_ZIP":"98831","AV_ZIP":"98831","BG00":"1","STATE":"WA","N_CITY":"MANSON","N_POSTDIR":"","AV_DATE":"Mon Mar 31 07:38:38 2008","BG90":"1","ACCURACY":"Close","TRACT90D":"9604.001","geometry":{"type":"Point","coordinates":[-120.097125812434,47.8958653619193]},"ZIP4":"","N_STRSUF":"RD","Y_COORD":47.89587,"id":"a652y5q32iwa","ADDRESS":"500 Cooley Rd","N_MCODE":"T80","N_PREDIR":"","SOURCE":"TIGER 2006","QUALITY":"03","TRACT00D":"9604.001","X_COORDS":"-120.09713","AV_CITY":""},{"NAME":"Auvil Fruit Company #1","CITY":"Orondo","CERTAINTY":"1","ZCTA":"98843","AV_CO":"017","ZIP":"98843","N_LCODE":"AS1","N_HOUSENUM":"17","GEOLEVEL":"CENSUSTRACT","AV_SCORE":100,"RUCA":10.0,"N_STREET":"WRIGHT","AV_ALPHA":"09","TRACT00":"950100","BLOCK00":"6016","N_ADDRESS":"17 WRIGHT LN","N_UNIT":"","X_COORD":-120.19386,"TYPE":"Temporary Worker Housing License","N_ZIP4":"9761","N_STATE":"WA","TRACT90":"950100","BLOCK90":"14","Y_COORDS":"47.70931","N_ZIP":"98843","AV_ZIP":"98843","BG00":"6","STATE":"WA","N_CITY":"ORONDO","N_POSTDIR":"","AV_DATE":"Mon Mar 31 07:38:38 2008","BG90":"8","ACCURACY":"Close","TRACT90D":"9501.008","geometry":{"type":"Point","coordinates":[-120.193863322171,47.7093084845086]},"ZIP4":"9761","N_STRSUF":"LN","Y_COORD":47.70931,"id":"a652y5lw8wyx","ADDRESS":"17 Wright Ln","N_MCODE":"S00","N_PREDIR":"","SOURCE":"NAVTECH","QUALITY":"03","TRACT00D":"9501.006","X_COORDS":"-120.19386","AV_CITY":""},{"NAME":"Auvil Fruit Company #3","CITY":"Orondo","CERTAINTY":"3","ZCTA":"98843","AV_CO":"017","ZIP":"98843","N_LCODE":"ZT7F","N_HOUSENUM":"14","GEOLEVEL":"ZIPCODE","AV_SCORE":40,"RUCA":10.0,"N_STREET":"SHOP LOOP","AV_ALPHA":"09","TRACT00":"950100","BLOCK00":"6014","N_ADDRESS":"14 SHOP LOOP RD","N_UNIT":"","X_COORD":-120.19628,"TYPE":"Temporary Worker Housing License","N_ZIP4":"9760","N_STATE":"WA","TRACT90":"950100","BLOCK90":"09","Y_COORDS":"47.70328","N_ZIP":"98843","AV_ZIP":"98843","BG00":"6","STATE":"WA","N_CITY":"ORONDO","N_POSTDIR":"","AV_DATE":"Mon Mar 31 07:38:38 2008","BG90":"8","ACCURACY":"Very Approximate","TRACT90D":"9501.008","geometry":{"type":"Point","coordinates":[-120.196283476,47.7032791440447]},"ZIP4":"9760","N_STRSUF":"RD","Y_COORD":47.70328,"id":"a652y5osalwl","ADDRESS":"14 Shop Loop Rd","N_MCODE":"S00","N_PREDIR":"","SOURCE":"Street Centroid","QUALITY":"05","TRACT00D":"9501.006","X_COORDS":"-120.19628","AV_CITY":""},{"NAME":"Auvil Fruit Company Ranch #2","CITY":"Vantage","CERTAINTY":"5","ZCTA":"","AV_CO":"037","ZIP":"98950","N_LCODE":"ZC5X","N_HOUSENUM":"","GEOLEVEL":"CITY","AV_SCORE":0,"RUCA":5.0,"N_STREET":"END OF HUNTZINGER","AV_ALPHA":"19","TRACT00":"975700","BLOCK00":"3998","N_ADDRESS":"END OF HUNTZINGER RD","N_UNIT":"","X_COORD":-119.98611,"TYPE":"Temporary Worker Housing License","N_ZIP4":"","N_STATE":"WA","TRACT90":"975700","BLOCK90":"99","Y_COORDS":"46.94556","N_ZIP":"98950","AV_ZIP":"","BG00":"3","STATE":"WA","N_CITY":"VANTAGE","N_POSTDIR":"","AV_DATE":"","BG90":"3","ACCURACY":"Very Approximate","TRACT90D":"9757.003","geometry":{"type":"Point","coordinates":[-119.98611,46.945559999059]},"ZIP4":"","N_STRSUF":"RD","Y_COORD":46.94556,"id":"a652y5lpm8ua","ADDRESS":"End of Huntzinger Rd","N_MCODE":"E020","N_PREDIR":"","SOURCE":"City or Place Centroid","QUALITY":"11","TRACT00D":"9757.003","X_COORDS":"-119.98611","AV_CITY":""},{"NAME":"B90 LABOR CAMP","CITY":"ORONDO","CERTAINTY":"1","ZCTA":"98843","AV_CO":"017","ZIP":"98843","N_LCODE":"AS0","N_HOUSENUM":"254","GEOLEVEL":"CENSUSTRACT","AV_SCORE":70,"RUCA":10.0,"N_STREET":"BRAYS","AV_ALPHA":"09","TRACT00":"950100","BLOCK00":"5045","N_ADDRESS":"254 BRAYS RD","N_UNIT":"","X_COORD":-120.17059,"TYPE":"Temporary Worker Housing License","N_ZIP4":"9791","N_STATE":"WA","TRACT90":"950100","BLOCK90":"72","Y_COORDS":"47.73885","N_ZIP":"98843","AV_ZIP":"98843","BG00":"5","STATE":"WA","N_CITY":"ORONDO","N_POSTDIR":"","AV_DATE":"Mon Mar 31 07:38:38 2008","BG90":"7","ACCURACY":"Approximate","TRACT90D":"9501.007","geometry":{"type":"Point","coordinates":[-120.170593,47.7388499990449]},"ZIP4":"","N_STRSUF":"RD","Y_COORD":47.73885,"id":"a652y5q30jan","ADDRESS":"254 BRAYS RD","N_MCODE":"S80","N_PREDIR":"","SOURCE":"Centrus","QUALITY":"03","TRACT00D":"9501.005","X_COORDS":"-120.17059","AV_CITY":""},{"NAME":"BLUE BIRD /BREWSTER ORCHARDS","CITY":"BREWSTER","CERTAINTY":"1","ZCTA":"98812","AV_CO":"047","ZIP":"98812","N_LCODE":"AP0","N_HOUSENUM":"98","GEOLEVEL":"CENSUSTRACT","AV_SCORE":100,"RUCA":10.0,"N_STREET":"MONSE BRIDGE","AV_ALPHA":"24","TRACT00":"970800","BLOCK00":"2005","N_ADDRESS":"98 MONSE BRIDGE RD","N_UNIT":"","X_COORD":-119.70732,"TYPE":"Temporary Worker Housing License","N_ZIP4":"","N_STATE":"WA","TRACT90":"970800","BLOCK90":"06","Y_COORDS":"48.13004","N_ZIP":"98812","AV_ZIP":"98812","BG00":"2","STATE":"WA","N_CITY":"BREWSTER","N_POSTDIR":"","AV_DATE":"Mon Mar 31 07:38:38 2008","BG90":"2","ACCURACY":"Close","TRACT90D":"9708.002","geometry":{"type":"Point","coordinates":[-119.707315461602,48.1300357607725]},"ZIP4":"","N_STRSUF":"RD","Y_COORD":48.13004,"id":"a652y5ez0ws6","ADDRESS":"98 MONSE BRIDGE RD","N_MCODE":"E024","N_PREDIR":"","SOURCE":"Local Parcels","QUALITY":"02","TRACT00D":"9708.002","X_COORDS":"-119.70732","AV_CITY":""},{"NAME":"Beebe Ranch","CITY":"Orondo","CERTAINTY":"4","ZCTA":"98843","AV_CO":"017","ZIP":"98843","N_LCODE":"ZT7J","N_HOUSENUM":"108","GEOLEVEL":"ZIPCODE","AV_SCORE":70,"RUCA":10.0,"N_STREET":"BEEBE","AV_ALPHA":"09","TRACT00":"950100","BLOCK00":"5063","N_ADDRESS":"108 BEEBE RD","N_UNIT":"","X_COORD":-120.2086,"TYPE":"Temporary Worker Housing License","N_ZIP4":"9787","N_STATE":"WA","TRACT90":"950100","BLOCK90":"47","Y_COORDS":"47.72180","N_ZIP":"98843","AV_ZIP":"98843","BG00":"5","STATE":"WA","N_CITY":"ORONDO","N_POSTDIR":"","AV_DATE":"Mon Mar 31 07:38:38 2008","BG90":"7","ACCURACY":"Very Approximate","TRACT90D":"9501.007","geometry":{"type":"Point","coordinates":[-120.208603,47.7218019990448]},"ZIP4":"9787","N_STRSUF":"RD","Y_COORD":47.7218,"id":"a652y5rfwf0z","ADDRESS":"108 Beebe Rd","N_MCODE":"S00","N_PREDIR":"","SOURCE":"Centrus","QUALITY":"09","TRACT00D":"9501.005","X_COORDS":"-120.20860","AV_CITY":""},{"NAME":"Blank Orchards","CITY":"Okanogan","CERTAINTY":"1","ZCTA":"98840","AV_CO":"047","ZIP":"98840","N_LCODE":"AS1","N_HOUSENUM":"53","GEOLEVEL":"CENSUSTRACT","AV_SCORE":100,"RUCA":7.0,"N_STREET":"TARBERT","AV_ALPHA":"24","TRACT00":"970700","BLOCK00":"2001","N_ADDRESS":"53 TARBERT LOOP","N_UNIT":"","X_COORD":-119.58009,"TYPE":"Temporary Worker Housing License","N_ZIP4":"8205","N_STATE":"WA","TRACT90":"970700","BLOCK90":"02E","Y_COORDS":"48.38391","N_ZIP":"98840","AV_ZIP":"98840","BG00":"2","STATE":"WA","N_CITY":"OKANOGAN","N_POSTDIR":"","AV_DATE":"Mon Mar 31 07:38:38 2008","BG90":"2","ACCURACY":"Close","TRACT90D":"9707.002","geometry":{"type":"Point","coordinates":[-119.580093354592,48.3839105050632]},"ZIP4":"","N_STRSUF":"LOOP","Y_COORD":48.38391,"id":"a652y5crep2t","ADDRESS":"53 Tarbert Loop Rd","N_MCODE":"S89","N_PREDIR":"","SOURCE":"TIGER 2006","QUALITY":"03","TRACT00D":"9707.002","X_COORDS":"-119.58009","AV_CITY":""},{"NAME":"Brayland Orchard","CITY":"Orondo","CERTAINTY":"1","ZCTA":"98843","AV_CO":"017","ZIP":"98843","N_LCODE":"AS1","N_HOUSENUM":"275","GEOLEVEL":"CENSUSTRACT","AV_SCORE":100,"RUCA":10.0,"N_STREET":"BRAYS","AV_ALPHA":"09","TRACT00":"950100","BLOCK00":"5046","N_ADDRESS":"275 BRAYS RD","N_UNIT":"","X_COORD":-120.15411,"TYPE":"Temporary Worker Housing License","N_ZIP4":"9791","N_STATE":"WA","TRACT90":"950100","BLOCK90":"70","Y_COORDS":"47.75726","N_ZIP":"98843","AV_ZIP":"98843","BG00":"5","STATE":"WA","N_CITY":"ORONDO","N_POSTDIR":"","AV_DATE":"Mon Mar 31 07:38:38 2008","BG90":"7","ACCURACY":"Close","TRACT90D":"9501.007","geometry":{"type":"Point","coordinates":[-120.154109670776,47.7572568035268]},"ZIP4":"9791","N_STRSUF":"RD","Y_COORD":47.75726,"id":"a652y5gc1l6l","ADDRESS":"275 Brays Rd","N_MCODE":"S00","N_PREDIR":"","SOURCE":"TIGER 2006","QUALITY":"03","TRACT00D":"9501.005","X_COORDS":"-120.15411","AV_CITY":""},{"NAME":"Buena Nueva","CITY":"Buena","CERTAINTY":"2","ZCTA":"","AV_CO":"077","ZIP":"98921","N_LCODE":"ZC9W","N_HOUSENUM":"781","GEOLEVEL":"ZIPCODE","AV_SCORE":0,"RUCA":4.2,"N_STREET":"BUENA","AV_ALPHA":"39","TRACT00":"002200","BLOCK00":"3007","N_ADDRESS":"781 BUENA RD","N_UNIT":"","X_COORD":-120.31371,"TYPE":"Temporary Worker Housing License","N_ZIP4":"9800","N_STATE":"WA","TRACT90":"002200","BLOCK90":"03","Y_COORDS":"46.42689","N_ZIP":"98921","AV_ZIP":"","BG00":"3","STATE":"WA","N_CITY":"BUENA","N_POSTDIR":"","AV_DATE":"","BG90":"3","ACCURACY":"Very Approximate","TRACT90D":"0022.003","geometry":{"type":"Point","coordinates":[-120.31371,46.4268899990579]},"ZIP4":"9800","N_STRSUF":"RD","Y_COORD":46.42689,"id":"a652y5b4yvpw","ADDRESS":"781 Buena Rd","N_MCODE":"S00","N_PREDIR":"","SOURCE":"Zip4 Centroid","QUALITY":"06","TRACT00D":"0022.003","X_COORDS":"-120.31371","AV_CITY":""},{"NAME":"C&amp;O George Labor Camp","CITY":"Quincy","CERTAINTY":"1","ZCTA":"98848","AV_CO":"025","ZIP":"98848","N_LCODE":"AS1","N_HOUSENUM":"16879","GEOLEVEL":"CENSUSTRACT","AV_SCORE":60,"RUCA":8.0,"N_STREET":"ROAD 2","AV_ALPHA":"13","TRACT00":"980500","BLOCK00":"2061","N_ADDRESS":"16879 ROAD 2 NW","N_UNIT":"","X_COORD":-119.85033,"TYPE":"Temporary Worker Housing License","N_ZIP4":"9767","N_STATE":"WA","TRACT90":"980500","BLOCK90":"44","Y_COORDS":"47.11730","N_ZIP":"98848","AV_ZIP":"98848","BG00":"2","STATE":"WA","N_CITY":"QUINCY","N_POSTDIR":"NW","AV_DATE":"Mon Mar 31 07:38:38 2008","BG90":"2","ACCURACY":"Approximate","TRACT90D":"9805.002","geometry":{"type":"Point","coordinates":[-119.850327874496,47.1172998863568]},"ZIP4":"9767","N_STRSUF":"","Y_COORD":47.1173,"id":"a652y5g81615","ADDRESS":"16879 Road 2 NW","N_MCODE":"S00","N_PREDIR":"","SOURCE":"GDT 1000","QUALITY":"03","TRACT00D":"9805.002","X_COORDS":"-119.85033","AV_CITY":""},{"NAME":"CAPS/OXTEAM ORCHARDS","CITY":"EAST WENATCHEE","CERTAINTY":"5","ZCTA":"","AV_CO":"017","ZIP":"98802","N_LCODE":"ZC5X","N_HOUSENUM":"3141","GEOLEVEL":"CITY","AV_SCORE":0,"RUCA":1.0,"N_STREET":"RR 3","AV_ALPHA":"09","TRACT00":"950500","BLOCK00":"3005","N_ADDRESS":"RR 3 BOX 3141","N_UNIT":"","X_COORD":-120.29194,"TYPE":"Temporary Worker Housing License","N_ZIP4":"","N_STATE":"WA","TRACT90":"950500","BLOCK90":"02","Y_COORDS":"47.41583","N_ZIP":"98802","AV_ZIP":"","BG00":"3","STATE":"WA","N_CITY":"EAST WENATCHEE","N_POSTDIR":"","AV_DATE":"","BG90":"3","ACCURACY":"Very Approximate","TRACT90D":"9505.003","geometry":{"type":"Point","coordinates":[-120.29194,47.415829999043]},"ZIP4":"","N_STRSUF":"","Y_COORD":47.41583,"id":"a652y5eblycu","ADDRESS":"RT 3 BOX 3141","N_MCODE":"E020","N_PREDIR":"","SOURCE":"City or Place Centroid","QUALITY":"11","TRACT00D":"9505.003","X_COORDS":"-120.29194","AV_CITY":""},{"NAME":"CHELAN RED ORCHARDS","CITY":"MANSON","CERTAINTY":"1","ZCTA":"98831","AV_CO":"007","ZIP":"98831","N_LCODE":"AS1","N_HOUSENUM":"992","GEOLEVEL":"CENSUSTRACT","AV_SCORE":100,"RUCA":10.6,"N_STREET":"WINESAP","AV_ALPHA":"04","TRACT00":"960400","BLOCK00":"1054","N_ADDRESS":"992 WINESAP AVE","N_UNIT":"","X_COORD":-120.09877,"TYPE":"Temporary Worker Housing License","N_ZIP4":"9520","N_STATE":"WA","TRACT90":"960400","BLOCK90":"12","Y_COORDS":"47.87627","N_ZIP":"98831","AV_ZIP":"98831","BG00":"1","STATE":"WA","N_CITY":"MANSON","N_POSTDIR":"","AV_DATE":"Mon Mar 31 07:38:38 2008","BG90":"4","ACCURACY":"Close","TRACT90D":"9604.004","geometry":{"type":"Point","coordinates":[-120.098774640713,47.8762683844877]},"ZIP4":"","N_STRSUF":"AVE","Y_COORD":47.87627,"id":"a652y5bvtgog","ADDRESS":"992 WINESAP","N_MCODE":"S81","N_PREDIR":"","SOURCE":"TIGER 2006","QUALITY":"03","TRACT00D":"9604.001","X_COORDS":"-120.09877","AV_CITY":""},{"NAME":"CRANE &amp; CRANE","CITY":"BREWSTER","CERTAINTY":"1","ZCTA":"98812","AV_CO":"017","ZIP":"98812","N_LCODE":"AS1","N_HOUSENUM":"11","GEOLEVEL":"CENSUSTRACT","AV_SCORE":60,"RUCA":10.0,"N_STREET":"ZERELDA","AV_ALPHA":"09","TRACT00":"950100","BLOCK00":"2011","N_ADDRESS":"11 ZERELDA RD","N_UNIT":"","X_COORD":-119.82133,"TYPE":"Temporary Worker Housing License","N_ZIP4":"9552","N_STATE":"WA","TRACT90":"950100","BLOCK90":"42","Y_COORDS":"48.07533","N_ZIP":"98812","AV_ZIP":"98813","BG00":"2","STATE":"WA","N_CITY":"BREWSTER","N_POSTDIR":"","AV_DATE":"Mon Mar 31 07:38:38 2008","BG90":"2","ACCURACY":"Approximate","TRACT90D":"9501.002","geometry":{"type":"Point","coordinates":[-119.821333834895,48.0753339679923]},"ZIP4":"","N_STRSUF":"RD","Y_COORD":48.07533,"id":"a652y5bknhkm","ADDRESS":"11 ZERELDA RD","N_MCODE":"S80","N_PREDIR":"","SOURCE":"TIGER 2006","QUALITY":"03","TRACT00D":"9501.002","X_COORDS":"-119.82133","AV_CITY":""},{"NAME":"CUSTOM ORCHARD #1","CITY":"BREWSTER","CERTAINTY":"4","ZCTA":"98812","AV_CO":"047","ZIP":"98812","N_LCODE":"ZT5V","N_HOUSENUM":"","GEOLEVEL":"ZIPCODE","AV_SCORE":70,"RUCA":10.0,"N_STREET":"HWY 97 1 MI S OF BREWSTER","AV_ALPHA":"24","TRACT00":"970800","BLOCK00":"1068","N_ADDRESS":"HWY 97 1 MI S OF BREWSTER","N_UNIT":"","X_COORD":-119.7883,"TYPE":"Temporary Worker Housing License","N_ZIP4":"","N_STATE":"WA","TRACT90":"970800","BLOCK90":"33","Y_COORDS":"48.16990","N_ZIP":"98812","AV_ZIP":"98812","BG00":"1","STATE":"WA","N_CITY":"BREWSTER","N_POSTDIR":"","AV_DATE":"Mon Mar 31 07:38:38 2008","BG90":"1","ACCURACY":"Very Approximate","TRACT90D":"9708.001","geometry":{"type":"Point","coordinates":[-119.7883,48.1698989990474]},"ZIP4":"","N_STRSUF":"","Y_COORD":48.1699,"id":"a652y5nzy8pj","ADDRESS":"HWY 97 1 MI S OF BREWSTER","N_MCODE":"E020","N_PREDIR":"","SOURCE":"Centrus","QUALITY":"09","TRACT00D":"9708.001","X_COORDS":"-119.78830","AV_CITY":""},{"NAME":"Carpinito Brothers - Benson Village","CITY":"Kent","CERTAINTY":"1","ZCTA":"98031","AV_CO":"033","ZIP":"98031","N_LCODE":"AS1","N_HOUSENUM":"10820","GEOLEVEL":"CENSUSTRACT","AV_SCORE":100,"RUCA":1.0,"N_STREET":"211TH","AV_ALPHA":"17","TRACT00":"029403","BLOCK00":"3003","N_ADDRESS":"10820 SE 211TH PL","N_UNIT":"","X_COORD":-122.19663,"TYPE":"Temporary Worker Housing License","N_ZIP4":"2102","N_STATE":"WA","TRACT90":"029403","BLOCK90":"04","Y_COORDS":"47.41328","N_ZIP":"98031","AV_ZIP":"98031","BG00":"3","STATE":"WA","N_CITY":"KENT","N_POSTDIR":"","AV_DATE":"Mon Mar 31 07:38:38 2008","BG90":"9","ACCURACY":"Close","TRACT90D":"0294.039","geometry":{"type":"Point","coordinates":[-122.196632572962,47.4132778244399]},"ZIP4":"2102","N_STRSUF":"PL","Y_COORD":47.41328,"id":"a652y5er0eyg","ADDRESS":"10820 SE 211th Pl","N_MCODE":"S00","N_PREDIR":"SE","SOURCE":"TIGER 2006","QUALITY":"03","TRACT00D":"0294.033","X_COORDS":"-122.19663","AV_CITY":""},{"NAME":"Cascade Foothills","CITY":"Orondo","CERTAINTY":"4","ZCTA":"98843","AV_CO":"017","ZIP":"98843","N_LCODE":"ZB9b","N_HOUSENUM":"20","GEOLEVEL":"ZIPCODE","AV_SCORE":70,"RUCA":10.0,"N_STREET":"CASCADE FOOTHILLS LOOP","AV_ALPHA":"09","TRACT00":"950100","BLOCK00":"5029","N_ADDRESS":"20 CASCADE FOOTHILLS LOOP RD","N_UNIT":"","X_COORD":-120.0548,"TYPE":"Temporary Worker Housing License","N_ZIP4":"9782","N_STATE":"WA","TRACT90":"950100","BLOCK90":"56","Y_COORDS":"47.76780","N_ZIP":"98843","AV_ZIP":"98843","BG00":"5","STATE":"WA","N_CITY":"ORONDO","N_POSTDIR":"","AV_DATE":"Mon Mar 31 07:38:38 2008","BG90":"7","ACCURACY":"Very Approximate","TRACT90D":"9501.007","geometry":{"type":"Point","coordinates":[-120.054802,47.767798999045]},"ZIP4":"","N_STRSUF":"RD","Y_COORD":47.7678,"id":"a652y5lzlnpg","ADDRESS":"20 B Cascade Foothills Rd","N_MCODE":"S89","N_PREDIR":"","SOURCE":"Centrus","QUALITY":"09","TRACT00D":"9501.005","X_COORDS":"-120.05480","AV_CITY":""},{"NAME":"Chelan Heights Orchard","CITY":"Chelan","CERTAINTY":"3","ZCTA":"98816","AV_CO":"007","ZIP":"98816","N_LCODE":"ZT7F","N_HOUSENUM":"350","GEOLEVEL":"ZIPCODE","AV_SCORE":40,"RUCA":7.3,"N_STREET":"BOYD","AV_ALPHA":"04","TRACT00":"960300","BLOCK00":"2021","N_ADDRESS":"350 BOYD RD","N_UNIT":"","X_COORD":-120.06266,"TYPE":"Temporary Worker Housing License","N_ZIP4":"9598","N_STATE":"WA","TRACT90":"960300","BLOCK90":"03","Y_COORDS":"47.86549","N_ZIP":"98816","AV_ZIP":"98816","BG00":"2","STATE":"WA","N_CITY":"CHELAN","N_POSTDIR":"","AV_DATE":"Mon Mar 31 07:38:38 2008","BG90":"2","ACCURACY":"Very Approximate","TRACT90D":"9603.002","geometry":{"type":"Point","coordinates":[-120.062658218,47.8654913344456]},"ZIP4":"9598","N_STRSUF":"RD","Y_COORD":47.86549,"id":"a652y5do4lky","ADDRESS":"350 Boyd Rd","N_MCODE":"S00","N_PREDIR":"","SOURCE":"Street Centroid","QUALITY":"05","TRACT00D":"9603.002","X_COORDS":"-120.06266","AV_CITY":""},{"NAME":"Chiawana Orchards - Cabana Motel","CITY":"Othello","CERTAINTY":"1","ZCTA":"99344","AV_CO":"001","ZIP":"99344","N_LCODE":"AS1","N_HOUSENUM":"665","GEOLEVEL":"CENSUSTRACT","AV_SCORE":100,"RUCA":7.0,"N_STREET":"WINDSOR","AV_ALPHA":"01","TRACT00":"950400","BLOCK00":"2022","N_ADDRESS":"665 E WINDSOR ST","N_UNIT":"","X_COORD":-119.1656,"TYPE":"Temporary Worker Housing License","N_ZIP4":"1136","N_STATE":"WA","TRACT90":"950400","BLOCK90":"23","Y_COORDS":"46.82766","N_ZIP":"99344","AV_ZIP":"99344","BG00":"2","STATE":"WA","N_CITY":"OTHELLO","N_POSTDIR":"","AV_DATE":"Mon Mar 31 07:38:38 2008","BG90":"2","ACCURACY":"Close","TRACT90D":"9504.002","geometry":{"type":"Point","coordinates":[-119.165596814514,46.8276622681349]},"ZIP4":"1136","N_STRSUF":"ST","Y_COORD":46.82766,"id":"a652y5duwip6","ADDRESS":"665 E Windsor St","N_MCODE":"S00","N_PREDIR":"E","SOURCE":"TIGER 2006","QUALITY":"03","TRACT00D":"9504.002","X_COORDS":"-119.16560","AV_CITY":"OTHELLO"},{"NAME":"Chiawana Orchards LLC","CITY":"PASCO","CERTAINTY":"5","ZCTA":"","AV_CO":"021","ZIP":"99344","N_LCODE":"ZC5X","N_HOUSENUM":"500","GEOLEVEL":"CITY","AV_SCORE":0,"RUCA":1.0,"N_STREET":"KOELZER","AV_ALPHA":"11","TRACT00":"020200","BLOCK00":"2006","N_ADDRESS":"500 KOELZER RD","N_UNIT":"","X_COORD":-119.09944,"TYPE":"Temporary Worker Housing License","N_ZIP4":"","N_STATE":"WA","TRACT90":"020200","BLOCK90":"07","Y_COORDS":"46.23972","N_ZIP":"99344","AV_ZIP":"","BG00":"2","STATE":"WA","N_CITY":"PASCO","N_POSTDIR":"","AV_DATE":"","BG90":"2","ACCURACY":"Very Approximate","TRACT90D":"0202.002","geometry":{"type":"Point","coordinates":[-119.09944,46.2397199990577]},"ZIP4":"","N_STRSUF":"RD","Y_COORD":46.23972,"id":"a652y5oesdm8","ADDRESS":"500 KOELZER RD","N_MCODE":"E020","N_PREDIR":"","SOURCE":"City or Place Centroid","QUALITY":"11","TRACT00D":"0202.002","X_COORDS":"-119.09944","AV_CITY":""},{"NAME":"Chiawana Vista Farm","CITY":"Pasco","CERTAINTY":"1","ZCTA":"99301","AV_CO":"021","ZIP":"99301","N_LCODE":"AS1","N_HOUSENUM":"1055","GEOLEVEL":"CENSUSTRACT","AV_SCORE":100,"RUCA":2.0,"N_STREET":"COTTONWOOD","AV_ALPHA":"11","TRACT00":"020601","BLOCK00":"2038","N_ADDRESS":"1055 COTTONWOOD DR","N_UNIT":"","X_COORD":-119.24827,"TYPE":"Temporary Worker Housing License","N_ZIP4":"8710","N_STATE":"WA","TRACT90":"020600","BLOCK90":"62","Y_COORDS":"46.38849","N_ZIP":"99301","AV_ZIP":"99301","BG00":"2","STATE":"WA","N_CITY":"PASCO","N_POSTDIR":"","AV_DATE":"Mon Mar 31 07:38:38 2008","BG90":"2","ACCURACY":"Close","TRACT90D":"0206.002","geometry":{"type":"Point","coordinates":[-119.248273148085,46.3884873349162]},"ZIP4":"8710","N_STRSUF":"DR","Y_COORD":46.38849,"id":"a652y5rh8kw0","ADDRESS":"1055 Cottonwood Dr","N_MCODE":"S00","N_PREDIR":"","SOURCE":"TIGER 2006","QUALITY":"03","TRACT00D":"0206.012","X_COORDS":"-119.24827","AV_CITY":""},{"NAME":"Chinook Orchards","CITY":"Brewster","CERTAINTY":"1","ZCTA":"98812","AV_CO":"047","ZIP":"98812","N_LCODE":"AS1","N_HOUSENUM":"75","GEOLEVEL":"CENSUSTRACT","AV_SCORE":100,"RUCA":10.0,"N_STREET":"CHINOOK","AV_ALPHA":"24","TRACT00":"970800","BLOCK00":"2005","N_ADDRESS":"75 CHINOOK WAY","N_UNIT":"","X_COORD":-119.73869,"TYPE":"Temporary Worker Housing License","N_ZIP4":"9698","N_STATE":"WA","TRACT90":"970800","BLOCK90":"29","Y_COORDS":"48.11681","N_ZIP":"98812","AV_ZIP":"98812","BG00":"2","STATE":"WA","N_CITY":"BREWSTER","N_POSTDIR":"","AV_DATE":"Mon Mar 31 07:38:38 2008","BG90":"2","ACCURACY":"Close","TRACT90D":"9708.002","geometry":{"type":"Point","coordinates":[-119.738687006723,48.116806826833]},"ZIP4":"9698","N_STRSUF":"WAY","Y_COORD":48.11681,"id":"a652y5ibt7fp","ADDRESS":"75 Chinook Way","N_MCODE":"S00","N_PREDIR":"","SOURCE":"TIGER 2006","QUALITY":"03","TRACT00D":"9708.002","X_COORDS":"-119.73869","AV_CITY":""},{"NAME":"Clyde Skeels","CITY":"Quincy","CERTAINTY":"1","ZCTA":"98848","AV_CO":"025","ZIP":"98848","N_LCODE":"AS1","N_HOUSENUM":"9498","GEOLEVEL":"CENSUSTRACT","AV_SCORE":60,"RUCA":8.0,"N_STREET":"ROAD V","AV_ALPHA":"13","TRACT00":"980500","BLOCK00":"1100","N_ADDRESS":"9498 ROAD V NW","N_UNIT":"","X_COORD":-119.96096,"TYPE":"Temporary Worker Housing License","N_ZIP4":"9634","N_STATE":"WA","TRACT90":"980500","BLOCK90":"72","Y_COORDS":"47.22557","N_ZIP":"98848","AV_ZIP":"98848","BG00":"1","STATE":"WA","N_CITY":"QUINCY","N_POSTDIR":"NW","AV_DATE":"Mon Mar 31 07:38:38 2008","BG90":"1","ACCURACY":"Approximate","TRACT90D":"9805.001","geometry":{"type":"Point","coordinates":[-119.960956825397,47.2255713392034]},"ZIP4":"9634","N_STRSUF":"","Y_COORD":47.22557,"id":"a652y5k0jjd7","ADDRESS":"9498 Road V NW","N_MCODE":"S00","N_PREDIR":"","SOURCE":"GDT 1000","QUALITY":"03","TRACT00D":"9805.001","X_COORDS":"-119.96096","AV_CITY":""},{"NAME":"DELLINGER #2","CITY":"BURLINGTON","CERTAINTY":"3","ZCTA":"98273","AV_CO":"057","ZIP":"98233","N_LCODE":"ZT7F","N_HOUSENUM":"18381","GEOLEVEL":"ZIPCODE","AV_SCORE":40,"RUCA":1.0,"N_STREET":"WHITMARSH","AV_ALPHA":"29","TRACT00":"951800","BLOCK00":"2052","N_ADDRESS":"18381 WHITMARSH RD","N_UNIT":"","X_COORD":-122.34248,"TYPE":"Temporary Worker Housing License","N_ZIP4":"","N_STATE":"WA","TRACT90":"951800","BLOCK90":"47A","Y_COORDS":"48.44619","N_ZIP":"98233","AV_ZIP":"98273","BG00":"2","STATE":"WA","N_CITY":"BURLINGTON","N_POSTDIR":"","AV_DATE":"Mon Mar 31 07:38:38 2008","BG90":"2","ACCURACY":"Very Approximate","TRACT90D":"9518.002","geometry":{"type":"Point","coordinates":[-122.342475366,48.4461929700492]},"ZIP4":"","N_STRSUF":"RD","Y_COORD":48.44619,"id":"a652y5rgmv10","ADDRESS":"18381 WHITMARSH RD","N_MCODE":"E022","N_PREDIR":"","SOURCE":"Street Centroid","QUALITY":"05","TRACT00D":"9518.002","X_COORDS":"-122.34248","AV_CITY":"BURLINGTON"},{"NAME":"Dobbins Berry Farm","CITY":"Woodland","CERTAINTY":"1","ZCTA":"98674","AV_CO":"015","ZIP":"98674","N_LCODE":"AS1","N_HOUSENUM":"1405","GEOLEVEL":"CENSUSTRACT","AV_SCORE":100,"RUCA":7.1,"N_STREET":"GOERIG","AV_ALPHA":"08","TRACT00":"001500","BLOCK00":"1020","N_ADDRESS":"1405 GOERIG RD","N_UNIT":"","X_COORD":-122.7704,"TYPE":"Temporary Worker Housing License","N_ZIP4":"9545","N_STATE":"WA","TRACT90":"001500","BLOCK90":"13","Y_COORDS":"45.90089","N_ZIP":"98674","AV_ZIP":"98674","BG00":"1","STATE":"WA","N_CITY":"WOODLAND","N_POSTDIR":"","AV_DATE":"Mon Mar 31 07:38:38 2008","BG90":"1","ACCURACY":"Close","TRACT90D":"0015.001","geometry":{"type":"Point","coordinates":[-122.77040498447,45.9008946333845]},"ZIP4":"9545","N_STRSUF":"RD","Y_COORD":45.90089,"id":"a652y5cmtuv9","ADDRESS":"1405 Goerig Rd","N_MCODE":"S00","N_PREDIR":"","SOURCE":"TIGER 2006","QUALITY":"03","TRACT00D":"0015.001","X_COORDS":"-122.77040","AV_CITY":""},{"NAME":"East Oroville Harvest","CITY":"Oroville","CERTAINTY":"3","ZCTA":"98844","AV_CO":"047","ZIP":"98844","N_LCODE":"ZT7F","N_HOUSENUM":"","GEOLEVEL":"ZIPCODE","AV_SCORE":40,"RUCA":10.0,"N_STREET":"SAWTELLS","AV_ALPHA":"24","TRACT00":"970300","BLOCK00":"3059","N_ADDRESS":"SAWTELLS RD","N_UNIT":"","X_COORD":-119.40325,"TYPE":"Temporary Worker Housing License","N_ZIP4":"","N_STATE":"WA","TRACT90":"970300","BLOCK90":"05","Y_COORDS":"48.94259","N_ZIP":"98844","AV_ZIP":"98844","BG00":"3","STATE":"WA","N_CITY":"OROVILLE","N_POSTDIR":"","AV_DATE":"Mon Mar 31 07:38:38 2008","BG90":"4","ACCURACY":"Very Approximate","TRACT90D":"9703.004","geometry":{"type":"Point","coordinates":[-119.403247338,48.9425855145524]},"ZIP4":"","N_STRSUF":"RD","Y_COORD":48.94259,"id":"a652y5cnapvd","ADDRESS":"Sawtells Rd","N_MCODE":"E022","N_PREDIR":"","SOURCE":"Street Centroid","QUALITY":"05","TRACT00D":"9703.003","X_COORDS":"-119.40325","AV_CITY":""},{"NAME":"Ehlers Farm","CITY":"Lynden","CERTAINTY":"1","ZCTA":"98264","AV_CO":"073","ZIP":"98264","N_LCODE":"AS1","N_HOUSENUM":"2300","GEOLEVEL":"CENSUSTRACT","AV_SCORE":100,"RUCA":2.0,"N_STREET":"HALVERSTICK","AV_ALPHA":"37","TRACT00":"010200","BLOCK00":"1002","N_ADDRESS":"2300 HALVERSTICK RD","N_UNIT":"","X_COORD":-122.35625,"TYPE":"Temporary Worker Housing License","N_ZIP4":"9317","N_STATE":"WA","TRACT90":"010200","BLOCK90":"01B","Y_COORDS":"48.99384","N_ZIP":"98264","AV_ZIP":"98264","BG00":"1","STATE":"WA","N_CITY":"LYNDEN","N_POSTDIR":"","AV_DATE":"Mon Mar 31 07:38:38 2008","BG90":"1","ACCURACY":"Close","TRACT90D":"0102.001","geometry":{"type":"Point","coordinates":[-122.356249716474,48.9938402878384]},"ZIP4":"9317","N_STRSUF":"RD","Y_COORD":48.99384,"id":"a652y5ot8ovu","ADDRESS":"2300 Halverstick Rd","N_MCODE":"S00","N_PREDIR":"","SOURCE":"TIGER 2006","QUALITY":"03","TRACT00D":"0102.001","X_COORDS":"-122.35625","AV_CITY":""},{"NAME":"Enfield Farms","CITY":"Lynden","CERTAINTY":"1","ZCTA":"98264","AV_CO":"073","ZIP":"98264","N_LCODE":"AS1","N_HOUSENUM":"1064","GEOLEVEL":"CENSUSTRACT","AV_SCORE":100,"RUCA":7.1,"N_STREET":"BIRCH BAY LYNDEN","AV_ALPHA":"37","TRACT00":"010301","BLOCK00":"1034","N_ADDRESS":"1064 BIRCH BAY LYNDEN RD","N_UNIT":"","X_COORD":-122.53926,"TYPE":"Temporary Worker Housing License","N_ZIP4":"9490","N_STATE":"WA","TRACT90":"010300","BLOCK90":"25","Y_COORDS":"48.93582","N_ZIP":"98264","AV_ZIP":"98248","BG00":"1","STATE":"WA","N_CITY":"LYNDEN","N_POSTDIR":"","AV_DATE":"Mon Mar 31 07:38:38 2008","BG90":"6","ACCURACY":"Close","TRACT90D":"0103.006","geometry":{"type":"Point","coordinates":[-122.539256744798,48.9358197673055]},"ZIP4":"","N_STRSUF":"RD","Y_COORD":48.93582,"id":"a652y5c1pgh7","ADDRESS":"1064 Birch Bay - Lynden Rd","N_MCODE":"S80","N_PREDIR":"","SOURCE":"TIGER 2006","QUALITY":"03","TRACT00D":"0103.011","X_COORDS":"-122.53926","AV_CITY":""},{"NAME":"Enfield farms Inc - Mission Rd Housing","CITY":"Everson","CERTAINTY":"1","ZCTA":"98247","AV_CO":"073","ZIP":"98247","N_LCODE":"AS1","N_HOUSENUM":"6455","GEOLEVEL":"CENSUSTRACT","AV_SCORE":100,"RUCA":2.0,"N_STREET":"MISSION","AV_ALPHA":"37","TRACT00":"010700","BLOCK00":"4028","N_ADDRESS":"6455 MISSION RD","N_UNIT":"","X_COORD":-122.35381,"TYPE":"Temporary Worker Housing License","N_ZIP4":"9754","N_STATE":"WA","TRACT90":"010700","BLOCK90":"18","Y_COORDS":"48.87440","N_ZIP":"98247","AV_ZIP":"98247","BG00":"4","STATE":"WA","N_CITY":"EVERSON","N_POSTDIR":"","AV_DATE":"Mon Mar 31 07:38:38 2008","BG90":"4","ACCURACY":"Close","TRACT90D":"0107.004","geometry":{"type":"Point","coordinates":[-122.353814378004,48.8744031496784]},"ZIP4":"9754","N_STRSUF":"RD","Y_COORD":48.8744,"id":"a652y5o2byqx","ADDRESS":"6455 Mission Rd","N_MCODE":"S00","N_PREDIR":"","SOURCE":"TIGER 2006","QUALITY":"03","TRACT00D":"0107.004","X_COORDS":"-122.35381","AV_CITY":""},{"NAME":"Erickson Farms","CITY":"Mount Vernon","CERTAINTY":"5","ZCTA":"","AV_CO":"057","ZIP":"98273","N_LCODE":"ZC5X","N_HOUSENUM":"1607","GEOLEVEL":"CITY","AV_SCORE":0,"RUCA":1.0,"N_STREET":"LACONNER-WHITNEY","AV_ALPHA":"29","TRACT00":"952500","BLOCK00":"2006","N_ADDRESS":"1607 LACONNER-WHITNEY RD","N_UNIT":"","X_COORD":-122.33278,"TYPE":"Temporary Worker Housing License","N_ZIP4":"","N_STATE":"WA","TRACT90":"952500","BLOCK90":"24","Y_COORDS":"48.42139","N_ZIP":"98273","AV_ZIP":"","BG00":"2","STATE":"WA","N_CITY":"MOUNT VERNON","N_POSTDIR":"","AV_DATE":"","BG90":"1","ACCURACY":"Very Approximate","TRACT90D":"9525.001","geometry":{"type":"Point","coordinates":[-122.33278,48.421389999049]},"ZIP4":"","N_STRSUF":"RD","Y_COORD":48.42139,"id":"a652y5plc7vc","ADDRESS":"1607 LaConner-Whitney Rd","N_MCODE":"E022","N_PREDIR":"","SOURCE":"City or Place Centroid","QUALITY":"11","TRACT00D":"9525.002","X_COORDS":"-122.33278","AV_CITY":""},{"NAME":"Esperanza","CITY":"Mattawa","CERTAINTY":"1","ZCTA":"99349","AV_CO":"025","ZIP":"99349","N_LCODE":"AS1","N_HOUSENUM":"403","GEOLEVEL":"CENSUSTRACT","AV_SCORE":100,"RUCA":10.0,"N_STREET":"BOUNDARY","AV_ALPHA":"13","TRACT00":"981400","BLOCK00":"4125","N_ADDRESS":"403 BOUNDARY RD","N_UNIT":"","X_COORD":-119.89623,"TYPE":"Temporary Worker Housing License","N_ZIP4":"","N_STATE":"WA","TRACT90":"981400","BLOCK90":"40C","Y_COORDS":"46.73681","N_ZIP":"99349","AV_ZIP":"99349","BG00":"4","STATE":"WA","N_CITY":"MATTAWA","N_POSTDIR":"","AV_DATE":"Mon Mar 31 07:38:38 2008","BG90":"4","ACCURACY":"Close","TRACT90D":"9814.004","geometry":{"type":"Point","coordinates":[-119.896230633998,46.7368054797722]},"ZIP4":"","N_STRSUF":"RD","Y_COORD":46.73681,"id":"a652y5kqmr4v","ADDRESS":"403 Boundary","N_MCODE":"T81","N_PREDIR":"","SOURCE":"TIGER 2006","QUALITY":"03","TRACT00D":"9814.004","X_COORDS":"-119.89623","AV_CITY":"MATTAWA"},{"NAME":"Foster Farms","CITY":"Pasco","CERTAINTY":"1","ZCTA":"99301","AV_CO":"021","ZIP":"99301","N_LCODE":"AS1","N_HOUSENUM":"11051","GEOLEVEL":"CENSUSTRACT","AV_SCORE":100,"RUCA":2.0,"N_STREET":"TAYLOR FLATS","AV_ALPHA":"11","TRACT00":"020601","BLOCK00":"2050","N_ADDRESS":"11051 TAYLOR FLATS RD","N_UNIT":"","X_COORD":-119.19633,"TYPE":"Temporary Worker Housing License","N_ZIP4":"8667","N_STATE":"WA","TRACT90":"020600","BLOCK90":"30","Y_COORDS":"46.45260","N_ZIP":"99301","AV_ZIP":"99301","BG00":"2","STATE":"WA","N_CITY":"PASCO","N_POSTDIR":"","AV_DATE":"Mon Mar 31 07:38:38 2008","BG90":"2","ACCURACY":"Close","TRACT90D":"0206.002","geometry":{"type":"Point","coordinates":[-119.196327891123,46.4525995071725]},"ZIP4":"8667","N_STRSUF":"RD","Y_COORD":46.4526,"id":"a652y5jdqk8b","ADDRESS":"11051 Taylor Flats Rd","N_MCODE":"S00","N_PREDIR":"","SOURCE":"TIGER 2006","QUALITY":"03","TRACT00D":"0206.012","X_COORDS":"-119.19633","AV_CITY":""},{"NAME":"Fredonia Labor Housing - Ken Dahlstedt","CITY":"Mount Vernon","CERTAINTY":"1","ZCTA":"98273","AV_CO":"057","ZIP":"98273","N_LCODE":"AS1","N_HOUSENUM":"14235","GEOLEVEL":"CENSUSTRACT","AV_SCORE":100,"RUCA":1.0,"N_STREET":"MCFARLAND","AV_ALPHA":"29","TRACT00":"951900","BLOCK00":"2042","N_ADDRESS":"14235 MCFARLAND RD","N_UNIT":"","X_COORD":-122.43879,"TYPE":"Temporary Worker Housing License","N_ZIP4":"9030","N_STATE":"WA","TRACT90":"951900","BLOCK90":"28","Y_COORDS":"48.44718","N_ZIP":"98273","AV_ZIP":"98273","BG00":"2","STATE":"WA","N_CITY":"MOUNT VERNON","N_POSTDIR":"","AV_DATE":"Mon Mar 31 07:38:38 2008","BG90":"2","ACCURACY":"Close","TRACT90D":"9519.002","geometry":{"type":"Point","coordinates":[-122.438793993175,48.4471790283191]},"ZIP4":"9030","N_STRSUF":"RD","Y_COORD":48.44718,"id":"a652y5odzzgx","ADDRESS":"14235 McFarland Rd","N_MCODE":"S00","N_PREDIR":"","SOURCE":"TIGER 2006","QUALITY":"03","TRACT00D":"9519.002","X_COORDS":"-122.43879","AV_CITY":""},{"NAME":"GLOBAL HORIZONS - LOWRY STREET","CITY":"MOSES LAKE","CERTAINTY":"5","ZCTA":"","AV_CO":"025","ZIP":"98837","N_LCODE":"ZC5X","N_HOUSENUM":"908","GEOLEVEL":"CITY","AV_SCORE":0,"RUCA":4.0,"N_STREET":"910 921 923 1001 1027 LOWRY","AV_ALPHA":"13","TRACT00":"981100","BLOCK00":"2018","N_ADDRESS":"908 910 921 923 1001 1027 LOWRY ST","N_UNIT":"","X_COORD":-119.27694,"TYPE":"Temporary Worker Housing License","N_ZIP4":"","N_STATE":"WA","TRACT90":"981100","BLOCK90":"21","Y_COORDS":"47.13028","N_ZIP":"98837","AV_ZIP":"","BG00":"2","STATE":"WA","N_CITY":"MOSES LAKE","N_POSTDIR":"","AV_DATE":"","BG90":"2","ACCURACY":"Very Approximate","TRACT90D":"9811.002","geometry":{"type":"Point","coordinates":[-119.27694,47.1302799990594]},"ZIP4":"","N_STRSUF":"ST","Y_COORD":47.13028,"id":"a652y5cwv6cm","ADDRESS":"908 910 921 923 1001 1027 LOWRY ST","N_MCODE":"E020","N_PREDIR":"","SOURCE":"City or Place Centroid","QUALITY":"11","TRACT00D":"9811.002","X_COORDS":"-119.27694","AV_CITY":""},{"NAME":"GLOBAL HORIZONS - MOBILE HOME","CITY":"ZILLAH","CERTAINTY":"1","ZCTA":"98953","AV_CO":"077","ZIP":"98953","N_LCODE":"AS1","N_HOUSENUM":"381","GEOLEVEL":"CENSUSTRACT","AV_SCORE":100,"RUCA":4.2,"N_STREET":"BUENA LOOP","AV_ALPHA":"39","TRACT00":"002200","BLOCK00":"3010","N_ADDRESS":"381 BUENA LOOP RD","N_UNIT":"","X_COORD":-120.31966,"TYPE":"Temporary Worker Housing License","N_ZIP4":"9168","N_STATE":"WA","TRACT90":"002200","BLOCK90":"06","Y_COORDS":"46.42250","N_ZIP":"98953","AV_ZIP":"98953","BG00":"3","STATE":"WA","N_CITY":"ZILLAH","N_POSTDIR":"","AV_DATE":"Mon Mar 31 07:38:38 2008","BG90":"3","ACCURACY":"Close","TRACT90D":"0022.003","geometry":{"type":"Point","coordinates":[-120.319657410822,46.4225018244548]},"ZIP4":"","N_STRSUF":"RD","Y_COORD":46.4225,"id":"a652y5jkf88a","ADDRESS":"381 BUENA LOOP RD","N_MCODE":"S80","N_PREDIR":"","SOURCE":"TIGER 2006","QUALITY":"03","TRACT00D":"0022.003","X_COORDS":"-120.31966","AV_CITY":""},{"NAME":"GLOBAL HORIZONS - QUAIL RIDGE APARTMENTS","CITY":"YAKIMA","CERTAINTY":"1","ZCTA":"98902","AV_CO":"077","ZIP":"98902","N_LCODE":"AS1","N_HOUSENUM":"1500","GEOLEVEL":"CENSUSTRACT","AV_SCORE":100,"RUCA":1.0,"N_STREET":"MEAD","AV_ALPHA":"39","TRACT00":"001200","BLOCK00":"4005","N_ADDRESS":"1500 W MEAD AVE","N_UNIT":"","X_COORD":-120.52894,"TYPE":"Temporary Worker Housing License","N_ZIP4":"6141","N_STATE":"WA","TRACT90":"001200","BLOCK90":"06","Y_COORDS":"46.57765","N_ZIP":"98902","AV_ZIP":"98902","BG00":"4","STATE":"WA","N_CITY":"YAKIMA","N_POSTDIR":"","AV_DATE":"Mon Mar 31 07:38:38 2008","BG90":"4","ACCURACY":"Close","TRACT90D":"0012.004","geometry":{"type":"Point","coordinates":[-120.5289435,46.5776511736614]},"ZIP4":"","N_STRSUF":"AVE","Y_COORD":46.57765,"id":"a652y5p04584","ADDRESS":"1500 W MEAD AVE","N_MCODE":"S80","N_PREDIR":"W","SOURCE":"TIGER 2006","QUALITY":"03","TRACT00D":"0012.004","X_COORDS":"-120.52894","AV_CITY":"YAKIMA"},{"NAME":"GLOBAL HORIZONS - RESIDENTIAL #1","CITY":"ZILLAH","CERTAINTY":"1","ZCTA":"98953","AV_CO":"077","ZIP":"98953","N_LCODE":"AS1","N_HOUSENUM":"1671","GEOLEVEL":"CENSUSTRACT","AV_SCORE":100,"RUCA":4.2,"N_STREET":"HOUGHTON","AV_ALPHA":"39","TRACT00":"002200","BLOCK00":"5031","N_ADDRESS":"1671 HOUGHTON RD","N_UNIT":"","X_COORD":-120.18619,"TYPE":"Temporary Worker Housing License","N_ZIP4":"9072","N_STATE":"WA","TRACT90":"002200","BLOCK90":"40","Y_COORDS":"46.42270","N_ZIP":"98953","AV_ZIP":"98953","BG00":"5","STATE":"WA","N_CITY":"ZILLAH","N_POSTDIR":"","AV_DATE":"Mon Mar 31 07:38:38 2008","BG90":"6","ACCURACY":"Close","TRACT90D":"0022.006","geometry":{"type":"Point","coordinates":[-120.186185775723,46.4226994148815]},"ZIP4":"","N_STRSUF":"RD","Y_COORD":46.4227,"id":"a652y5o5aqc7","ADDRESS":"1671 HOUGHTON RD","N_MCODE":"S80","N_PREDIR":"","SOURCE":"TIGER 2006","QUALITY":"03","TRACT00D":"0022.005","X_COORDS":"-120.18619","AV_CITY":""},{"NAME":"GOLD DIGGER ORCHARDS (BLACKLER)","CITY":"OROVILLE","CERTAINTY":"4","ZCTA":"98844","AV_CO":"047","ZIP":"98844","N_LCODE":"ZT5V","N_HOUSENUM":"","GEOLEVEL":"ZIPCODE","AV_SCORE":70,"RUCA":10.0,"N_STREET":"HWY 97","AV_ALPHA":"24","TRACT00":"970300","BLOCK00":"4004","N_ADDRESS":"HWY 97 S","N_UNIT":"","X_COORD":-119.3777,"TYPE":"Temporary Worker Housing License","N_ZIP4":"","N_STATE":"WA","TRACT90":"970300","BLOCK90":"05","Y_COORDS":"48.91700","N_ZIP":"98844","AV_ZIP":"98844","BG00":"4","STATE":"WA","N_CITY":"OROVILLE","N_POSTDIR":"S","AV_DATE":"Mon Mar 31 07:38:38 2008","BG90":"4","ACCURACY":"Very Approximate","TRACT90D":"9703.004","geometry":{"type":"Point","coordinates":[-119.377701,48.9169999990522]},"ZIP4":"","N_STRSUF":"","Y_COORD":48.917,"id":"a652y5gpp0n0","ADDRESS":"HWY 97 S","N_MCODE":"E022","N_PREDIR":"","SOURCE":"Centrus","QUALITY":"09","TRACT00D":"9703.004","X_COORDS":"-119.37770","AV_CITY":""},{"NAME":"GOLD DIGGER ORCHARDS (KERNAN)","CITY":"OROVILLE","CERTAINTY":"1","ZCTA":"98844","AV_CO":"047","ZIP":"98844","N_LCODE":"AS1","N_HOUSENUM":"55","GEOLEVEL":"CENSUSTRACT","AV_SCORE":100,"RUCA":10.0,"N_STREET":"HART","AV_ALPHA":"24","TRACT00":"970300","BLOCK00":"8202","N_ADDRESS":"55 HART RD","N_UNIT":"","X_COORD":-119.44774,"TYPE":"Temporary Worker Housing License","N_ZIP4":"9554","N_STATE":"WA","TRACT90":"970300","BLOCK90":"42","Y_COORDS":"48.93328","N_ZIP":"98844","AV_ZIP":"98844","BG00":"8","STATE":"WA","N_CITY":"OROVILLE","N_POSTDIR":"","AV_DATE":"Mon Mar 31 07:38:38 2008","BG90":"8","ACCURACY":"Close","TRACT90D":"9703.008","geometry":{"type":"Point","coordinates":[-119.447736107471,48.9332797480432]},"ZIP4":"","N_STRSUF":"RD","Y_COORD":48.93328,"id":"a652y5i6a64m","ADDRESS":"55 HART RD","N_MCODE":"S80","N_PREDIR":"","SOURCE":"TIGER 2000","QUALITY":"03","TRACT00D":"9703.008","X_COORDS":"-119.44774","AV_CITY":""},{"NAME":"GOLD DIGGER ORCHARDS (NORTH CO)","CITY":"TONASKET","CERTAINTY":"1","ZCTA":"98855","AV_CO":"047","ZIP":"98855","N_LCODE":"AS1","N_HOUSENUM":"32188","GEOLEVEL":"CENSUSTRACT","AV_SCORE":60,"RUCA":10.0,"N_STREET":"HIGHWAY 97","AV_ALPHA":"24","TRACT00":"970300","BLOCK00":"4131","N_ADDRESS":"32188 HIGHWAY 97","N_UNIT":"","X_COORD":-119.3991,"TYPE":"Temporary Worker Housing License","N_ZIP4":"9245","N_STATE":"WA","TRACT90":"970300","BLOCK90":"84","Y_COORDS":"48.79335","N_ZIP":"98855","AV_ZIP":"98855","BG00":"4","STATE":"WA","N_CITY":"TONASKET","N_POSTDIR":"","AV_DATE":"Mon Mar 31 07:38:38 2008","BG90":"4","ACCURACY":"Approximate","TRACT90D":"9703.004","geometry":{"type":"Point","coordinates":[-119.399103174603,48.7933469040894]},"ZIP4":"","N_STRSUF":"","Y_COORD":48.79335,"id":"a652y5r3wqfm","ADDRESS":"32188 HWY 97","N_MCODE":"S80","N_PREDIR":"","SOURCE":"NAVTECH-HWY","QUALITY":"03","TRACT00D":"9703.004","X_COORDS":"-119.39910","AV_CITY":""},{"NAME":"GORDON CARLSON RANCH","CITY":"YAKIMA","CERTAINTY":"1","ZCTA":"98908","AV_CO":"077","ZIP":"98903","N_LCODE":"AP0","N_HOUSENUM":"12110","GEOLEVEL":"CENSUSTRACT","AV_SCORE":100,"RUCA":1.0,"N_STREET":"OCCIDENTAL","AV_ALPHA":"39","TRACT00":"002800","BLOCK00":"2035","N_ADDRESS":"12110 OCCIDENTAL RD","N_UNIT":"","X_COORD":-120.67143,"TYPE":"Temporary Worker Housing License","N_ZIP4":"9202","N_STATE":"WA","TRACT90":"002800","BLOCK90":"42","Y_COORDS":"46.56571","N_ZIP":"98903","AV_ZIP":"98908","BG00":"2","STATE":"WA","N_CITY":"YAKIMA","N_POSTDIR":"","AV_DATE":"Mon Mar 31 07:38:38 2008","BG90":"2","ACCURACY":"Close","TRACT90D":"0028.002","geometry":{"type":"Point","coordinates":[-120.671432818,46.5657085100582]},"ZIP4":"","N_STRSUF":"RD","Y_COORD":46.56571,"id":"a652y5m7rars","ADDRESS":"12110 OCCIDENTAL RD","N_MCODE":"S80","N_PREDIR":"","SOURCE":"Local Parcels","QUALITY":"02","TRACT00D":"0028.002","X_COORDS":"-120.67143","AV_CITY":""},{"NAME":"GREEN ACRE FARMS INC HOUSING","CITY":"HARRAH","CERTAINTY":"4","ZCTA":"98933","AV_CO":"077","ZIP":"98933","N_LCODE":"ZT5V","N_HOUSENUM":"100","GEOLEVEL":"ZIPCODE","AV_SCORE":70,"RUCA":2.0,"N_STREET":"IS","AV_ALPHA":"39","TRACT00":"002600","BLOCK00":"4033","N_ADDRESS":"100 IS RD","N_UNIT":"","X_COORD":-120.5975,"TYPE":"Temporary Worker Housing License","N_ZIP4":"","N_STATE":"WA","TRACT90":"002600","BLOCK90":"24","Y_COORDS":"46.40320","N_ZIP":"98933","AV_ZIP":"98933","BG00":"4","STATE":"WA","N_CITY":"HARRAH","N_POSTDIR":"","AV_DATE":"Mon Mar 31 07:38:38 2008","BG90":"7","ACCURACY":"Very Approximate","TRACT90D":"0026.007","geometry":{"type":"Point","coordinates":[-120.597504,46.4031979990579]},"ZIP4":"","N_STRSUF":"RD","Y_COORD":46.4032,"id":"a652y5odbjpa","ADDRESS":"100 IS RD","N_MCODE":"E024","N_PREDIR":"","SOURCE":"Centrus","QUALITY":"09","TRACT00D":"0026.004","X_COORDS":"-120.59750","AV_CITY":""},{"NAME":"HOME RANCH #1 (NAUMES)","CITY":"ENTIAT","CERTAINTY":"1","ZCTA":"98822","AV_CO":"007","ZIP":"98822","N_LCODE":"AS1","N_HOUSENUM":"5396","GEOLEVEL":"CENSUSTRACT","AV_SCORE":100,"RUCA":10.1,"N_STREET":"ENTIAT RIVER","AV_ALPHA":"04","TRACT00":"960100","BLOCK00":"3012","N_ADDRESS":"5396 ENTIAT RIVER RD","N_UNIT":"","X_COORD":-120.2997,"TYPE":"Temporary Worker Housing License","N_ZIP4":"9724","N_STATE":"WA","TRACT90":"960100","BLOCK90":"15","Y_COORDS":"47.66833","N_ZIP":"98822","AV_ZIP":"98822","BG00":"3","STATE":"WA","N_CITY":"ENTIAT","N_POSTDIR":"","AV_DATE":"Mon Mar 31 07:38:38 2008","BG90":"3","ACCURACY":"Close","TRACT90D":"9601.003","geometry":{"type":"Point","coordinates":[-120.299704336576,47.6683343082304]},"ZIP4":"","N_STRSUF":"RD","Y_COORD":47.66833,"id":"a652y5ou4slq","ADDRESS":"5396 ENTIAT RIVER RD","N_MCODE":"S80","N_PREDIR":"","SOURCE":"TIGER 2006","QUALITY":"03","TRACT00D":"9601.003","X_COORDS":"-120.29970","AV_CITY":""},{"NAME":"HULBERT FARMS #2","CITY":"MOUNT VERNON","CERTAINTY":"1","ZCTA":"98273","AV_CO":"057","ZIP":"98273","N_LCODE":"AS1","N_HOUSENUM":"20525","GEOLEVEL":"CENSUSTRACT","AV_SCORE":100,"RUCA":2.1,"N_STREET":"DRY SLOUGH","AV_ALPHA":"29","TRACT00":"952700","BLOCK00":"3018","N_ADDRESS":"20525 DRY SLOUGH RD","N_UNIT":"","X_COORD":-122.38465,"TYPE":"Temporary Worker Housing License","N_ZIP4":"7150","N_STATE":"WA","TRACT90":"952700","BLOCK90":"64","Y_COORDS":"48.34858","N_ZIP":"98273","AV_ZIP":"98273","BG00":"3","STATE":"WA","N_CITY":"MOUNT VERNON","N_POSTDIR":"","AV_DATE":"Mon Mar 31 07:38:38 2008","BG90":"3","ACCURACY":"Close","TRACT90D":"9527.003","geometry":{"type":"Point","coordinates":[-122.384647414178,48.3485773952105]},"ZIP4":"","N_STRSUF":"RD","Y_COORD":48.34858,"id":"a652y5f29awp","ADDRESS":"20525 DRY SLOUGH RD","N_MCODE":"S80","N_PREDIR":"","SOURCE":"TIGER 2006","QUALITY":"03","TRACT00D":"9527.003","X_COORDS":"-122.38465","AV_CITY":""},{"NAME":"Heritage Glen (Chelan Ct / Wenatchee Housing Authority)","CITY":"East Wenatchee","CERTAINTY":"1","ZCTA":"98802","AV_CO":"017","ZIP":"98802","N_LCODE":"AS1","N_HOUSENUM":"665","GEOLEVEL":"CENSUSTRACT","AV_SCORE":100,"RUCA":1.0,"N_STREET":"3RD","AV_ALPHA":"09","TRACT00":"950700","BLOCK00":"2008","N_ADDRESS":"665 3RD ST NE","N_UNIT":"","X_COORD":-120.2779,"TYPE":"Temporary Worker Housing License","N_ZIP4":"7906","N_STATE":"WA","TRACT90":"950700","BLOCK90":"15","Y_COORDS":"47.40967","N_ZIP":"98802","AV_ZIP":"98802","BG00":"2","STATE":"WA","N_CITY":"EAST WENATCHEE","N_POSTDIR":"NE","AV_DATE":"Mon Mar 31 07:38:38 2008","BG90":"2","ACCURACY":"Close","TRACT90D":"9507.002","geometry":{"type":"Point","coordinates":[-120.277895344082,47.409672301795]},"ZIP4":"7906","N_STRSUF":"ST","Y_COORD":47.40967,"id":"a652y5i1azah","ADDRESS":"665 3rd St NE","N_MCODE":"S00","N_PREDIR":"","SOURCE":"TIGER 2006","QUALITY":"03","TRACT00D":"9507.002","X_COORDS":"-120.27790","AV_CITY":"EAST WENATCHEE"},{"NAME":"High Valley Orchards - Quail Ridge Apartments","CITY":"Yakima","CERTAINTY":"1","ZCTA":"98902","AV_CO":"077","ZIP":"98902","N_LCODE":"AS1","N_HOUSENUM":"1500","GEOLEVEL":"CENSUSTRACT","AV_SCORE":100,"RUCA":1.0,"N_STREET":"MEAD","AV_ALPHA":"39","TRACT00":"001200","BLOCK00":"4005","N_ADDRESS":"1500 W MEAD AVE","N_UNIT":"","X_COORD":-120.52894,"TYPE":"Temporary Worker Housing License","N_ZIP4":"6141","N_STATE":"WA","TRACT90":"001200","BLOCK90":"06","Y_COORDS":"46.57765","N_ZIP":"98902","AV_ZIP":"98902","BG00":"4","STATE":"WA","N_CITY":"YAKIMA","N_POSTDIR":"","AV_DATE":"Mon Mar 31 07:38:38 2008","BG90":"4","ACCURACY":"Close","TRACT90D":"0012.004","geometry":{"type":"Point","coordinates":[-120.5289435,46.5776511736614]},"ZIP4":"6141","N_STRSUF":"AVE","Y_COORD":46.57765,"id":"a652y5g6dm9a","ADDRESS":"1500 W Mead Ave","N_MCODE":"S00","N_PREDIR":"W","SOURCE":"TIGER 2006","QUALITY":"03","TRACT00D":"0012.004","X_COORDS":"-120.52894","AV_CITY":"YAKIMA"},{"NAME":"Highland Mobil Home Park","CITY":"Bridgeport","CERTAINTY":"1","ZCTA":"98813","AV_CO":"017","ZIP":"98813","N_LCODE":"AS1","N_HOUSENUM":"929","GEOLEVEL":"CENSUSTRACT","AV_SCORE":100,"RUCA":10.0,"N_STREET":"MAPLE","AV_ALPHA":"09","TRACT00":"950100","BLOCK00":"4010","N_ADDRESS":"929 MAPLE ST","N_UNIT":"","X_COORD":-119.68145,"TYPE":"Temporary Worker Housing License","N_ZIP4":"","N_STATE":"WA","TRACT90":"950100","BLOCK90":"05","Y_COORDS":"48.00939","N_ZIP":"98813","AV_ZIP":"98813","BG00":"4","STATE":"WA","N_CITY":"BRIDGEPORT","N_POSTDIR":"","AV_DATE":"Mon Mar 31 07:38:38 2008","BG90":"4","ACCURACY":"Close","TRACT90D":"9501.004","geometry":{"type":"Point","coordinates":[-119.681450362319,48.0093913493237]},"ZIP4":"","N_STRSUF":"ST","Y_COORD":48.00939,"id":"a652y5cuudig","ADDRESS":"929 Maple St","N_MCODE":"T80","N_PREDIR":"","SOURCE":"TIGER 2006","QUALITY":"03","TRACT00D":"9501.004","X_COORDS":"-119.68145","AV_CITY":"BRIDGEPORT"},{"NAME":"Highland Motel","CITY":"Bridgeport","CERTAINTY":"1","ZCTA":"98813","AV_CO":"017","ZIP":"98813","N_LCODE":"AS1","N_HOUSENUM":"2402","GEOLEVEL":"CENSUSTRACT","AV_SCORE":100,"RUCA":10.0,"N_STREET":"MONROE","AV_ALPHA":"09","TRACT00":"950100","BLOCK00":"3040","N_ADDRESS":"2402 MONROE AVE","N_UNIT":"","X_COORD":-119.6624,"TYPE":"Temporary Worker Housing License","N_ZIP4":"9745","N_STATE":"WA","TRACT90":"950100","BLOCK90":"43","Y_COORDS":"48.00000","N_ZIP":"98813","AV_ZIP":"98813","BG00":"3","STATE":"WA","N_CITY":"BRIDGEPORT","N_POSTDIR":"","AV_DATE":"Mon Mar 31 07:38:38 2008","BG90":"3","ACCURACY":"Close","TRACT90D":"9501.003","geometry":{"type":"Point","coordinates":[-119.662404938316,47.9999984995792]},"ZIP4":"9745","N_STRSUF":"AVE","Y_COORD":48.0,"id":"a652y5ii7ynj","ADDRESS":"2402 Monroe Ave","N_MCODE":"S00","N_PREDIR":"","SOURCE":"TIGER 2006","QUALITY":"03","TRACT00D":"9501.003","X_COORDS":"-119.66240","AV_CITY":"BRIDGEPORT"},{"NAME":"Highland Orchard Bunkhouse","CITY":"Bridgeport","CERTAINTY":"5","ZCTA":"","AV_CO":"017","ZIP":"98813","N_LCODE":"ZC5X","N_HOUSENUM":"","GEOLEVEL":"CITY","AV_SCORE":0,"RUCA":10.0,"N_STREET":"HIGHLAND ORCHARD","AV_ALPHA":"09","TRACT00":"950100","BLOCK00":"3009","N_ADDRESS":"HIGHLAND ORCHARD RD","N_UNIT":"","X_COORD":-119.67,"TYPE":"Temporary Worker Housing License","N_ZIP4":"","N_STATE":"WA","TRACT90":"950100","BLOCK90":"10","Y_COORDS":"48.00833","N_ZIP":"98813","AV_ZIP":"","BG00":"3","STATE":"WA","N_CITY":"BRIDGEPORT","N_POSTDIR":"","AV_DATE":"","BG90":"3","ACCURACY":"Very Approximate","TRACT90D":"9501.003","geometry":{"type":"Point","coordinates":[-119.67,48.0083299990465]},"ZIP4":"","N_STRSUF":"RD","Y_COORD":48.00833,"id":"a652y5bfquym","ADDRESS":"Highland Orchard Rd","N_MCODE":"E022","N_PREDIR":"","SOURCE":"City or Place Centroid","QUALITY":"11","TRACT00D":"9501.003","X_COORDS":"-119.67000","AV_CITY":""},{"NAME":"Hughes Farms - Harrison","CITY":"Mount Vernon","CERTAINTY":"1","ZCTA":"98273","AV_CO":"057","ZIP":"98273","N_LCODE":"AS1","N_HOUSENUM":"1317","GEOLEVEL":"CENSUSTRACT","AV_SCORE":100,"RUCA":1.0,"N_STREET":"HARRISON","AV_ALPHA":"29","TRACT00":"952500","BLOCK00":"4006","N_ADDRESS":"1317 HARRISON ST","N_UNIT":"","X_COORD":-122.3406,"TYPE":"Temporary Worker Housing License","N_ZIP4":"4820","N_STATE":"WA","TRACT90":"952500","BLOCK90":"05","Y_COORDS":"48.41270","N_ZIP":"98273","AV_ZIP":"98273","BG00":"4","STATE":"WA","N_CITY":"MOUNT VERNON","N_POSTDIR":"","AV_DATE":"Mon Mar 31 07:38:38 2008","BG90":"4","ACCURACY":"Close","TRACT90D":"9525.004","geometry":{"type":"Point","coordinates":[-122.340600721972,48.4126994137622]},"ZIP4":"4820","N_STRSUF":"ST","Y_COORD":48.4127,"id":"a652y5d4bwpw","ADDRESS":"1317 Harrison St","N_MCODE":"S00","N_PREDIR":"","SOURCE":"TIGER 2006","QUALITY":"03","TRACT00D":"9525.004","X_COORDS":"-122.34060","AV_CITY":"MOUNT VERNON"},{"NAME":"Hughes Farms - Mann 22","CITY":"Mount Vernon","CERTAINTY":"1","ZCTA":"98273","AV_CO":"057","ZIP":"98273","N_LCODE":"AS1","N_HOUSENUM":"21422","GEOLEVEL":"CENSUSTRACT","AV_SCORE":100,"RUCA":2.1,"N_STREET":"MANN","AV_ALPHA":"29","TRACT00":"952700","BLOCK00":"3045","N_ADDRESS":"21422 MANN RD","N_UNIT":"","X_COORD":-122.35394,"TYPE":"Temporary Worker Housing License","N_ZIP4":"9520","N_STATE":"WA","TRACT90":"952700","BLOCK90":"65","Y_COORDS":"48.32981","N_ZIP":"98273","AV_ZIP":"98273","BG00":"3","STATE":"WA","N_CITY":"MOUNT VERNON","N_POSTDIR":"","AV_DATE":"Mon Mar 31 07:38:38 2008","BG90":"3","ACCURACY":"Close","TRACT90D":"9527.003","geometry":{"type":"Point","coordinates":[-122.353944206357,48.3298110952106]},"ZIP4":"9520","N_STRSUF":"RD","Y_COORD":48.32981,"id":"a652y5mj1yzn","ADDRESS":"21422 Mann Rd","N_MCODE":"S00","N_PREDIR":"","SOURCE":"TIGER 2006","QUALITY":"03","TRACT00D":"9527.003","X_COORDS":"-122.35394","AV_CITY":""},{"NAME":"Hughes Farms - Mann 52","CITY":"Mount Vernon","CERTAINTY":"1","ZCTA":"98273","AV_CO":"057","ZIP":"98273","N_LCODE":"AS1","N_HOUSENUM":"21052","GEOLEVEL":"CENSUSTRACT","AV_SCORE":100,"RUCA":2.1,"N_STREET":"MANN","AV_ALPHA":"29","TRACT00":"952700","BLOCK00":"3046","N_ADDRESS":"21052 MANN RD","N_UNIT":"","X_COORD":-122.35277,"TYPE":"Temporary Worker Housing License","N_ZIP4":"9507","N_STATE":"WA","TRACT90":"952700","BLOCK90":"65","Y_COORDS":"48.34014","N_ZIP":"98273","AV_ZIP":"98273","BG00":"3","STATE":"WA","N_CITY":"MOUNT VERNON","N_POSTDIR":"","AV_DATE":"Mon Mar 31 07:38:38 2008","BG90":"3","ACCURACY":"Close","TRACT90D":"9527.003","geometry":{"type":"Point","coordinates":[-122.352770082009,48.3401373716648]},"ZIP4":"9507","N_STRSUF":"RD","Y_COORD":48.34014,"id":"a652y5hn8mtp","ADDRESS":"21052 Mann Rd","N_MCODE":"S00","N_PREDIR":"","SOURCE":"NAVTECH","QUALITY":"03","TRACT00D":"9527.003","X_COORDS":"-122.35277","AV_CITY":""},{"NAME":"Hughes Farms - Polsen","CITY":"Mount Vernon","CERTAINTY":"1","ZCTA":"98273","AV_CO":"057","ZIP":"98273","N_LCODE":"AS1","N_HOUSENUM":"17431","GEOLEVEL":"CENSUSTRACT","AV_SCORE":100,"RUCA":2.1,"N_STREET":"POLSON","AV_ALPHA":"29","TRACT00":"952700","BLOCK00":"3013","N_ADDRESS":"17431 POLSON RD","N_UNIT":"","X_COORD":-122.37068,"TYPE":"Temporary Worker Housing License","N_ZIP4":"7104","N_STATE":"WA","TRACT90":"952700","BLOCK90":"47","Y_COORDS":"48.35618","N_ZIP":"98273","AV_ZIP":"98273","BG00":"3","STATE":"WA","N_CITY":"MOUNT VERNON","N_POSTDIR":"","AV_DATE":"Mon Mar 31 07:38:38 2008","BG90":"3","ACCURACY":"Close","TRACT90D":"9527.003","geometry":{"type":"Point","coordinates":[-122.370682085516,48.3561792652167]},"ZIP4":"7104","N_STRSUF":"RD","Y_COORD":48.35618,"id":"a652y5hksuw3","ADDRESS":"17431 Polson Rd","N_MCODE":"S00","N_PREDIR":"","SOURCE":"TIGER 2006","QUALITY":"03","TRACT00D":"9527.003","X_COORDS":"-122.37068","AV_CITY":""},{"NAME":"Hughes Farms - Polsen 15","CITY":"Mount Vernon","CERTAINTY":"1","ZCTA":"98273","AV_CO":"057","ZIP":"98273","N_LCODE":"AS1","N_HOUSENUM":"15930","GEOLEVEL":"CENSUSTRACT","AV_SCORE":100,"RUCA":2.1,"N_STREET":"POLSON","AV_ALPHA":"29","TRACT00":"952700","BLOCK00":"3022","N_ADDRESS":"15930 POLSON RD","N_UNIT":"","X_COORD":-122.40247,"TYPE":"Temporary Worker Housing License","N_ZIP4":"7144","N_STATE":"WA","TRACT90":"952700","BLOCK90":"51","Y_COORDS":"48.35537","N_ZIP":"98273","AV_ZIP":"98273","BG00":"3","STATE":"WA","N_CITY":"MOUNT VERNON","N_POSTDIR":"","AV_DATE":"Mon Mar 31 07:38:38 2008","BG90":"3","ACCURACY":"Close","TRACT90D":"9527.003","geometry":{"type":"Point","coordinates":[-122.402471381373,48.3553726958916]},"ZIP4":"","N_STRSUF":"RD","Y_COORD":48.35537,"id":"a652y5jz39ll","ADDRESS":"15930 Polsen Rd","N_MCODE":"S88","N_PREDIR":"","SOURCE":"TIGER 2006","QUALITY":"03","TRACT00D":"9527.003","X_COORDS":"-122.40247","AV_CITY":""},{"NAME":"INDIAN CAMP-BUCKHORN MOUNTAIN ORCHARDS","CITY":"PATEROS","CERTAINTY":"4","ZCTA":"98812","AV_CO":"047","ZIP":"98846","N_LCODE":"ZT5V","N_HOUSENUM":"","GEOLEVEL":"ZIPCODE","AV_SCORE":70,"RUCA":10.0,"N_STREET":"HWY 153 2 MILES FROM","AV_ALPHA":"24","TRACT00":"970800","BLOCK00":"5004","N_ADDRESS":"HWY 153 2 MILES FROM","N_UNIT":"","X_COORD":-119.9179,"TYPE":"Temporary Worker Housing License","N_ZIP4":"","N_STATE":"WA","TRACT90":"970800","BLOCK90":"05C","Y_COORDS":"48.06780","N_ZIP":"98846","AV_ZIP":"98846","BG00":"5","STATE":"WA","N_CITY":"PATEROS","N_POSTDIR":"","AV_DATE":"Mon Mar 31 07:38:38 2008","BG90":"5","ACCURACY":"Very Approximate","TRACT90D":"9708.005","geometry":{"type":"Point","coordinates":[-119.9179,48.0677989990468]},"ZIP4":"","N_STRSUF":"","Y_COORD":48.0678,"id":"a652y5p6ztcl","ADDRESS":"HWY 153 2 MILES FROM","N_MCODE":"E020","N_PREDIR":"","SOURCE":"Centrus","QUALITY":"09","TRACT00D":"9708.005","X_COORDS":"-119.91790","AV_CITY":""},{"NAME":"Inaba Produce Farms","CITY":"Wapato","CERTAINTY":"5","ZCTA":"","AV_CO":"077","ZIP":"98951","N_LCODE":"ZC5X","N_HOUSENUM":"6401","GEOLEVEL":"CITY","AV_SCORE":0,"RUCA":2.0,"N_STREET":"6403 6405 &amp; 6407 LATERAL C","AV_ALPHA":"39","TRACT00":"002500","BLOCK00":"2001","N_ADDRESS":"6401 6403 6405 &amp; 6407 LATERAL C RD","N_UNIT":"","X_COORD":-120.41917,"TYPE":"Temporary Worker Housing License","N_ZIP4":"","N_STATE":"WA","TRACT90":"002500","BLOCK90":"01A","Y_COORDS":"46.44778","N_ZIP":"98951","AV_ZIP":"","BG00":"2","STATE":"WA","N_CITY":"WAPATO","N_POSTDIR":"","AV_DATE":"","BG90":"2","ACCURACY":"Very Approximate","TRACT90D":"0025.002","geometry":{"type":"Point","coordinates":[-120.41917,46.447779999058]},"ZIP4":"","N_STRSUF":"RD","Y_COORD":46.44778,"id":"a652y5kchsu3","ADDRESS":"6401 6403 6405 &amp; 6407 Lateral C Rd","N_MCODE":"E020","N_PREDIR":"","SOURCE":"City or Place Centroid","QUALITY":"11","TRACT00D":"0025.002","X_COORDS":"-120.41917","AV_CITY":""},{"NAME":"JJR Properties","CITY":"Pasco","CERTAINTY":"5","ZCTA":"","AV_CO":"021","ZIP":"99301","N_LCODE":"ZC5X","N_HOUSENUM":"9590","GEOLEVEL":"CITY","AV_SCORE":0,"RUCA":1.0,"N_STREET":"GLADE N","AV_ALPHA":"11","TRACT00":"020200","BLOCK00":"2006","N_ADDRESS":"9590 GLADE N RD","N_UNIT":"","X_COORD":-119.09944,"TYPE":"Temporary Worker Housing License","N_ZIP4":"","N_STATE":"WA","TRACT90":"020200","BLOCK90":"07","Y_COORDS":"46.23972","N_ZIP":"99301","AV_ZIP":"","BG00":"2","STATE":"WA","N_CITY":"PASCO","N_POSTDIR":"","AV_DATE":"","BG90":"2","ACCURACY":"Very Approximate","TRACT90D":"0202.002","geometry":{"type":"Point","coordinates":[-119.09944,46.2397199990577]},"ZIP4":"","N_STRSUF":"RD","Y_COORD":46.23972,"id":"a652y5m8gbkr","ADDRESS":"9590 Glade N Rd","N_MCODE":"E020","N_PREDIR":"","SOURCE":"City or Place Centroid","QUALITY":"11","TRACT00D":"0202.002","X_COORDS":"-119.09944","AV_CITY":""},{"NAME":"JN CAMP-BUCKHORN MOUNTAIN ORCHARDS","CITY":"PATEROS","CERTAINTY":"4","ZCTA":"98812","AV_CO":"047","ZIP":"98846","N_LCODE":"ZT5V","N_HOUSENUM":"14396","GEOLEVEL":"ZIPCODE","AV_SCORE":70,"RUCA":10.0,"N_STREET":"HWY 97","AV_ALPHA":"24","TRACT00":"970800","BLOCK00":"5004","N_ADDRESS":"14396 HWY 97","N_UNIT":"","X_COORD":-119.9179,"TYPE":"Temporary Worker Housing License","N_ZIP4":"","N_STATE":"WA","TRACT90":"970800","BLOCK90":"05C","Y_COORDS":"48.06780","N_ZIP":"98846","AV_ZIP":"98846","BG00":"5","STATE":"WA","N_CITY":"PATEROS","N_POSTDIR":"","AV_DATE":"Mon Mar 31 07:38:38 2008","BG90":"5","ACCURACY":"Very Approximate","TRACT90D":"9708.005","geometry":{"type":"Point","coordinates":[-119.9179,48.0677989990468]},"ZIP4":"","N_STRSUF":"","Y_COORD":48.0678,"id":"a652y5k5ln7f","ADDRESS":"14396 HWY 97","N_MCODE":"E024","N_PREDIR":"","SOURCE":"Centrus","QUALITY":"09","TRACT00D":"9708.005","X_COORDS":"-119.91790","AV_CITY":""},{"NAME":"Johns Farms Cabin #3","CITY":"Bridgeport","CERTAINTY":"1","ZCTA":"98812","AV_CO":"047","ZIP":"98813","N_LCODE":"AS0","N_HOUSENUM":"213","GEOLEVEL":"CENSUSTRACT","AV_SCORE":70,"RUCA":10.3,"N_STREET":"JACK WELLS","AV_ALPHA":"24","TRACT00":"970200","BLOCK00":"3118","N_ADDRESS":"213 JACK WELLS RD","N_UNIT":"","X_COORD":-119.62691,"TYPE":"Temporary Worker Housing License","N_ZIP4":"9774","N_STATE":"WA","TRACT90":"970200","BLOCK90":"77","Y_COORDS":"48.01749","N_ZIP":"98813","AV_ZIP":"99116","BG00":"3","STATE":"WA","N_CITY":"BRIDGEPORT","N_POSTDIR":"","AV_DATE":"Mon Mar 31 07:38:38 2008","BG90":"3","ACCURACY":"Approximate","TRACT90D":"9702.003","geometry":{"type":"Point","coordinates":[-119.626907,48.0174939990465]},"ZIP4":"9774","N_STRSUF":"RD","Y_COORD":48.01749,"id":"a652y5r4melv","ADDRESS":"213 Jack Wells Rd","N_MCODE":"S00","N_PREDIR":"","SOURCE":"Centrus","QUALITY":"03","TRACT00D":"9702.003","X_COORDS":"-119.62691","AV_CITY":""},{"NAME":"K B N","CITY":"OTHELLO","CERTAINTY":"1","ZCTA":"99344","AV_CO":"025","ZIP":"98837","N_LCODE":"AS1","N_HOUSENUM":"103","GEOLEVEL":"CENSUSTRACT","AV_SCORE":100,"RUCA":10.0,"N_STREET":"CHRISTENSEN","AV_ALPHA":"13","TRACT00":"981400","BLOCK00":"2106","N_ADDRESS":"103 CHRISTENSEN RD","N_UNIT":"","X_COORD":-119.48574,"TYPE":"Temporary Worker Housing License","N_ZIP4":"9143","N_STATE":"WA","TRACT90":"981400","BLOCK90":"70","Y_COORDS":"46.91738","N_ZIP":"99344","AV_ZIP":"99344","BG00":"2","STATE":"WA","N_CITY":"OTHELLO","N_POSTDIR":"","AV_DATE":"Mon Mar 31 07:38:38 2008","BG90":"2","ACCURACY":"Close","TRACT90D":"9814.002","geometry":{"type":"Point","coordinates":[-119.48574399911,46.9173784137753]},"ZIP4":"","N_STRSUF":"RD","Y_COORD":46.91738,"id":"a652y5hixy40","ADDRESS":"103 CHRISTIENSON RD","N_MCODE":"S99","N_PREDIR":"","SOURCE":"TIGER 2006","QUALITY":"03","TRACT00D":"9814.002","X_COORDS":"-119.48574","AV_CITY":""},{"NAME":"K O H I (Housing)","CITY":"Wenatchee","CERTAINTY":"1","ZCTA":"98801","AV_CO":"007","ZIP":"98801","N_LCODE":"AS1","N_HOUSENUM":"4597","GEOLEVEL":"CENSUSTRACT","AV_SCORE":100,"RUCA":2.0,"N_STREET":"STEMILT HILL","AV_ALPHA":"04","TRACT00":"961200","BLOCK00":"1033","N_ADDRESS":"4597 STEMILT HILL RD","N_UNIT":"","X_COORD":-120.26104,"TYPE":"Temporary Worker Housing License","N_ZIP4":"8933","N_STATE":"WA","TRACT90":"961200","BLOCK90":"22","Y_COORDS":"47.34230","N_ZIP":"98801","AV_ZIP":"98801","BG00":"1","STATE":"WA","N_CITY":"WENATCHEE","N_POSTDIR":"","AV_DATE":"Mon Mar 31 07:38:38 2008","BG90":"1","ACCURACY":"Close","TRACT90D":"9612.001","geometry":{"type":"Point","coordinates":[-120.261042265457,47.3422956516575]},"ZIP4":"8933","N_STRSUF":"RD","Y_COORD":47.3423,"id":"a652y5p7y2j8","ADDRESS":"4597 Stemilt Hill Rd","N_MCODE":"S00","N_PREDIR":"","SOURCE":"TIGER 2006","QUALITY":"03","TRACT00D":"9612.001","X_COORDS":"-120.26104","AV_CITY":""},{"NAME":"L S PARTNERS","CITY":"MANSON","CERTAINTY":"1","ZCTA":"98831","AV_CO":"007","ZIP":"98831","N_LCODE":"AS1","N_HOUSENUM":"1215","GEOLEVEL":"CENSUSTRACT","AV_SCORE":100,"RUCA":10.6,"N_STREET":"WINESAP","AV_ALPHA":"04","TRACT00":"960400","BLOCK00":"1057","N_ADDRESS":"1215 WINESAP AVE","N_UNIT":"","X_COORD":-120.09796,"TYPE":"Temporary Worker Housing License","N_ZIP4":"","N_STATE":"WA","TRACT90":"960400","BLOCK90":"09","Y_COORDS":"47.87890","N_ZIP":"98831","AV_ZIP":"98831","BG00":"1","STATE":"WA","N_CITY":"MANSON","N_POSTDIR":"","AV_DATE":"Mon Mar 31 07:38:38 2008","BG90":"4","ACCURACY":"Close","TRACT90D":"9604.004","geometry":{"type":"Point","coordinates":[-120.097962961563,47.8788962122758]},"ZIP4":"","N_STRSUF":"AVE","Y_COORD":47.8789,"id":"a652y5mr8i5q","ADDRESS":"1215 WINESAP AVE","N_MCODE":"T80","N_PREDIR":"","SOURCE":"TIGER 2006","QUALITY":"03","TRACT00D":"9604.001","X_COORDS":"-120.09796","AV_CITY":""},{"NAME":"LUCKY BADGER ORCHARDS - BUNKHOUSE","CITY":"ORONDO","CERTAINTY":"1","ZCTA":"98843","AV_CO":"017","ZIP":"98843","N_LCODE":"AS0","N_HOUSENUM":"180","GEOLEVEL":"CENSUSTRACT","AV_SCORE":70,"RUCA":10.0,"N_STREET":"BRAYS","AV_ALPHA":"09","TRACT00":"950100","BLOCK00":"5041","N_ADDRESS":"180 BRAYS RD","N_UNIT":"","X_COORD":-120.17059,"TYPE":"Temporary Worker Housing License","N_ZIP4":"9741","N_STATE":"WA","TRACT90":"950100","BLOCK90":"39","Y_COORDS":"47.73495","N_ZIP":"98843","AV_ZIP":"98843","BG00":"5","STATE":"WA","N_CITY":"ORONDO","N_POSTDIR":"","AV_DATE":"Mon Mar 31 07:38:38 2008","BG90":"7","ACCURACY":"Approximate","TRACT90D":"9501.007","geometry":{"type":"Point","coordinates":[-120.170593,47.7349549990449]},"ZIP4":"","N_STRSUF":"RD","Y_COORD":47.73495,"id":"a652y5qlcok3","ADDRESS":"180 BRAYS RD","N_MCODE":"S80","N_PREDIR":"","SOURCE":"Centrus","QUALITY":"03","TRACT00D":"9501.005","X_COORDS":"-120.17059","AV_CITY":""},{"NAME":"LUCKY BADGER ORCHARDS - HOUSE","CITY":"ORONDO","CERTAINTY":"1","ZCTA":"98843","AV_CO":"017","ZIP":"98843","N_LCODE":"AS0","N_HOUSENUM":"187","GEOLEVEL":"CENSUSTRACT","AV_SCORE":70,"RUCA":10.0,"N_STREET":"BRAYS","AV_ALPHA":"09","TRACT00":"950100","BLOCK00":"5047","N_ADDRESS":"187 BRAYS RD","N_UNIT":"","X_COORD":-120.171,"TYPE":"Temporary Worker Housing License","N_ZIP4":"9741","N_STATE":"WA","TRACT90":"950100","BLOCK90":"71","Y_COORDS":"47.73547","N_ZIP":"98843","AV_ZIP":"98843","BG00":"5","STATE":"WA","N_CITY":"ORONDO","N_POSTDIR":"","AV_DATE":"Mon Mar 31 07:38:38 2008","BG90":"7","ACCURACY":"Approximate","TRACT90D":"9501.007","geometry":{"type":"Point","coordinates":[-120.171005,47.7354739990449]},"ZIP4":"","N_STRSUF":"RD","Y_COORD":47.73547,"id":"a652y5l0ld9z","ADDRESS":"187 BRAYS RD","N_MCODE":"S80","N_PREDIR":"","SOURCE":"Centrus","QUALITY":"03","TRACT00D":"9501.005","X_COORDS":"-120.17100","AV_CITY":""},{"NAME":"LUCKY BADGER ORCHARDS - MOBILE","CITY":"ORONDO","CERTAINTY":"1","ZCTA":"98843","AV_CO":"017","ZIP":"98843","N_LCODE":"AS0","N_HOUSENUM":"181","GEOLEVEL":"CENSUSTRACT","AV_SCORE":70,"RUCA":10.0,"N_STREET":"BRAYS","AV_ALPHA":"09","TRACT00":"950100","BLOCK00":"5047","N_ADDRESS":"181 BRAYS RD","N_UNIT":"","X_COORD":-120.171,"TYPE":"Temporary Worker Housing License","N_ZIP4":"9741","N_STATE":"WA","TRACT90":"950100","BLOCK90":"71","Y_COORDS":"47.73503","N_ZIP":"98843","AV_ZIP":"98843","BG00":"5","STATE":"WA","N_CITY":"ORONDO","N_POSTDIR":"","AV_DATE":"Mon Mar 31 07:38:38 2008","BG90":"7","ACCURACY":"Approximate","TRACT90D":"9501.007","geometry":{"type":"Point","coordinates":[-120.171005,47.7350269990448]},"ZIP4":"","N_STRSUF":"RD","Y_COORD":47.73503,"id":"a652y5of9350","ADDRESS":"181 BRAYS RD","N_MCODE":"S80","N_PREDIR":"","SOURCE":"Centrus","QUALITY":"03","TRACT00D":"9501.005","X_COORDS":"-120.17100","AV_CITY":""},{"NAME":"Lake Orchard","CITY":"Orondo","CERTAINTY":"4","ZCTA":"98843","AV_CO":"017","ZIP":"98843","N_LCODE":"ZT7J","N_HOUSENUM":"6","GEOLEVEL":"ZIPCODE","AV_SCORE":70,"RUCA":10.0,"N_STREET":"LAKE ORCHARDS","AV_ALPHA":"09","TRACT00":"950100","BLOCK00":"5018","N_ADDRESS":"6 LAKE ORCHARDS LN","N_UNIT":"","X_COORD":-119.963,"TYPE":"Temporary Worker Housing License","N_ZIP4":"9609","N_STATE":"WA","TRACT90":"950100","BLOCK90":"32","Y_COORDS":"47.78750","N_ZIP":"98843","AV_ZIP":"98843","BG00":"5","STATE":"WA","N_CITY":"ORONDO","N_POSTDIR":"","AV_DATE":"Mon Mar 31 07:38:38 2008","BG90":"7","ACCURACY":"Very Approximate","TRACT90D":"9501.007","geometry":{"type":"Point","coordinates":[-119.962997,47.7874979990452]},"ZIP4":"9609","N_STRSUF":"LN","Y_COORD":47.7875,"id":"a652y5paktc5","ADDRESS":"6 Lake Orchards Ln","N_MCODE":"S00","N_PREDIR":"","SOURCE":"Centrus","QUALITY":"09","TRACT00D":"9501.005","X_COORDS":"-119.96300","AV_CITY":""},{"NAME":"Larson Orchards Inc","CITY":"Selah","CERTAINTY":"1","ZCTA":"98942","AV_CO":"077","ZIP":"98942","N_LCODE":"AS1","N_HOUSENUM":"310","GEOLEVEL":"CENSUSTRACT","AV_SCORE":100,"RUCA":1.0,"N_STREET":"PLEASANT","AV_ALPHA":"39","TRACT00":"003200","BLOCK00":"3031","N_ADDRESS":"310 PLEASANT AVE","N_UNIT":"","X_COORD":-120.53282,"TYPE":"Temporary Worker Housing License","N_ZIP4":"1902","N_STATE":"WA","TRACT90":"003200","BLOCK90":"31","Y_COORDS":"46.64501","N_ZIP":"98942","AV_ZIP":"98942","BG00":"3","STATE":"WA","N_CITY":"SELAH","N_POSTDIR":"","AV_DATE":"Mon Mar 31 07:38:38 2008","BG90":"3","ACCURACY":"Close","TRACT90D":"0032.003","geometry":{"type":"Point","coordinates":[-120.532819679707,46.6450130028303]},"ZIP4":"1902","N_STRSUF":"AVE","Y_COORD":46.64501,"id":"a652y5q70gfw","ADDRESS":"310 Pleasant Ave","N_MCODE":"S00","N_PREDIR":"","SOURCE":"TIGER 2006","QUALITY":"03","TRACT00D":"0032.003","X_COORDS":"-120.53282","AV_CITY":"SELAH"},{"NAME":"MARTINEZ S LIVESTOCK","CITY":"MOXEE CITY","CERTAINTY":"1","ZCTA":"98936","AV_CO":"077","ZIP":"98936","N_LCODE":"AS1","N_HOUSENUM":"13391","GEOLEVEL":"CENSUSTRACT","AV_SCORE":60,"RUCA":2.0,"N_STREET":"HWY 24","AV_ALPHA":"39","TRACT00":"001700","BLOCK00":"6097","N_ADDRESS":"13391 HWY 24","N_UNIT":"","X_COORD":-120.22711,"TYPE":"Temporary Worker Housing License","N_ZIP4":"","N_STATE":"WA","TRACT90":"001700","BLOCK90":"59","Y_COORDS":"46.52064","N_ZIP":"98936","AV_ZIP":"98936","BG00":"6","STATE":"WA","N_CITY":"MOXEE CITY","N_POSTDIR":"","AV_DATE":"Mon Mar 31 07:38:38 2008","BG90":"7","ACCURACY":"Approximate","TRACT90D":"0017.007","geometry":{"type":"Point","coordinates":[-120.22710620612,46.5206365079411]},"ZIP4":"","N_STRSUF":"","Y_COORD":46.52064,"id":"a652y5id0ndt","ADDRESS":"13391 HWY 24","N_MCODE":"E022","N_PREDIR":"","SOURCE":"NAVTECH-HWY","QUALITY":"03","TRACT00D":"0017.006","X_COORDS":"-120.22711","AV_CITY":""},{"NAME":"MERRILL FARMS (12310)","CITY":"ELTOPIA","CERTAINTY":"5","ZCTA":"","AV_CO":"021","ZIP":"99330","N_LCODE":"ZC5X","N_HOUSENUM":"12310","GEOLEVEL":"CITY","AV_SCORE":0,"RUCA":2.0,"N_STREET":"TAYLOR FLATS","AV_ALPHA":"11","TRACT00":"020601","BLOCK00":"1034","N_ADDRESS":"12310 TAYLOR FLATS RD","N_UNIT":"","X_COORD":-119.01611,"TYPE":"Temporary Worker Housing License","N_ZIP4":"","N_STATE":"WA","TRACT90":"020600","BLOCK90":"06","Y_COORDS":"46.45889","N_ZIP":"99330","AV_ZIP":"","BG00":"1","STATE":"WA","N_CITY":"ELTOPIA","N_POSTDIR":"","AV_DATE":"","BG90":"1","ACCURACY":"Very Approximate","TRACT90D":"0206.001","geometry":{"type":"Point","coordinates":[-119.01611,46.458889999058]},"ZIP4":"","N_STRSUF":"RD","Y_COORD":46.45889,"id":"a652y5f0ju20","ADDRESS":"12310 TAYLOR FLATS RD","N_MCODE":"E020","N_PREDIR":"","SOURCE":"City or Place Centroid","QUALITY":"11","TRACT00D":"0206.011","X_COORDS":"-119.01611","AV_CITY":""},{"NAME":"MERRILL FARMS (12430)","CITY":"ELTOPIA","CERTAINTY":"5","ZCTA":"","AV_CO":"021","ZIP":"99330","N_LCODE":"ZC5X","N_HOUSENUM":"12430","GEOLEVEL":"CITY","AV_SCORE":0,"RUCA":2.0,"N_STREET":"TAYLOR FLATS","AV_ALPHA":"11","TRACT00":"020601","BLOCK00":"1034","N_ADDRESS":"12430 TAYLOR FLATS RD","N_UNIT":"","X_COORD":-119.01611,"TYPE":"Temporary Worker Housing License","N_ZIP4":"","N_STATE":"WA","TRACT90":"020600","BLOCK90":"06","Y_COORDS":"46.45889","N_ZIP":"99330","AV_ZIP":"","BG00":"1","STATE":"WA","N_CITY":"ELTOPIA","N_POSTDIR":"","AV_DATE":"","BG90":"1","ACCURACY":"Very Approximate","TRACT90D":"0206.001","geometry":{"type":"Point","coordinates":[-119.01611,46.458889999058]},"ZIP4":"","N_STRSUF":"RD","Y_COORD":46.45889,"id":"a652y5gkkujv","ADDRESS":"12430 TAYLOR FLATS RD","N_MCODE":"E020","N_PREDIR":"","SOURCE":"City or Place Centroid","QUALITY":"11","TRACT00D":"0206.011","X_COORDS":"-119.01611","AV_CITY":""},{"NAME":"MERRILL FARMS (1690)","CITY":"ELTOPIA","CERTAINTY":"1","ZCTA":"99330","AV_CO":"021","ZIP":"99330","N_LCODE":"AS1","N_HOUSENUM":"1690","GEOLEVEL":"CENSUSTRACT","AV_SCORE":100,"RUCA":2.0,"N_STREET":"BELLEVUE","AV_ALPHA":"11","TRACT00":"020601","BLOCK00":"2041","N_ADDRESS":"1690 N BELLEVUE RD","N_UNIT":"","X_COORD":-119.17932,"TYPE":"Temporary Worker Housing License","N_ZIP4":"9731","N_STATE":"WA","TRACT90":"020600","BLOCK90":"23","Y_COORDS":"46.47665","N_ZIP":"99330","AV_ZIP":"99330","BG00":"2","STATE":"WA","N_CITY":"ELTOPIA","N_POSTDIR":"","AV_DATE":"Mon Mar 31 07:38:38 2008","BG90":"2","ACCURACY":"Close","TRACT90D":"0206.002","geometry":{"type":"Point","coordinates":[-119.17932073836,46.4766507570068]},"ZIP4":"","N_STRSUF":"RD","Y_COORD":46.47665,"id":"a652y5m05i9d","ADDRESS":"1690 N BELLEVUE RD","N_MCODE":"S80","N_PREDIR":"N","SOURCE":"TIGER 2006","QUALITY":"03","TRACT00D":"0206.012","X_COORDS":"-119.17932","AV_CITY":""},{"NAME":"MIKE &amp; JEANS BERRY FARM","CITY":"BURLINGTON","CERTAINTY":"1","ZCTA":"98233","AV_CO":"057","ZIP":"98233","N_LCODE":"AS1","N_HOUSENUM":"20290","GEOLEVEL":"CENSUSTRACT","AV_SCORE":100,"RUCA":1.0,"N_STREET":"SANCHEZ","AV_ALPHA":"29","TRACT00":"951600","BLOCK00":"1022","N_ADDRESS":"20290 SANCHEZ LN","N_UNIT":"","X_COORD":-122.30716,"TYPE":"Temporary Worker Housing License","N_ZIP4":"2169","N_STATE":"WA","TRACT90":"951600","BLOCK90":"22B","Y_COORDS":"48.47424","N_ZIP":"98233","AV_ZIP":"98233","BG00":"1","STATE":"WA","N_CITY":"BURLINGTON","N_POSTDIR":"","AV_DATE":"Mon Mar 31 07:38:38 2008","BG90":"1","ACCURACY":"Close","TRACT90D":"9516.001","geometry":{"type":"Point","coordinates":[-122.307159209561,48.4742429565548]},"ZIP4":"","N_STRSUF":"LN","Y_COORD":48.47424,"id":"a652y5jik38q","ADDRESS":"20290 SANCHEZ LN","N_MCODE":"S80","N_PREDIR":"","SOURCE":"TIGER 2006","QUALITY":"03","TRACT00D":"9516.001","X_COORDS":"-122.30716","AV_CITY":"BURLINGTON"},{"NAME":"Maberry Curt Farm","CITY":"Lynden","CERTAINTY":"1","ZCTA":"98264","AV_CO":"073","ZIP":"98264","N_LCODE":"AS1","N_HOUSENUM":"920","GEOLEVEL":"CENSUSTRACT","AV_SCORE":100,"RUCA":7.1,"N_STREET":"BIRCH BAY LYNDEN","AV_ALPHA":"37","TRACT00":"010301","BLOCK00":"1037","N_ADDRESS":"920 BIRCH BAY LYNDEN RD","N_UNIT":"","X_COORD":-122.53122,"TYPE":"Temporary Worker Housing License","N_ZIP4":"9489","N_STATE":"WA","TRACT90":"010300","BLOCK90":"34","Y_COORDS":"48.93578","N_ZIP":"98264","AV_ZIP":"98248","BG00":"1","STATE":"WA","N_CITY":"LYNDEN","N_POSTDIR":"","AV_DATE":"Mon Mar 31 07:38:38 2008","BG90":"6","ACCURACY":"Close","TRACT90D":"0103.006","geometry":{"type":"Point","coordinates":[-122.531215976426,48.9357848706538]},"ZIP4":"9489","N_STRSUF":"RD","Y_COORD":48.93578,"id":"a652y5qfa176","ADDRESS":"920 Birch Bay Lynden Rd","N_MCODE":"S00","N_PREDIR":"","SOURCE":"TIGER 2006","QUALITY":"03","TRACT00D":"0103.011","X_COORDS":"-122.53122","AV_CITY":""},{"NAME":"Maberry Packing (Pole Road)","CITY":"Everson","CERTAINTY":"1","ZCTA":"98264","AV_CO":"073","ZIP":"98247","N_LCODE":"AS1","N_HOUSENUM":"1174","GEOLEVEL":"CENSUSTRACT","AV_SCORE":100,"RUCA":2.0,"N_STREET":"POLE","AV_ALPHA":"37","TRACT00":"010700","BLOCK00":"3027","N_ADDRESS":"1174 E POLE RD","N_UNIT":"","X_COORD":-122.42662,"TYPE":"Temporary Worker Housing License","N_ZIP4":"9642","N_STATE":"WA","TRACT90":"010700","BLOCK90":"16","Y_COORDS":"48.89225","N_ZIP":"98247","AV_ZIP":"98264","BG00":"3","STATE":"WA","N_CITY":"EVERSON","N_POSTDIR":"","AV_DATE":"Mon Mar 31 07:38:38 2008","BG90":"3","ACCURACY":"Close","TRACT90D":"0107.003","geometry":{"type":"Point","coordinates":[-122.426619988991,48.8922534897145]},"ZIP4":"9642","N_STRSUF":"RD","Y_COORD":48.89225,"id":"a652y5o44rei","ADDRESS":"1174 E Pole Rd","N_MCODE":"S00","N_PREDIR":"E","SOURCE":"TIGER 2006","QUALITY":"03","TRACT00D":"0107.003","X_COORDS":"-122.42662","AV_CITY":""},{"NAME":"Maberry Packing Site (Sunrise)","CITY":"Custer","CERTAINTY":"1","ZCTA":"98240","AV_CO":"073","ZIP":"98240","N_LCODE":"AS1","N_HOUSENUM":"8143","GEOLEVEL":"CENSUSTRACT","AV_SCORE":100,"RUCA":7.3,"N_STREET":"SUNRISE","AV_ALPHA":"37","TRACT00":"010401","BLOCK00":"7030","N_ADDRESS":"8143 SUNRISE RD","N_UNIT":"","X_COORD":-122.59698,"TYPE":"Temporary Worker Housing License","N_ZIP4":"9613","N_STATE":"WA","TRACT90":"010401","BLOCK90":"28","Y_COORDS":"48.93719","N_ZIP":"98240","AV_ZIP":"98240","BG00":"7","STATE":"WA","N_CITY":"CUSTER","N_POSTDIR":"","AV_DATE":"Mon Mar 31 07:38:38 2008","BG90":"7","ACCURACY":"Close","TRACT90D":"0104.017","geometry":{"type":"Point","coordinates":[-122.596978026362,48.9371883348369]},"ZIP4":"9613","N_STRSUF":"RD","Y_COORD":48.93719,"id":"a652y5k6j1m8","ADDRESS":"8143 Sunrise Rd","N_MCODE":"S00","N_PREDIR":"","SOURCE":"TIGER 2006","QUALITY":"03","TRACT00D":"0104.017","X_COORDS":"-122.59698","AV_CITY":""},{"NAME":"Mac Thom Orchard","CITY":"Mattawa","CERTAINTY":"1","ZCTA":"99349","AV_CO":"025","ZIP":"99349","N_LCODE":"AS0","N_HOUSENUM":"26241","GEOLEVEL":"CENSUSTRACT","AV_SCORE":70,"RUCA":10.0,"N_STREET":"HIGHWAY 243","AV_ALPHA":"13","TRACT00":"981400","BLOCK00":"4227","N_ADDRESS":"26241 HIGHWAY 243 S","N_UNIT":"","X_COORD":-119.91624,"TYPE":"Temporary Worker Housing License","N_ZIP4":"7210","N_STATE":"WA","TRACT90":"981400","BLOCK90":"62C","Y_COORDS":"46.70684","N_ZIP":"99349","AV_ZIP":"99349","BG00":"4","STATE":"WA","N_CITY":"MATTAWA","N_POSTDIR":"S","AV_DATE":"Mon Mar 31 07:38:38 2008","BG90":"4","ACCURACY":"Approximate","TRACT90D":"9814.004","geometry":{"type":"Point","coordinates":[-119.916237,46.7068409990585]},"ZIP4":"7210","N_STRSUF":"","Y_COORD":46.70684,"id":"a652y5p4dlva","ADDRESS":"26241 Highway 243 S","N_MCODE":"S00","N_PREDIR":"","SOURCE":"Centrus","QUALITY":"03","TRACT00D":"9814.004","X_COORDS":"-119.91624","AV_CITY":""},{"NAME":"Mar - Jon Labor (Kaylee)","CITY":"Othello","CERTAINTY":"1","ZCTA":"99344","AV_CO":"001","ZIP":"99344","N_LCODE":"AS1","N_HOUSENUM":"643","GEOLEVEL":"CENSUSTRACT","AV_SCORE":57,"RUCA":7.0,"N_STREET":"KAYLEE","AV_ALPHA":"01","TRACT00":"950300","BLOCK00":"3068","N_ADDRESS":"643 S KAYLEE RD","N_UNIT":"","X_COORD":-119.19791,"TYPE":"Temporary Worker Housing License","N_ZIP4":"","N_STATE":"WA","TRACT90":"950300","BLOCK90":"11","Y_COORDS":"46.81998","N_ZIP":"99344","AV_ZIP":"99344","BG00":"3","STATE":"WA","N_CITY":"OTHELLO","N_POSTDIR":"","AV_DATE":"Mon Mar 31 07:38:38 2008","BG90":"5","ACCURACY":"Approximate","TRACT90D":"9503.005","geometry":{"type":"Point","coordinates":[-119.197905777136,46.8199819705748]},"ZIP4":"","N_STRSUF":"RD","Y_COORD":46.81998,"id":"a652y5kwrlhy","ADDRESS":"643 S Kaylee Rd","N_MCODE":"E027","N_PREDIR":"S","SOURCE":"TIGER 2006","QUALITY":"03","TRACT00D":"9503.003","X_COORDS":"-119.19791","AV_CITY":""},{"NAME":"Mar - Jon Labor (Kristina)","CITY":"Othello","CERTAINTY":"3","ZCTA":"99344","AV_CO":"001","ZIP":"99344","N_LCODE":"ZT7F","N_HOUSENUM":"629","GEOLEVEL":"ZIPCODE","AV_SCORE":40,"RUCA":7.0,"N_STREET":"KRISTINA","AV_ALPHA":"01","TRACT00":"950300","BLOCK00":"3068","N_ADDRESS":"629 KRISTINA RD","N_UNIT":"","X_COORD":-119.19881,"TYPE":"Temporary Worker Housing License","N_ZIP4":"8502","N_STATE":"WA","TRACT90":"950300","BLOCK90":"11","Y_COORDS":"46.82042","N_ZIP":"99344","AV_ZIP":"99344","BG00":"3","STATE":"WA","N_CITY":"OTHELLO","N_POSTDIR":"","AV_DATE":"Mon Mar 31 07:38:38 2008","BG90":"5","ACCURACY":"Very Approximate","TRACT90D":"9503.005","geometry":{"type":"Point","coordinates":[-119.19881,46.8204149996587]},"ZIP4":"8502","N_STRSUF":"RD","Y_COORD":46.82042,"id":"a652y5dpee2v","ADDRESS":"629 Kristina Rd","N_MCODE":"S00","N_PREDIR":"","SOURCE":"Street Centroid","QUALITY":"05","TRACT00D":"9503.003","X_COORDS":"-119.19881","AV_CITY":""},{"NAME":"Marcus J Griggs Orchards","CITY":"Orondo","CERTAINTY":"4","ZCTA":"98858","AV_CO":"017","ZIP":"98843","N_LCODE":"ZT5V","N_HOUSENUM":"2","GEOLEVEL":"ZIPCODE","AV_SCORE":70,"RUCA":10.4,"N_STREET":"MI N ON HWY 97","AV_ALPHA":"09","TRACT00":"950200","BLOCK00":"1107","N_ADDRESS":"2 MI N ON HWY 97","N_UNIT":"","X_COORD":-120.1061,"TYPE":"Temporary Worker Housing License","N_ZIP4":"","N_STATE":"WA","TRACT90":"950200","BLOCK90":"12","Y_COORDS":"47.72820","N_ZIP":"98843","AV_ZIP":"98858","BG00":"1","STATE":"WA","N_CITY":"ORONDO","N_POSTDIR":"","AV_DATE":"Mon Mar 31 07:38:38 2008","BG90":"2","ACCURACY":"Very Approximate","TRACT90D":"9502.002","geometry":{"type":"Point","coordinates":[-120.106102,47.7281989990448]},"ZIP4":"","N_STRSUF":"","Y_COORD":47.7282,"id":"a652y5okpwoi","ADDRESS":"2 Mi N on Hwy 97","N_MCODE":"E022","N_PREDIR":"","SOURCE":"Centrus","QUALITY":"09","TRACT00D":"9502.001","X_COORDS":"-120.10610","AV_CITY":""},{"NAME":"Mathison Bob Orchards - Stemilt Hill","CITY":"Wenatchee","CERTAINTY":"1","ZCTA":"98801","AV_CO":"007","ZIP":"98801","N_LCODE":"AS1","N_HOUSENUM":"4550","GEOLEVEL":"CENSUSTRACT","AV_SCORE":100,"RUCA":2.0,"N_STREET":"STEMILT CREEK","AV_ALPHA":"04","TRACT00":"961200","BLOCK00":"1077","N_ADDRESS":"4550 STEMILT CREEK RD","N_UNIT":"","X_COORD":-120.27708,"TYPE":"Temporary Worker Housing License","N_ZIP4":"8978","N_STATE":"WA","TRACT90":"961200","BLOCK90":"51","Y_COORDS":"47.34472","N_ZIP":"98801","AV_ZIP":"98801","BG00":"1","STATE":"WA","N_CITY":"WENATCHEE","N_POSTDIR":"","AV_DATE":"Mon Mar 31 07:38:38 2008","BG90":"1","ACCURACY":"Close","TRACT90D":"9612.001","geometry":{"type":"Point","coordinates":[-120.277081605228,47.3447236724164]},"ZIP4":"","N_STRSUF":"RD","Y_COORD":47.34472,"id":"a652y5f25t3m","ADDRESS":"4550 Stemilt Rd","N_MCODE":"S89","N_PREDIR":"","SOURCE":"TIGER 2006","QUALITY":"03","TRACT00D":"9612.001","X_COORDS":"-120.27708","AV_CITY":""},{"NAME":"McDougall &amp; Sons - Skyline Labor Camp","CITY":"Orondo","CERTAINTY":"1","ZCTA":"98843","AV_CO":"017","ZIP":"98843","N_LCODE":"AS1","N_HOUSENUM":"7","GEOLEVEL":"CENSUSTRACT","AV_SCORE":100,"RUCA":10.0,"N_STREET":"MCDOUGALL","AV_ALPHA":"09","TRACT00":"950100","BLOCK00":"5046","N_ADDRESS":"7 MCDOUGALL LN","N_UNIT":"","X_COORD":-120.175,"TYPE":"Temporary Worker Housing License","N_ZIP4":"9608","N_STATE":"WA","TRACT90":"950100","BLOCK90":"70","Y_COORDS":"47.74116","N_ZIP":"98843","AV_ZIP":"98843","BG00":"5","STATE":"WA","N_CITY":"ORONDO","N_POSTDIR":"","AV_DATE":"Mon Mar 31 07:38:38 2008","BG90":"7","ACCURACY":"Close","TRACT90D":"9501.007","geometry":{"type":"Point","coordinates":[-120.174998078279,47.7411642086806]},"ZIP4":"9608","N_STRSUF":"LN","Y_COORD":47.74116,"id":"a652y5camrik","ADDRESS":"7 McDougall Ln","N_MCODE":"S00","N_PREDIR":"","SOURCE":"TIGER 2006","QUALITY":"03","TRACT00D":"9501.005","X_COORDS":"-120.17500","AV_CITY":""},{"NAME":"Mt Adams Orchards - Camp A","CITY":"White Salmon","CERTAINTY":"1","ZCTA":"98672","AV_CO":"039","ZIP":"98672","N_LCODE":"AS1","N_HOUSENUM":"503","GEOLEVEL":"CENSUSTRACT","AV_SCORE":100,"RUCA":4.0,"N_STREET":"OAK RIDGE","AV_ALPHA":"20","TRACT00":"950300","BLOCK00":"2035","N_ADDRESS":"503 OAK RIDGE RD","N_UNIT":"","X_COORD":-121.47661,"TYPE":"Temporary Worker Housing License","N_ZIP4":"8014","N_STATE":"WA","TRACT90":"950300","BLOCK90":"32","Y_COORDS":"45.85882","N_ZIP":"98672","AV_ZIP":"98672","BG00":"2","STATE":"WA","N_CITY":"WHITE SALMON","N_POSTDIR":"","AV_DATE":"Mon Mar 31 07:38:38 2008","BG90":"2","ACCURACY":"Close","TRACT90D":"9503.002","geometry":{"type":"Point","coordinates":[-121.476610693372,45.8588200561916]},"ZIP4":"8014","N_STRSUF":"RD","Y_COORD":45.85882,"id":"a652y5oqca0u","ADDRESS":"503 Oak Ridge Rd","N_MCODE":"S00","N_PREDIR":"","SOURCE":"TIGER 2006","QUALITY":"03","TRACT00D":"9503.002","X_COORDS":"-121.47661","AV_CITY":""},{"NAME":"Mt Adams Orchards - Camp B","CITY":"White Salmon","CERTAINTY":"1","ZCTA":"98672","AV_CO":"039","ZIP":"98672","N_LCODE":"AS1","N_HOUSENUM":"503","GEOLEVEL":"CENSUSTRACT","AV_SCORE":100,"RUCA":4.0,"N_STREET":"OAK RIDGE","AV_ALPHA":"20","TRACT00":"950300","BLOCK00":"2035","N_ADDRESS":"503 OAK RIDGE RD","N_UNIT":"","X_COORD":-121.47661,"TYPE":"Temporary Worker Housing License","N_ZIP4":"8014","N_STATE":"WA","TRACT90":"950300","BLOCK90":"32","Y_COORDS":"45.85882","N_ZIP":"98672","AV_ZIP":"98672","BG00":"2","STATE":"WA","N_CITY":"WHITE SALMON","N_POSTDIR":"","AV_DATE":"Mon Mar 31 07:38:38 2008","BG90":"2","ACCURACY":"Close","TRACT90D":"9503.002","geometry":{"type":"Point","coordinates":[-121.476610693372,45.8588200561916]},"ZIP4":"8014","N_STRSUF":"RD","Y_COORD":45.85882,"id":"a652y5ghqgi1","ADDRESS":"503 Oak Ridge Rd","N_MCODE":"S00","N_PREDIR":"","SOURCE":"TIGER 2006","QUALITY":"03","TRACT00D":"9503.002","X_COORDS":"-121.47661","AV_CITY":""},{"NAME":"NGUON NGUYEN BERRY FARM","CITY":"RIDGEFIELD","CERTAINTY":"1","ZCTA":"98642","AV_CO":"011","ZIP":"98642","N_LCODE":"AS1","N_HOUSENUM":"4415","GEOLEVEL":"CENSUSTRACT","AV_SCORE":100,"RUCA":2.0,"N_STREET":"199TH","AV_ALPHA":"06","TRACT00":"040905","BLOCK00":"1018","N_ADDRESS":"4415 NW 199TH ST","N_UNIT":"","X_COORD":-122.71631,"TYPE":"Temporary Worker Housing License","N_ZIP4":"5945","N_STATE":"WA","TRACT90":"040902","BLOCK90":"10","Y_COORDS":"45.76422","N_ZIP":"98642","AV_ZIP":"98642","BG00":"1","STATE":"WA","N_CITY":"RIDGEFIELD","N_POSTDIR":"","AV_DATE":"Mon Mar 31 07:38:38 2008","BG90":"1","ACCURACY":"Close","TRACT90D":"0409.021","geometry":{"type":"Point","coordinates":[-122.716311684647,45.764221356348]},"ZIP4":"","N_STRSUF":"ST","Y_COORD":45.76422,"id":"a652y5ks3m26","ADDRESS":"4415 NW 199TH ST","N_MCODE":"S80","N_PREDIR":"NW","SOURCE":"TIGER 2006","QUALITY":"03","TRACT00D":"0409.051","X_COORDS":"-122.71631","AV_CITY":""},{"NAME":"Naumes - Robison Ranch #3","CITY":"Wenatchee","CERTAINTY":"5","ZCTA":"","AV_CO":"007","ZIP":"98801","N_LCODE":"ZC5X","N_HOUSENUM":"","GEOLEVEL":"CITY","AV_SCORE":0,"RUCA":1.0,"N_STREET":"NAVARRE COULEE","AV_ALPHA":"04","TRACT00":"961000","BLOCK00":"1004","N_ADDRESS":"NAVARRE COULEE RD","N_UNIT":"","X_COORD":-120.30917,"TYPE":"Temporary Worker Housing License","N_ZIP4":"","N_STATE":"WA","TRACT90":"961000","BLOCK90":"04","Y_COORDS":"47.42361","N_ZIP":"98801","AV_ZIP":"","BG00":"1","STATE":"WA","N_CITY":"WENATCHEE","N_POSTDIR":"","AV_DATE":"","BG90":"1","ACCURACY":"Very Approximate","TRACT90D":"9610.001","geometry":{"type":"Point","coordinates":[-120.30917,47.4236099990431]},"ZIP4":"","N_STRSUF":"RD","Y_COORD":47.42361,"id":"a652y5bxy6um","ADDRESS":"Navarre Coulee Rd","N_MCODE":"E020","N_PREDIR":"","SOURCE":"City or Place Centroid","QUALITY":"11","TRACT00D":"9610.001","X_COORDS":"-120.30917","AV_CITY":""},{"NAME":"Neffs Alta Vista Orchards","CITY":"Pateros","CERTAINTY":"4","ZCTA":"98812","AV_CO":"047","ZIP":"98846","N_LCODE":"ZT5V","N_HOUSENUM":"","GEOLEVEL":"ZIPCODE","AV_SCORE":70,"RUCA":10.0,"N_STREET":"","AV_ALPHA":"24","TRACT00":"970800","BLOCK00":"5004","N_ADDRESS":"","N_UNIT":"","X_COORD":-119.9179,"TYPE":"Temporary Worker Housing License","N_ZIP4":"","N_STATE":"WA","TRACT90":"970800","BLOCK90":"05C","Y_COORDS":"48.06780","N_ZIP":"98846","AV_ZIP":"98846","BG00":"5","STATE":"WA","N_CITY":"PATEROS","N_POSTDIR":"","AV_DATE":"Mon Mar 31 07:38:38 2008","BG90":"5","ACCURACY":"Very Approximate","TRACT90D":"9708.005","geometry":{"type":"Point","coordinates":[-119.9179,48.0677989990468]},"ZIP4":"","N_STRSUF":"","Y_COORD":48.0678,"id":"a652y5qfkrq7","ADDRESS":"","N_MCODE":"E020","N_PREDIR":"","SOURCE":"Centrus","QUALITY":"09","TRACT00D":"9708.005","X_COORDS":"-119.91790","AV_CITY":""},{"NAME":"Nelson and Noack Land Holdings","CITY":"Orondo","CERTAINTY":"1","ZCTA":"98843","AV_CO":"017","ZIP":"98843","N_LCODE":"AS1","N_HOUSENUM":"22840","GEOLEVEL":"CENSUSTRACT","AV_SCORE":60,"RUCA":10.0,"N_STREET":"STATE HIGHWAY 97","AV_ALPHA":"09","TRACT00":"950100","BLOCK00":"5031","N_ADDRESS":"22840 STATE HIGHWAY 97","N_UNIT":"","X_COORD":-120.06518,"TYPE":"Temporary Worker Housing License","N_ZIP4":"9780","N_STATE":"WA","TRACT90":"950100","BLOCK90":"57","Y_COORDS":"47.76516","N_ZIP":"98843","AV_ZIP":"98843","BG00":"5","STATE":"WA","N_CITY":"ORONDO","N_POSTDIR":"","AV_DATE":"Mon Mar 31 07:38:38 2008","BG90":"7","ACCURACY":"Approximate","TRACT90D":"9501.007","geometry":{"type":"Point","coordinates":[-120.065180510433,47.7651622230411]},"ZIP4":"9780","N_STRSUF":"","Y_COORD":47.76516,"id":"a652y5bpu299","ADDRESS":"22840 State Highway 97","N_MCODE":"S00","N_PREDIR":"","SOURCE":"NAVTECH-HWY","QUALITY":"03","TRACT00D":"9501.005","X_COORDS":"-120.06518","AV_CITY":""},{"NAME":"New Life Villa","CITY":"Mabton","CERTAINTY":"1","ZCTA":"98935","AV_CO":"077","ZIP":"98935","N_LCODE":"AS1","N_HOUSENUM":"107","GEOLEVEL":"CENSUSTRACT","AV_SCORE":100,"RUCA":10.5,"N_STREET":"HIGH SCHOOL","AV_ALPHA":"39","TRACT00":"002701","BLOCK00":"2027","N_ADDRESS":"107 HIGH SCHOOL RD","N_UNIT":"","X_COORD":-119.99126,"TYPE":"Temporary Worker Housing License","N_ZIP4":"9488","N_STATE":"WA","TRACT90":"002700","BLOCK90":"39B","Y_COORDS":"46.21290","N_ZIP":"98935","AV_ZIP":"98935","BG00":"2","STATE":"WA","N_CITY":"MABTON","N_POSTDIR":"","AV_DATE":"Mon Mar 31 07:38:38 2008","BG90":"2","ACCURACY":"Close","TRACT90D":"0027.002","geometry":{"type":"Point","coordinates":[-119.991259189086,46.2128952337859]},"ZIP4":"9488","N_STRSUF":"RD","Y_COORD":46.2129,"id":"a652y5ip7i3b","ADDRESS":"107 High School Rd","N_MCODE":"S00","N_PREDIR":"","SOURCE":"Local Roads","QUALITY":"03","TRACT00D":"0027.012","X_COORDS":"-119.99126","AV_CITY":"MABTON"},{"NAME":"OK Ranch","CITY":"Tonasket","CERTAINTY":"3","ZCTA":"98827","AV_CO":"047","ZIP":"98855","N_LCODE":"ZT7F","N_HOUSENUM":"55","GEOLEVEL":"ZIPCODE","AV_SCORE":40,"RUCA":10.6,"N_STREET":"LOOMIS","AV_ALPHA":"24","TRACT00":"970400","BLOCK00":"2099","N_ADDRESS":"55 LOOMIS HWY","N_UNIT":"","X_COORD":-119.63553,"TYPE":"Temporary Worker Housing License","N_ZIP4":"","N_STATE":"WA","TRACT90":"970400","BLOCK90":"21","Y_COORDS":"48.81983","N_ZIP":"98855","AV_ZIP":"98827","BG00":"2","STATE":"WA","N_CITY":"TONASKET","N_POSTDIR":"","AV_DATE":"Mon Mar 31 07:38:38 2008","BG90":"2","ACCURACY":"Very Approximate","TRACT90D":"9704.002","geometry":{"type":"Point","coordinates":[-119.635534897,48.8198299990516]},"ZIP4":"","N_STRSUF":"HWY","Y_COORD":48.81983,"id":"a652y5pjpvf1","ADDRESS":"55 Loomis Hwy","N_MCODE":"E020","N_PREDIR":"","SOURCE":"Street Centroid","QUALITY":"05","TRACT00D":"9704.002","X_COORDS":"-119.63553","AV_CITY":""},{"NAME":"Olsen Brothers Ranches","CITY":"Prosser","CERTAINTY":"1","ZCTA":"99350","AV_CO":"005","ZIP":"99350","N_LCODE":"AS1","N_HOUSENUM":"63001","GEOLEVEL":"CENSUSTRACT","AV_SCORE":100,"RUCA":2.0,"N_STREET":"EVANS","AV_ALPHA":"03","TRACT00":"011900","BLOCK00":"4098","N_ADDRESS":"63001 W EVANS RD","N_UNIT":"","X_COORD":-119.62991,"TYPE":"Temporary Worker Housing License","N_ZIP4":"6653","N_STATE":"WA","TRACT90":"011900","BLOCK90":"71","Y_COORDS":"46.28713","N_ZIP":"99350","AV_ZIP":"99350","BG00":"4","STATE":"WA","N_CITY":"PROSSER","N_POSTDIR":"","AV_DATE":"Mon Mar 31 07:38:38 2008","BG90":"4","ACCURACY":"Close","TRACT90D":"0119.004","geometry":{"type":"Point","coordinates":[-119.629911454479,46.2871253745092]},"ZIP4":"6653","N_STRSUF":"RD","Y_COORD":46.28713,"id":"a652y5gle5k6","ADDRESS":"63001 W Evans Rd","N_MCODE":"S00","N_PREDIR":"W","SOURCE":"TIGER 2006","QUALITY":"03","TRACT00D":"0119.004","X_COORDS":"-119.62991","AV_CITY":""},{"NAME":"Orondo Orchard","CITY":"Orondo","CERTAINTY":"1","ZCTA":"98843","AV_CO":"017","ZIP":"98843","N_LCODE":"AS1","N_HOUSENUM":"21466","GEOLEVEL":"CENSUSTRACT","AV_SCORE":60,"RUCA":10.0,"N_STREET":"SR 97","AV_ALPHA":"09","TRACT00":"950100","BLOCK00":"6028","N_ADDRESS":"21466 SR 97","N_UNIT":"","X_COORD":-120.21516,"TYPE":"Temporary Worker Housing License","N_ZIP4":"","N_STATE":"WA","TRACT90":"950100","BLOCK90":"25","Y_COORDS":"47.64090","N_ZIP":"98843","AV_ZIP":"98843","BG00":"6","STATE":"WA","N_CITY":"ORONDO","N_POSTDIR":"","AV_DATE":"Mon Mar 31 07:38:38 2008","BG90":"8","ACCURACY":"Approximate","TRACT90D":"9501.008","geometry":{"type":"Point","coordinates":[-120.215160480981,47.6408954185332]},"ZIP4":"","N_STRSUF":"","Y_COORD":47.6409,"id":"a652y5gl7r85","ADDRESS":"21466 SR 97","N_MCODE":"E020","N_PREDIR":"","SOURCE":"NAVTECH-HWY","QUALITY":"03","TRACT00D":"9501.006","X_COORDS":"-120.21516","AV_CITY":""},{"NAME":"P &amp; G ORCHARDS (CAMP 2)","CITY":"BREWSTER","CERTAINTY":"4","ZCTA":"98812","AV_CO":"047","ZIP":"98812","N_LCODE":"ZT5V","N_HOUSENUM":"168","GEOLEVEL":"ZIPCODE","AV_SCORE":70,"RUCA":10.0,"N_STREET":"GEBBERS","AV_ALPHA":"24","TRACT00":"970800","BLOCK00":"1068","N_ADDRESS":"168 GEBBERS LN","N_UNIT":"","X_COORD":-119.7883,"TYPE":"Temporary Worker Housing License","N_ZIP4":"","N_STATE":"WA","TRACT90":"970800","BLOCK90":"33","Y_COORDS":"48.16990","N_ZIP":"98812","AV_ZIP":"98812","BG00":"1","STATE":"WA","N_CITY":"BREWSTER","N_POSTDIR":"","AV_DATE":"Mon Mar 31 07:38:38 2008","BG90":"1","ACCURACY":"Very Approximate","TRACT90D":"9708.001","geometry":{"type":"Point","coordinates":[-119.7883,48.1698989990474]},"ZIP4":"","N_STRSUF":"LN","Y_COORD":48.1699,"id":"a652y5cdbp24","ADDRESS":"168 GEBBERS LN","N_MCODE":"E020","N_PREDIR":"","SOURCE":"Centrus","QUALITY":"09","TRACT00D":"9708.001","X_COORDS":"-119.78830","AV_CITY":""},{"NAME":"P &amp; G ORCHARDS (CAMP 3)","CITY":"BREWSTER","CERTAINTY":"1","ZCTA":"98812","AV_CO":"047","ZIP":"98812","N_LCODE":"AP0","N_HOUSENUM":"228","GEOLEVEL":"CENSUSTRACT","AV_SCORE":100,"RUCA":10.0,"N_STREET":"MONSE BRIDGE","AV_ALPHA":"24","TRACT00":"970800","BLOCK00":"1091","N_ADDRESS":"228 MONSE BRIDGE RD","N_UNIT":"","X_COORD":-119.67922,"TYPE":"Temporary Worker Housing License","N_ZIP4":"9677","N_STATE":"WA","TRACT90":"970800","BLOCK90":"53","Y_COORDS":"48.14154","N_ZIP":"98812","AV_ZIP":"98812","BG00":"1","STATE":"WA","N_CITY":"BREWSTER","N_POSTDIR":"","AV_DATE":"Mon Mar 31 07:38:38 2008","BG90":"1","ACCURACY":"Close","TRACT90D":"9708.001","geometry":{"type":"Point","coordinates":[-119.679224280206,48.1415373774086]},"ZIP4":"","N_STRSUF":"RD","Y_COORD":48.14154,"id":"a652y5ewopvg","ADDRESS":"228 MONSE BRIDGE RD","N_MCODE":"S80","N_PREDIR":"","SOURCE":"Local Parcels","QUALITY":"02","TRACT00D":"9708.001","X_COORDS":"-119.67922","AV_CITY":""},{"NAME":"PARISEAU ORCHARD (BRIDGEPORT CAMP)","CITY":"BREWSTER","CERTAINTY":"4","ZCTA":"98812","AV_CO":"047","ZIP":"98812","N_LCODE":"ZT5V","N_HOUSENUM":"","GEOLEVEL":"ZIPCODE","AV_SCORE":70,"RUCA":10.0,"N_STREET":"","AV_ALPHA":"24","TRACT00":"970800","BLOCK00":"1068","N_ADDRESS":"","N_UNIT":"","X_COORD":-119.7883,"TYPE":"Temporary Worker Housing License","N_ZIP4":"","N_STATE":"WA","TRACT90":"970800","BLOCK90":"33","Y_COORDS":"48.16990","N_ZIP":"98812","AV_ZIP":"98812","BG00":"1","STATE":"WA","N_CITY":"BREWSTER","N_POSTDIR":"","AV_DATE":"Mon Mar 31 07:38:38 2008","BG90":"1","ACCURACY":"Very Approximate","TRACT90D":"9708.001","geometry":{"type":"Point","coordinates":[-119.7883,48.1698989990474]},"ZIP4":"","N_STRSUF":"","Y_COORD":48.1699,"id":"a652y5he145p","ADDRESS":"","N_MCODE":"E020","N_PREDIR":"","SOURCE":"Centrus","QUALITY":"09","TRACT00D":"9708.001","X_COORDS":"-119.78830","AV_CITY":""},{"NAME":"Peterson Livestock and Berries","CITY":"Woodland","CERTAINTY":"1","ZCTA":"98674","AV_CO":"015","ZIP":"98674","N_LCODE":"AS1","N_HOUSENUM":"2530","GEOLEVEL":"CENSUSTRACT","AV_SCORE":100,"RUCA":7.1,"N_STREET":"DIKE","AV_ALPHA":"08","TRACT00":"001500","BLOCK00":"1021","N_ADDRESS":"2530 DIKE RD","N_UNIT":"","X_COORD":-122.79341,"TYPE":"Temporary Worker Housing License","N_ZIP4":"9522","N_STATE":"WA","TRACT90":"001500","BLOCK90":"16","Y_COORDS":"45.89603","N_ZIP":"98674","AV_ZIP":"98674","BG00":"1","STATE":"WA","N_CITY":"WOODLAND","N_POSTDIR":"","AV_DATE":"Mon Mar 31 07:38:38 2008","BG90":"1","ACCURACY":"Close","TRACT90D":"0015.001","geometry":{"type":"Point","coordinates":[-122.793408720282,45.8960252137655]},"ZIP4":"9522","N_STRSUF":"RD","Y_COORD":45.89603,"id":"a652y5p5js0z","ADDRESS":"2530 Dike Rd","N_MCODE":"S00","N_PREDIR":"","SOURCE":"TIGER 2006","QUALITY":"03","TRACT00D":"0015.001","X_COORDS":"-122.79341","AV_CITY":""},{"NAME":"Picken Apple Ranch","CITY":"Manson","CERTAINTY":"1","ZCTA":"98831","AV_CO":"007","ZIP":"98831","N_LCODE":"AS1","N_HOUSENUM":"673","GEOLEVEL":"CENSUSTRACT","AV_SCORE":100,"RUCA":10.6,"N_STREET":"GREENS LANDING","AV_ALPHA":"04","TRACT00":"960400","BLOCK00":"2005","N_ADDRESS":"673 GREENS LANDING RD","N_UNIT":"","X_COORD":-120.19266,"TYPE":"Temporary Worker Housing License","N_ZIP4":"9784","N_STATE":"WA","TRACT90":"960400","BLOCK90":"10","Y_COORDS":"47.93011","N_ZIP":"98831","AV_ZIP":"98831","BG00":"2","STATE":"WA","N_CITY":"MANSON","N_POSTDIR":"","AV_DATE":"Mon Mar 31 07:38:38 2008","BG90":"2","ACCURACY":"Close","TRACT90D":"9604.002","geometry":{"type":"Point","coordinates":[-120.192664795838,47.9301145731081]},"ZIP4":"9784","N_STRSUF":"RD","Y_COORD":47.93011,"id":"a652y5jmj7gg","ADDRESS":"673 Greens Landing Rd","N_MCODE":"S00","N_PREDIR":"","SOURCE":"TIGER 2006","QUALITY":"03","TRACT00D":"9604.002","X_COORDS":"-120.19266","AV_CITY":""},{"NAME":"Poirier Orchards","CITY":"Pateros","CERTAINTY":"4","ZCTA":"98812","AV_CO":"047","ZIP":"98846","N_LCODE":"ZT5V","N_HOUSENUM":"2","GEOLEVEL":"ZIPCODE","AV_SCORE":70,"RUCA":10.0,"N_STREET":"MI UP METHOW","AV_ALPHA":"24","TRACT00":"970800","BLOCK00":"5004","N_ADDRESS":"2 MI UP METHOW RIVER","N_UNIT":"","X_COORD":-119.9179,"TYPE":"Temporary Worker Housing License","N_ZIP4":"","N_STATE":"WA","TRACT90":"970800","BLOCK90":"05C","Y_COORDS":"48.06780","N_ZIP":"98846","AV_ZIP":"98846","BG00":"5","STATE":"WA","N_CITY":"PATEROS","N_POSTDIR":"","AV_DATE":"Mon Mar 31 07:38:38 2008","BG90":"5","ACCURACY":"Very Approximate","TRACT90D":"9708.005","geometry":{"type":"Point","coordinates":[-119.9179,48.0677989990468]},"ZIP4":"","N_STRSUF":"RIV","Y_COORD":48.0678,"id":"a652y5qyho3z","ADDRESS":"2 Mi Up Methow River","N_MCODE":"E020","N_PREDIR":"","SOURCE":"Centrus","QUALITY":"09","TRACT00D":"9708.005","X_COORDS":"-119.91790","AV_CITY":""},{"NAME":"RADER FARMS - LINE ROAD CABINS","CITY":"LYNDEN","CERTAINTY":"1","ZCTA":"98264","AV_CO":"073","ZIP":"98264","N_LCODE":"AS1","N_HOUSENUM":"8974","GEOLEVEL":"CENSUSTRACT","AV_SCORE":100,"RUCA":7.1,"N_STREET":"LINE","AV_ALPHA":"37","TRACT00":"010303","BLOCK00":"1014","N_ADDRESS":"8974 LINE RD","N_UNIT":"","X_COORD":-122.41813,"TYPE":"Temporary Worker Housing License","N_ZIP4":"8542","N_STATE":"WA","TRACT90":"010300","BLOCK90":"14","Y_COORDS":"48.96711","N_ZIP":"98264","AV_ZIP":"98264","BG00":"1","STATE":"WA","N_CITY":"LYNDEN","N_POSTDIR":"","AV_DATE":"Mon Mar 31 07:38:38 2008","BG90":"5","ACCURACY":"Close","TRACT90D":"0103.005","geometry":{"type":"Point","coordinates":[-122.418125088518,48.9671052007745]},"ZIP4":"","N_STRSUF":"RD","Y_COORD":48.96711,"id":"a652y5b2pmo2","ADDRESS":"8974 LINE RD","N_MCODE":"S80","N_PREDIR":"","SOURCE":"TIGER 2006","QUALITY":"03","TRACT00D":"0103.031","X_COORDS":"-122.41813","AV_CITY":""},{"NAME":"ROC Orchard","CITY":"Quincy","CERTAINTY":"1","ZCTA":"98848","AV_CO":"025","ZIP":"98848","N_LCODE":"AS1","N_HOUSENUM":"22600","GEOLEVEL":"CENSUSTRACT","AV_SCORE":60,"RUCA":8.0,"N_STREET":"ROAD 6","AV_ALPHA":"13","TRACT00":"980500","BLOCK00":"1100","N_ADDRESS":"22600 ROAD 6 NW","N_UNIT":"","X_COORD":-119.96663,"TYPE":"Temporary Worker Housing License","N_ZIP4":"9624","N_STATE":"WA","TRACT90":"980500","BLOCK90":"88","Y_COORDS":"47.17104","N_ZIP":"98848","AV_ZIP":"98848","BG00":"1","STATE":"WA","N_CITY":"QUINCY","N_POSTDIR":"NW","AV_DATE":"Mon Mar 31 07:38:38 2008","BG90":"1","ACCURACY":"Approximate","TRACT90D":"9805.001","geometry":{"type":"Point","coordinates":[-119.966625516864,47.1710441147861]},"ZIP4":"9624","N_STRSUF":"","Y_COORD":47.17104,"id":"a652y5gafn71","ADDRESS":"22600 Road 6 NW","N_MCODE":"S00","N_PREDIR":"","SOURCE":"GDT 1000","QUALITY":"03","TRACT00D":"9805.001","X_COORDS":"-119.96663","AV_CITY":""},{"NAME":"ROYAL BLUFF ORCHARD","CITY":"ROYAL CITY","CERTAINTY":"1","ZCTA":"99357","AV_CO":"025","ZIP":"99357","N_LCODE":"AS0","N_HOUSENUM":"8494","GEOLEVEL":"CENSUSTRACT","AV_SCORE":70,"RUCA":10.0,"N_STREET":"ROAD 14","AV_ALPHA":"13","TRACT00":"981400","BLOCK00":"2147","N_ADDRESS":"8494 ROAD 14 SW","N_UNIT":"","X_COORD":-119.67519,"TYPE":"Temporary Worker Housing License","N_ZIP4":"9622","N_STATE":"WA","TRACT90":"981400","BLOCK90":"59","Y_COORDS":"46.88388","N_ZIP":"99357","AV_ZIP":"99357","BG00":"2","STATE":"WA","N_CITY":"ROYAL CITY","N_POSTDIR":"SW","AV_DATE":"Mon Mar 31 07:38:38 2008","BG90":"2","ACCURACY":"Approximate","TRACT90D":"9814.002","geometry":{"type":"Point","coordinates":[-119.675186,46.8838839990589]},"ZIP4":"","N_STRSUF":"","Y_COORD":46.88388,"id":"a652y5bvyhr4","ADDRESS":"8494 RD 14 SW","N_MCODE":"S80","N_PREDIR":"","SOURCE":"Centrus","QUALITY":"03","TRACT00D":"9814.002","X_COORDS":"-119.67519","AV_CITY":""},{"NAME":"RPO LLC","CITY":"ROYAL CITY","CERTAINTY":"1","ZCTA":"99357","AV_CO":"025","ZIP":"99357","N_LCODE":"AS0","N_HOUSENUM":"7795","GEOLEVEL":"CENSUSTRACT","AV_SCORE":70,"RUCA":10.0,"N_STREET":"ROAD 13 5","AV_ALPHA":"13","TRACT00":"981400","BLOCK00":"2147","N_ADDRESS":"7795 ROAD 13 5 SW","N_UNIT":"","X_COORD":-119.65949,"TYPE":"Temporary Worker Housing License","N_ZIP4":"","N_STATE":"WA","TRACT90":"981400","BLOCK90":"46","Y_COORDS":"46.89154","N_ZIP":"99357","AV_ZIP":"99357","BG00":"2","STATE":"WA","N_CITY":"ROYAL CITY","N_POSTDIR":"SW","AV_DATE":"Mon Mar 31 07:38:38 2008","BG90":"2","ACCURACY":"Approximate","TRACT90D":"9814.002","geometry":{"type":"Point","coordinates":[-119.659485,46.8915409990589]},"ZIP4":"","N_STRSUF":"","Y_COORD":46.89154,"id":"a652y5pammv3","ADDRESS":"7795 RD 13 5 SW","N_MCODE":"T80","N_PREDIR":"","SOURCE":"Centrus","QUALITY":"03","TRACT00D":"9814.002","X_COORDS":"-119.65949","AV_CITY":""},{"NAME":"Rodeo Camp","CITY":"Brewster","CERTAINTY":"4","ZCTA":"98812","AV_CO":"047","ZIP":"98812","N_LCODE":"ZT5V","N_HOUSENUM":"","GEOLEVEL":"ZIPCODE","AV_SCORE":70,"RUCA":10.0,"N_STREET":"STAR","AV_ALPHA":"24","TRACT00":"970800","BLOCK00":"1068","N_ADDRESS":"NORTH STAR RD","N_UNIT":"","X_COORD":-119.7883,"TYPE":"Temporary Worker Housing License","N_ZIP4":"","N_STATE":"WA","TRACT90":"970800","BLOCK90":"33","Y_COORDS":"48.16990","N_ZIP":"98812","AV_ZIP":"98812","BG00":"1","STATE":"WA","N_CITY":"BREWSTER","N_POSTDIR":"","AV_DATE":"Mon Mar 31 07:38:38 2008","BG90":"1","ACCURACY":"Very Approximate","TRACT90D":"9708.001","geometry":{"type":"Point","coordinates":[-119.7883,48.1698989990474]},"ZIP4":"","N_STRSUF":"RD","Y_COORD":48.1699,"id":"a652y5kbma9p","ADDRESS":"North Star Rd","N_MCODE":"E022","N_PREDIR":"N","SOURCE":"Centrus","QUALITY":"09","TRACT00D":"9708.001","X_COORDS":"-119.78830","AV_CITY":""},{"NAME":"S-K ORCHARDS - AAA","CITY":"UNDERWOOD","CERTAINTY":"1","ZCTA":"98651","AV_CO":"059","ZIP":"98651","N_LCODE":"AS0","N_HOUSENUM":"182","GEOLEVEL":"CENSUSTRACT","AV_SCORE":70,"RUCA":5.0,"N_STREET":"AUSPLAND","AV_ALPHA":"30","TRACT00":"950400","BLOCK00":"2007","N_ADDRESS":"182 AUSPLAND DR","N_UNIT":"","X_COORD":-121.60307,"TYPE":"Temporary Worker Housing License","N_ZIP4":"9136","N_STATE":"WA","TRACT90":"950400","BLOCK90":"30","Y_COORDS":"45.73754","N_ZIP":"98651","AV_ZIP":"98651","BG00":"2","STATE":"WA","N_CITY":"UNDERWOOD","N_POSTDIR":"","AV_DATE":"Mon Mar 31 07:38:38 2008","BG90":"2","ACCURACY":"Approximate","TRACT90D":"9504.002","geometry":{"type":"Point","coordinates":[-121.603065,45.7375409990571]},"ZIP4":"","N_STRSUF":"DR","Y_COORD":45.73754,"id":"a652y5qpjs8i","ADDRESS":"182 AUSPLAND RD","N_MCODE":"S81","N_PREDIR":"","SOURCE":"Centrus","QUALITY":"03","TRACT00D":"9504.002","X_COORDS":"-121.60307","AV_CITY":""},{"NAME":"S-K ORCHARDS - GLACIER","CITY":"WHITE SALMON","CERTAINTY":"5","ZCTA":"","AV_CO":"039","ZIP":"98672","N_LCODE":"ZC5X","N_HOUSENUM":"11","GEOLEVEL":"CITY","AV_SCORE":0,"RUCA":4.0,"N_STREET":"GLACIER","AV_ALPHA":"20","TRACT00":"950300","BLOCK00":"6020","N_ADDRESS":"11 GLACIER RD","N_UNIT":"","X_COORD":-121.48528,"TYPE":"Temporary Worker Housing License","N_ZIP4":"","N_STATE":"WA","TRACT90":"950300","BLOCK90":"12","Y_COORDS":"45.72778","N_ZIP":"98672","AV_ZIP":"","BG00":"6","STATE":"WA","N_CITY":"WHITE SALMON","N_POSTDIR":"","AV_DATE":"","BG90":"6","ACCURACY":"Very Approximate","TRACT90D":"9503.006","geometry":{"type":"Point","coordinates":[-121.48528,45.727779999057]},"ZIP4":"","N_STRSUF":"RD","Y_COORD":45.72778,"id":"a652y5nb95y8","ADDRESS":"11 GLACIER RD","N_MCODE":"E020","N_PREDIR":"","SOURCE":"City or Place Centroid","QUALITY":"11","TRACT00D":"9503.006","X_COORDS":"-121.48528","AV_CITY":""},{"NAME":"SAN JUAN APARTMENTS - 4 PLEX","CITY":"MATTAWA","CERTAINTY":"1","ZCTA":"99349","AV_CO":"025","ZIP":"99349","N_LCODE":"AS1","N_HOUSENUM":"103","GEOLEVEL":"CENSUSTRACT","AV_SCORE":57,"RUCA":10.0,"N_STREET":"ELLICE","AV_ALPHA":"13","TRACT00":"981400","BLOCK00":"4147","N_ADDRESS":"103 ELLICE AVE","N_UNIT":"","X_COORD":-119.90187,"TYPE":"Temporary Worker Housing License","N_ZIP4":"","N_STATE":"WA","TRACT90":"981400","BLOCK90":"09A","Y_COORDS":"46.73794","N_ZIP":"99349","AV_ZIP":"99349","BG00":"4","STATE":"WA","N_CITY":"MATTAWA","N_POSTDIR":"","AV_DATE":"Mon Mar 31 07:38:38 2008","BG90":"4","ACCURACY":"Approximate","TRACT90D":"9814.004","geometry":{"type":"Point","coordinates":[-119.901869095522,46.7379446437235]},"ZIP4":"","N_STRSUF":"AVE","Y_COORD":46.73794,"id":"a652y5q8vuqn","ADDRESS":"103 S ELLICE ST","N_MCODE":"T83","N_PREDIR":"","SOURCE":"NAVTECH","QUALITY":"03","TRACT00D":"9814.004","X_COORDS":"-119.90187","AV_CITY":"MATTAWA"},{"NAME":"SAN JUAN APARTMENTS - DUPLEX","CITY":"MATTAWA","CERTAINTY":"1","ZCTA":"99349","AV_CO":"025","ZIP":"99349","N_LCODE":"AS1","N_HOUSENUM":"409","GEOLEVEL":"CENSUSTRACT","AV_SCORE":100,"RUCA":10.0,"N_STREET":"1ST","AV_ALPHA":"13","TRACT00":"981400","BLOCK00":"4158","N_ADDRESS":"409 1ST ST","N_UNIT":"","X_COORD":-119.90271,"TYPE":"Temporary Worker Housing License","N_ZIP4":"","N_STATE":"WA","TRACT90":"981400","BLOCK90":"14","Y_COORDS":"46.73718","N_ZIP":"99349","AV_ZIP":"99349","BG00":"4","STATE":"WA","N_CITY":"MATTAWA","N_POSTDIR":"","AV_DATE":"Mon Mar 31 07:38:38 2008","BG90":"4","ACCURACY":"Close","TRACT90D":"9814.004","geometry":{"type":"Point","coordinates":[-119.902706326124,46.7371780471567]},"ZIP4":"","N_STRSUF":"ST","Y_COORD":46.73718,"id":"a652y5niensj","ADDRESS":"409 1ST ST","N_MCODE":"T80","N_PREDIR":"","SOURCE":"TIGER 2006","QUALITY":"03","TRACT00D":"9814.004","X_COORDS":"-119.90271","AV_CITY":"MATTAWA"},{"NAME":"SHINN &amp; SON INC (CLARK RANCH 3 &amp; 4)","CITY":"MABTON","CERTAINTY":"1","ZCTA":"98948","AV_CO":"077","ZIP":"98935","N_LCODE":"AS0","N_HOUSENUM":"4081","GEOLEVEL":"CENSUSTRACT","AV_SCORE":70,"RUCA":10.4,"N_STREET":"COLWASH","AV_ALPHA":"39","TRACT00":"002702","BLOCK00":"1088","N_ADDRESS":"4081 COLWASH RD","N_UNIT":"","X_COORD":-120.15348,"TYPE":"Temporary Worker Housing License","N_ZIP4":"9304","N_STATE":"WA","TRACT90":"002700","BLOCK90":"67","Y_COORDS":"46.21506","N_ZIP":"98935","AV_ZIP":"98935","BG00":"1","STATE":"WA","N_CITY":"MABTON","N_POSTDIR":"","AV_DATE":"Mon Mar 31 07:38:38 2008","BG90":"3","ACCURACY":"Approximate","TRACT90D":"0027.003","geometry":{"type":"Point","coordinates":[-120.153481,46.2150609990576]},"ZIP4":"","N_STRSUF":"RD","Y_COORD":46.21506,"id":"a652y5i8rc0r","ADDRESS":"4081 COLWASH RD","N_MCODE":"S80","N_PREDIR":"","SOURCE":"Centrus","QUALITY":"03","TRACT00D":"0027.021","X_COORDS":"-120.15348","AV_CITY":""},{"NAME":"SIKES ORCHARDS INC","CITY":"CHELAN","CERTAINTY":"1","ZCTA":"98816","AV_CO":"007","ZIP":"98816","N_LCODE":"AP0","N_HOUSENUM":"115","GEOLEVEL":"CENSUSTRACT","AV_SCORE":100,"RUCA":7.3,"N_STREET":"HOWARD FLAT","AV_ALPHA":"04","TRACT00":"960300","BLOCK00":"7039","N_ADDRESS":"115 HOWARD FLAT RD","N_UNIT":"","X_COORD":-119.93452,"TYPE":"Temporary Worker Housing License","N_ZIP4":"9667","N_STATE":"WA","TRACT90":"960300","BLOCK90":"59","Y_COORDS":"47.87110","N_ZIP":"98816","AV_ZIP":"98816","BG00":"7","STATE":"WA","N_CITY":"CHELAN","N_POSTDIR":"","AV_DATE":"Mon Mar 31 07:38:38 2008","BG90":"7","ACCURACY":"Close","TRACT90D":"9603.007","geometry":{"type":"Point","coordinates":[-119.934524317213,47.8710969055847]},"ZIP4":"","N_STRSUF":"RD","Y_COORD":47.8711,"id":"a652y5ceu10u","ADDRESS":"115 HOWARD FLAT RD","N_MCODE":"S80","N_PREDIR":"","SOURCE":"Local Parcels","QUALITY":"02","TRACT00D":"9603.007","X_COORDS":"-119.93452","AV_CITY":""},{"NAME":"SMITH &amp; NELSON ORCHARD","CITY":"TONASKET","CERTAINTY":"1","ZCTA":"98855","AV_CO":"047","ZIP":"98855","N_LCODE":"AS1","N_HOUSENUM":"1012","GEOLEVEL":"CENSUSTRACT","AV_SCORE":55,"RUCA":10.0,"N_STREET":"LOOMIS OROVILLE","AV_ALPHA":"24","TRACT00":"970300","BLOCK00":"8303","N_ADDRESS":"1012 LOOMIS OROVILLE RD","N_UNIT":"","X_COORD":-119.59849,"TYPE":"Temporary Worker Housing License","N_ZIP4":"9321","N_STATE":"WA","TRACT90":"970300","BLOCK90":"22","Y_COORDS":"48.81615","N_ZIP":"98855","AV_ZIP":"98827","BG00":"8","STATE":"WA","N_CITY":"TONASKET","N_POSTDIR":"","AV_DATE":"Mon Mar 31 07:38:38 2008","BG90":"8","ACCURACY":"Approximate","TRACT90D":"9703.008","geometry":{"type":"Point","coordinates":[-119.598489897778,48.8161451440923]},"ZIP4":"","N_STRSUF":"RD","Y_COORD":48.81615,"id":"a652y5j59zxh","ADDRESS":"1012 LOOMIS HWY/OROVILLE RD","N_MCODE":"A88","N_PREDIR":"","SOURCE":"TIGER 2006","QUALITY":"03","TRACT00D":"9703.008","X_COORDS":"-119.59849","AV_CITY":""},{"NAME":"ST HILAIRE BROTHERS","CITY":"KENNEWICK","CERTAINTY":"1","ZCTA":"99337","AV_CO":"005","ZIP":"99337","N_LCODE":"AS0","N_HOUSENUM":"62518","GEOLEVEL":"CENSUSTRACT","AV_SCORE":70,"RUCA":1.0,"N_STREET":"PIERT","AV_ALPHA":"03","TRACT00":"011501","BLOCK00":"5019","N_ADDRESS":"62518 S PIERT RD","N_UNIT":"","X_COORD":-119.01399,"TYPE":"Temporary Worker Housing License","N_ZIP4":"7751","N_STATE":"WA","TRACT90":"011501","BLOCK90":"14","Y_COORDS":"46.11447","N_ZIP":"99337","AV_ZIP":"99337","BG00":"5","STATE":"WA","N_CITY":"KENNEWICK","N_POSTDIR":"","AV_DATE":"Mon Mar 31 07:38:38 2008","BG90":"5","ACCURACY":"Approximate","TRACT90D":"0115.015","geometry":{"type":"Point","coordinates":[-119.013992,46.1144709990575]},"ZIP4":"","N_STRSUF":"RD","Y_COORD":46.11447,"id":"a652y5j0imx0","ADDRESS":"62518 S PIERT RD","N_MCODE":"S80","N_PREDIR":"S","SOURCE":"Centrus","QUALITY":"03","TRACT00D":"0115.015","X_COORDS":"-119.01399","AV_CITY":""},{"NAME":"STEMILT MANAGEMENT - KENNEWICK","CITY":"KENNEWICK","CERTAINTY":"1","ZCTA":"99336","AV_CO":"005","ZIP":"99336","N_LCODE":"AS1","N_HOUSENUM":"1326","GEOLEVEL":"CENSUSTRACT","AV_SCORE":100,"RUCA":1.0,"N_STREET":"7TH","AV_ALPHA":"03","TRACT00":"011200","BLOCK00":"4004","N_ADDRESS":"1326 W 7TH PL","N_UNIT":"","X_COORD":-119.13627,"TYPE":"Temporary Worker Housing License","N_ZIP4":"4800","N_STATE":"WA","TRACT90":"011200","BLOCK90":"03","Y_COORDS":"46.20145","N_ZIP":"99336","AV_ZIP":"99336","BG00":"4","STATE":"WA","N_CITY":"KENNEWICK","N_POSTDIR":"","AV_DATE":"Mon Mar 31 07:38:38 2008","BG90":"5","ACCURACY":"Close","TRACT90D":"0112.005","geometry":{"type":"Point","coordinates":[-119.136273357029,46.2014488887265]},"ZIP4":"","N_STRSUF":"PL","Y_COORD":46.20145,"id":"a652y5l818cj","ADDRESS":"1326 W 7TH PL","N_MCODE":"S80","N_PREDIR":"W","SOURCE":"TIGER 2006","QUALITY":"03","TRACT00D":"0112.004","X_COORDS":"-119.13627","AV_CITY":"KENNEWICK"},{"NAME":"STEMILT MANAGEMENT - PROSSER","CITY":"PROSSER","CERTAINTY":"1","ZCTA":"99350","AV_CO":"005","ZIP":"99350","N_LCODE":"AS1","N_HOUSENUM":"209","GEOLEVEL":"CENSUSTRACT","AV_SCORE":100,"RUCA":7.3,"N_STREET":"CANYON","AV_ALPHA":"03","TRACT00":"011700","BLOCK00":"5013","N_ADDRESS":"209 CANYON DR","N_UNIT":"","X_COORD":-119.78203,"TYPE":"Temporary Worker Housing License","N_ZIP4":"1076","N_STATE":"WA","TRACT90":"011700","BLOCK90":"13A","Y_COORDS":"46.19641","N_ZIP":"99350","AV_ZIP":"99350","BG00":"5","STATE":"WA","N_CITY":"PROSSER","N_POSTDIR":"","AV_DATE":"Mon Mar 31 07:38:38 2008","BG90":"5","ACCURACY":"Close","TRACT90D":"0117.005","geometry":{"type":"Point","coordinates":[-119.782025475784,46.196412370524]},"ZIP4":"","N_STRSUF":"DR","Y_COORD":46.19641,"id":"a652y5j4kgjb","ADDRESS":"209 CANYON DR","N_MCODE":"S80","N_PREDIR":"","SOURCE":"TIGER 2006","QUALITY":"03","TRACT00D":"0117.005","X_COORDS":"-119.78203","AV_CITY":"PROSSER"},{"NAME":"SUNDALE FRUIT COMPANY","CITY":"ROOSEVELT","CERTAINTY":"1","ZCTA":"98620","AV_CO":"039","ZIP":"99356","N_LCODE":"AS0","N_HOUSENUM":"17","GEOLEVEL":"CENSUSTRACT","AV_SCORE":70,"RUCA":7.0,"N_STREET":"SUNDALE","AV_ALPHA":"20","TRACT00":"950100","BLOCK00":"1404","N_ADDRESS":"17 SUNDALE RD","N_UNIT":"","X_COORD":-120.31808,"TYPE":"Temporary Worker Housing License","N_ZIP4":"9721","N_STATE":"WA","TRACT90":"950100","BLOCK90":"82","Y_COORDS":"45.71842","N_ZIP":"99356","AV_ZIP":"99356","BG00":"1","STATE":"WA","N_CITY":"ROOSEVELT","N_POSTDIR":"","AV_DATE":"Mon Mar 31 07:38:38 2008","BG90":"1","ACCURACY":"Approximate","TRACT90D":"9501.001","geometry":{"type":"Point","coordinates":[-120.318077,45.718421999057]},"ZIP4":"","N_STRSUF":"RD","Y_COORD":45.71842,"id":"a652y5e82jbo","ADDRESS":"17 SUNDALE RD","N_MCODE":"S80","N_PREDIR":"","SOURCE":"Centrus","QUALITY":"03","TRACT00D":"9501.001","X_COORDS":"-120.31808","AV_CITY":""},{"NAME":"Sakuma Bros #1","CITY":"Burlington","CERTAINTY":"1","ZCTA":"98232","AV_CO":"057","ZIP":"98233","N_LCODE":"AS1","N_HOUSENUM":"17400","GEOLEVEL":"CENSUSTRACT","AV_SCORE":100,"RUCA":2.0,"N_STREET":"COOK","AV_ALPHA":"29","TRACT00":"950800","BLOCK00":"3026","N_ADDRESS":"17400 COOK RD","N_UNIT":"","X_COORD":-122.3701,"TYPE":"Temporary Worker Housing License","N_ZIP4":"9714","N_STATE":"WA","TRACT90":"950800","BLOCK90":"34","Y_COORDS":"48.50813","N_ZIP":"98233","AV_ZIP":"98232","BG00":"3","STATE":"WA","N_CITY":"BURLINGTON","N_POSTDIR":"","AV_DATE":"Mon Mar 31 07:38:38 2008","BG90":"3","ACCURACY":"Close","TRACT90D":"9508.003","geometry":{"type":"Point","coordinates":[-122.370102597478,48.5081261539229]},"ZIP4":"9714","N_STRSUF":"RD","Y_COORD":48.50813,"id":"a652y5jglodu","ADDRESS":"17400 Cook Rd","N_MCODE":"S00","N_PREDIR":"","SOURCE":"GDT 1000","QUALITY":"03","TRACT00D":"9508.003","X_COORDS":"-122.37010","AV_CITY":""},{"NAME":"Sakuma Bros #2","CITY":"Burlington","CERTAINTY":"5","ZCTA":"","AV_CO":"057","ZIP":"98233","N_LCODE":"ZC5X","N_HOUSENUM":"1302A","GEOLEVEL":"CITY","AV_SCORE":0,"RUCA":1.0,"N_STREET":"BENSON","AV_ALPHA":"29","TRACT00":"951700","BLOCK00":"1024","N_ADDRESS":"1302A BENSON RD","N_UNIT":"","X_COORD":-122.32417,"TYPE":"Temporary Worker Housing License","N_ZIP4":"","N_STATE":"WA","TRACT90":"951700","BLOCK90":"18","Y_COORDS":"48.47583","N_ZIP":"98233","AV_ZIP":"","BG00":"1","STATE":"WA","N_CITY":"BURLINGTON","N_POSTDIR":"","AV_DATE":"","BG90":"1","ACCURACY":"Very Approximate","TRACT90D":"9517.001","geometry":{"type":"Point","coordinates":[-122.32417,48.4758299990494]},"ZIP4":"","N_STRSUF":"RD","Y_COORD":48.47583,"id":"a652y5gfqtcb","ADDRESS":"1302A Benson Rd","N_MCODE":"E020","N_PREDIR":"","SOURCE":"City or Place Centroid","QUALITY":"11","TRACT00D":"9517.001","X_COORDS":"-122.32417","AV_CITY":""},{"NAME":"Sakuma Bros #3","CITY":"Burlington","CERTAINTY":"1","ZCTA":"98232","AV_CO":"057","ZIP":"98233","N_LCODE":"AS1","N_HOUSENUM":"17400","GEOLEVEL":"CENSUSTRACT","AV_SCORE":100,"RUCA":2.0,"N_STREET":"COOK","AV_ALPHA":"29","TRACT00":"950800","BLOCK00":"3026","N_ADDRESS":"17400 COOK RD","N_UNIT":"","X_COORD":-122.3701,"TYPE":"Temporary Worker Housing License","N_ZIP4":"9714","N_STATE":"WA","TRACT90":"950800","BLOCK90":"34","Y_COORDS":"48.50813","N_ZIP":"98233","AV_ZIP":"98232","BG00":"3","STATE":"WA","N_CITY":"BURLINGTON","N_POSTDIR":"","AV_DATE":"Mon Mar 31 07:38:38 2008","BG90":"3","ACCURACY":"Close","TRACT90D":"9508.003","geometry":{"type":"Point","coordinates":[-122.370102597478,48.5081261539229]},"ZIP4":"9714","N_STRSUF":"RD","Y_COORD":48.50813,"id":"a652y5nmo2uj","ADDRESS":"17400 Cook Rd","N_MCODE":"S00","N_PREDIR":"","SOURCE":"GDT 1000","QUALITY":"03","TRACT00D":"9508.003","X_COORDS":"-122.37010","AV_CITY":""},{"NAME":"Seven Star Orchard","CITY":"Manson","CERTAINTY":"1","ZCTA":"98831","AV_CO":"007","ZIP":"98831","N_LCODE":"AS1","N_HOUSENUM":"1221","GEOLEVEL":"CENSUSTRACT","AV_SCORE":100,"RUCA":10.6,"N_STREET":"KLATE","AV_ALPHA":"04","TRACT00":"960400","BLOCK00":"1032","N_ADDRESS":"1221 KLATE RD","N_UNIT":"","X_COORD":-120.11301,"TYPE":"Temporary Worker Housing License","N_ZIP4":"9750","N_STATE":"WA","TRACT90":"960400","BLOCK90":"31","Y_COORDS":"47.89046","N_ZIP":"98831","AV_ZIP":"98831","BG00":"1","STATE":"WA","N_CITY":"MANSON","N_POSTDIR":"","AV_DATE":"Mon Mar 31 07:38:38 2008","BG90":"1","ACCURACY":"Close","TRACT90D":"9604.001","geometry":{"type":"Point","coordinates":[-120.113011550569,47.8904616295649]},"ZIP4":"9750","N_STRSUF":"RD","Y_COORD":47.89046,"id":"a652y5qwg4j4","ADDRESS":"1221 Klate Rd","N_MCODE":"S00","N_PREDIR":"","SOURCE":"TIGER 2006","QUALITY":"03","TRACT00D":"9604.001","X_COORDS":"-120.11301","AV_CITY":""},{"NAME":"Shinn &amp; Son Delmonte Camp","CITY":"Toppenish","CERTAINTY":"1","ZCTA":"98948","AV_CO":"077","ZIP":"98948","N_LCODE":"AS1","N_HOUSENUM":"251","GEOLEVEL":"CENSUSTRACT","AV_SCORE":100,"RUCA":10.4,"N_STREET":"CHIEF SAMPSON","AV_ALPHA":"39","TRACT00":"002702","BLOCK00":"1082","N_ADDRESS":"251 CHIEF SAMPSON RD","N_UNIT":"","X_COORD":-120.16892,"TYPE":"Temporary Worker Housing License","N_ZIP4":"9690","N_STATE":"WA","TRACT90":"002700","BLOCK90":"59","Y_COORDS":"46.23333","N_ZIP":"98948","AV_ZIP":"98948","BG00":"1","STATE":"WA","N_CITY":"TOPPENISH","N_POSTDIR":"","AV_DATE":"Mon Mar 31 07:38:38 2008","BG90":"3","ACCURACY":"Close","TRACT90D":"0027.003","geometry":{"type":"Point","coordinates":[-120.1689184,46.2333261736608]},"ZIP4":"9690","N_STRSUF":"RD","Y_COORD":46.23333,"id":"a652y5c9ai3r","ADDRESS":"251 Chief Sampson Rd","N_MCODE":"S00","N_PREDIR":"","SOURCE":"TIGER 2006","QUALITY":"03","TRACT00D":"0027.021","X_COORDS":"-120.16892","AV_CITY":""},{"NAME":"Staffanson Farms","CITY":"Bow","CERTAINTY":"1","ZCTA":"98232","AV_CO":"057","ZIP":"98232","N_LCODE":"AS1","N_HOUSENUM":"14797","GEOLEVEL":"CENSUSTRACT","AV_SCORE":100,"RUCA":2.0,"N_STREET":"EDISON","AV_ALPHA":"29","TRACT00":"950800","BLOCK00":"1033","N_ADDRESS":"14797 E EDISON RD","N_UNIT":"","X_COORD":-122.42764,"TYPE":"Temporary Worker Housing License","N_ZIP4":"9229","N_STATE":"WA","TRACT90":"950800","BLOCK90":"40","Y_COORDS":"48.56640","N_ZIP":"98232","AV_ZIP":"98232","BG00":"1","STATE":"WA","N_CITY":"BOW","N_POSTDIR":"","AV_DATE":"Mon Mar 31 07:38:38 2008","BG90":"1","ACCURACY":"Close","TRACT90D":"9508.001","geometry":{"type":"Point","coordinates":[-122.427642665058,48.5663989854556]},"ZIP4":"9229","N_STRSUF":"RD","Y_COORD":48.5664,"id":"a652y5g55d98","ADDRESS":"14797 E Edison Rd","N_MCODE":"S00","N_PREDIR":"E","SOURCE":"TIGER 2006","QUALITY":"03","TRACT00D":"9508.001","X_COORDS":"-122.42764","AV_CITY":""},{"NAME":"Stemilt Management - KMO","CITY":"Othello","CERTAINTY":"1","ZCTA":"99344","AV_CO":"021","ZIP":"99344","N_LCODE":"AS1","N_HOUSENUM":"4041","GEOLEVEL":"CENSUSTRACT","AV_SCORE":100,"RUCA":7.3,"N_STREET":"RANGEVIEW","AV_ALPHA":"11","TRACT00":"020800","BLOCK00":"5001","N_ADDRESS":"4041 RANGEVIEW RD","N_UNIT":"","X_COORD":-119.24184,"TYPE":"Temporary Worker Housing License","N_ZIP4":"9354","N_STATE":"WA","TRACT90":"020800","BLOCK90":"03","Y_COORDS":"46.73130","N_ZIP":"99344","AV_ZIP":"99344","BG00":"5","STATE":"WA","N_CITY":"OTHELLO","N_POSTDIR":"","AV_DATE":"Mon Mar 31 07:38:38 2008","BG90":"5","ACCURACY":"Close","TRACT90D":"0208.005","geometry":{"type":"Point","coordinates":[-119.241844537184,46.7313011914151]},"ZIP4":"9354","N_STRSUF":"RD","Y_COORD":46.7313,"id":"a652y5pg4apz","ADDRESS":"4041 Rangeview Rd","N_MCODE":"S00","N_PREDIR":"","SOURCE":"TIGER 2006","QUALITY":"03","TRACT00D":"0208.005","X_COORDS":"-119.24184","AV_CITY":""},{"NAME":"T &amp; L Nursery","CITY":"Redmond","CERTAINTY":"1","ZCTA":"98072","AV_CO":"033","ZIP":"98052","N_LCODE":"AS1","N_HOUSENUM":"13245","GEOLEVEL":"CENSUSTRACT","AV_SCORE":100,"RUCA":1.0,"N_STREET":"WOODINVILLE REDMOND","AV_ALPHA":"17","TRACT00":"032321","BLOCK00":"3012","N_ADDRESS":"13245 WOODINVILLE REDMOND RD NE","N_UNIT":"","X_COORD":-122.13231,"TYPE":"Temporary Worker Housing License","N_ZIP4":"2021","N_STATE":"WA","TRACT90":"032308","BLOCK90":"01","Y_COORDS":"47.71394","N_ZIP":"98052","AV_ZIP":"98052","BG00":"3","STATE":"WA","N_CITY":"REDMOND","N_POSTDIR":"NE","AV_DATE":"Mon Mar 31 07:38:38 2008","BG90":"9","ACCURACY":"Close","TRACT90D":"0323.089","geometry":{"type":"Point","coordinates":[-122.132311825097,47.7139373693328]},"ZIP4":"2021","N_STRSUF":"RD","Y_COORD":47.71394,"id":"a652y5hwwnqs","ADDRESS":"13245 Woodinville Redmond Rd NE","N_MCODE":"S00","N_PREDIR":"","SOURCE":"TIGER 2006","QUALITY":"03","TRACT00D":"0323.213","X_COORDS":"-122.13231","AV_CITY":""},{"NAME":"TENTS-ARROW RIDGE ORCHARD","CITY":"PASCO","CERTAINTY":"1","ZCTA":"99301","AV_CO":"021","ZIP":"99301","N_LCODE":"AS1","N_HOUSENUM":"503","GEOLEVEL":"CENSUSTRACT","AV_SCORE":100,"RUCA":2.0,"N_STREET":"DAYTON","AV_ALPHA":"11","TRACT00":"020601","BLOCK00":"2093","N_ADDRESS":"503 DAYTON RD","N_UNIT":"","X_COORD":-119.15648,"TYPE":"Cherry Harvest Camp License","N_ZIP4":"8821","N_STATE":"WA","TRACT90":"020600","BLOCK90":"85","Y_COORDS":"46.34361","N_ZIP":"99301","AV_ZIP":"99301","BG00":"2","STATE":"WA","N_CITY":"PASCO","N_POSTDIR":"","AV_DATE":"Mon Mar 31 07:38:38 2008","BG90":"2","ACCURACY":"Close","TRACT90D":"0206.002","geometry":{"type":"Point","coordinates":[-119.15647751664,46.3436113198395]},"ZIP4":"","N_STRSUF":"RD","Y_COORD":46.34361,"id":"a652y5blw21m","ADDRESS":"503 DAYTON RD","N_MCODE":"S80","N_PREDIR":"","SOURCE":"TIGER 2006","QUALITY":"03","TRACT00D":"0206.012","X_COORDS":"-119.15648","AV_CITY":""},{"NAME":"TENTS-GMP ORCHARDS","CITY":"BENTON CITY","CERTAINTY":"1","ZCTA":"99320","AV_CO":"005","ZIP":"99320","N_LCODE":"AS0","N_HOUSENUM":"12121","GEOLEVEL":"CENSUSTRACT","AV_SCORE":70,"RUCA":2.0,"N_STREET":"MORGAN","AV_ALPHA":"03","TRACT00":"011900","BLOCK00":"4129","N_ADDRESS":"12121 W MORGAN RD","N_UNIT":"","X_COORD":-119.52037,"TYPE":"Cherry Harvest Camp License","N_ZIP4":"8688","N_STATE":"WA","TRACT90":"011900","BLOCK90":"83","Y_COORDS":"46.29398","N_ZIP":"99320","AV_ZIP":"99320","BG00":"4","STATE":"WA","N_CITY":"BENTON CITY","N_POSTDIR":"","AV_DATE":"Mon Mar 31 07:38:38 2008","BG90":"4","ACCURACY":"Approximate","TRACT90D":"0119.004","geometry":{"type":"Point","coordinates":[-119.52037,46.2939759990577]},"ZIP4":"","N_STRSUF":"RD","Y_COORD":46.29398,"id":"a652y5g17c6n","ADDRESS":"12121 W MORGAN RD","N_MCODE":"S80","N_PREDIR":"W","SOURCE":"Centrus","QUALITY":"03","TRACT00D":"0119.004","X_COORDS":"-119.52037","AV_CITY":""},{"NAME":"TENTS-JOHNS FARM","CITY":"BRIDGEPORT","CERTAINTY":"1","ZCTA":"98812","AV_CO":"047","ZIP":"98813","N_LCODE":"AS0","N_HOUSENUM":"213","GEOLEVEL":"CENSUSTRACT","AV_SCORE":70,"RUCA":10.3,"N_STREET":"JACK WELLS","AV_ALPHA":"24","TRACT00":"970200","BLOCK00":"3118","N_ADDRESS":"213 JACK WELLS RD","N_UNIT":"","X_COORD":-119.62691,"TYPE":"Cherry Harvest Camp License","N_ZIP4":"9774","N_STATE":"WA","TRACT90":"970200","BLOCK90":"77","Y_COORDS":"48.01749","N_ZIP":"98813","AV_ZIP":"99116","BG00":"3","STATE":"WA","N_CITY":"BRIDGEPORT","N_POSTDIR":"","AV_DATE":"Mon Mar 31 07:38:38 2008","BG90":"3","ACCURACY":"Approximate","TRACT90D":"9702.003","geometry":{"type":"Point","coordinates":[-119.626907,48.0174939990465]},"ZIP4":"","N_STRSUF":"RD","Y_COORD":48.01749,"id":"a652y5g9xs2u","ADDRESS":"213 JACK WELLS RD","N_MCODE":"S80","N_PREDIR":"","SOURCE":"Centrus","QUALITY":"03","TRACT00D":"9702.003","X_COORDS":"-119.62691","AV_CITY":""},{"NAME":"TENTS-JOHNS FARM CAMP #2","CITY":"BRIDGEPORT","CERTAINTY":"5","ZCTA":"","AV_CO":"017","ZIP":"98813","N_LCODE":"ZC5X","N_HOUSENUM":"","GEOLEVEL":"CITY","AV_SCORE":0,"RUCA":10.0,"N_STREET":"JACK WELLS","AV_ALPHA":"09","TRACT00":"950100","BLOCK00":"3009","N_ADDRESS":"JACK WELLS RD","N_UNIT":"","X_COORD":-119.67,"TYPE":"Cherry Harvest Camp License","N_ZIP4":"","N_STATE":"WA","TRACT90":"950100","BLOCK90":"10","Y_COORDS":"48.00833","N_ZIP":"98813","AV_ZIP":"","BG00":"3","STATE":"WA","N_CITY":"BRIDGEPORT","N_POSTDIR":"","AV_DATE":"","BG90":"3","ACCURACY":"Very Approximate","TRACT90D":"9501.003","geometry":{"type":"Point","coordinates":[-119.67,48.0083299990465]},"ZIP4":"","N_STRSUF":"RD","Y_COORD":48.00833,"id":"a652y5fo9yji","ADDRESS":"JACK WELLS RD","N_MCODE":"E022","N_PREDIR":"","SOURCE":"City or Place Centroid","QUALITY":"11","TRACT00D":"9501.003","X_COORDS":"-119.67000","AV_CITY":""},{"NAME":"TENTS-K B N","CITY":"OTHELLO","CERTAINTY":"1","ZCTA":"99344","AV_CO":"025","ZIP":"99344","N_LCODE":"AS1","N_HOUSENUM":"103","GEOLEVEL":"CENSUSTRACT","AV_SCORE":100,"RUCA":10.0,"N_STREET":"CHRISTENSEN","AV_ALPHA":"13","TRACT00":"981400","BLOCK00":"2106","N_ADDRESS":"103 CHRISTENSEN RD","N_UNIT":"","X_COORD":-119.48574,"TYPE":"Cherry Harvest Camp License","N_ZIP4":"9143","N_STATE":"WA","TRACT90":"981400","BLOCK90":"70","Y_COORDS":"46.91738","N_ZIP":"99344","AV_ZIP":"99344","BG00":"2","STATE":"WA","N_CITY":"OTHELLO","N_POSTDIR":"","AV_DATE":"Mon Mar 31 07:38:38 2008","BG90":"2","ACCURACY":"Close","TRACT90D":"9814.002","geometry":{"type":"Point","coordinates":[-119.48574399911,46.9173784137753]},"ZIP4":"","N_STRSUF":"RD","Y_COORD":46.91738,"id":"a652y5kddzoi","ADDRESS":"103 CHRISTIENSON RD","N_MCODE":"S89","N_PREDIR":"","SOURCE":"TIGER 2006","QUALITY":"03","TRACT00D":"9814.002","X_COORDS":"-119.48574","AV_CITY":""},{"NAME":"TENTS-K O H I","CITY":"WENATCHEE","CERTAINTY":"1","ZCTA":"98801","AV_CO":"007","ZIP":"98801","N_LCODE":"AS1","N_HOUSENUM":"4601","GEOLEVEL":"CENSUSTRACT","AV_SCORE":100,"RUCA":2.0,"N_STREET":"STEMILT HILL","AV_ALPHA":"04","TRACT00":"961200","BLOCK00":"1033","N_ADDRESS":"4601 STEMILT HILL RD","N_UNIT":"","X_COORD":-120.26111,"TYPE":"Cherry Harvest Camp License","N_ZIP4":"8936","N_STATE":"WA","TRACT90":"961200","BLOCK90":"22","Y_COORDS":"47.34223","N_ZIP":"98801","AV_ZIP":"98801","BG00":"1","STATE":"WA","N_CITY":"WENATCHEE","N_POSTDIR":"","AV_DATE":"Mon Mar 31 07:38:38 2008","BG90":"1","ACCURACY":"Close","TRACT90D":"9612.001","geometry":{"type":"Point","coordinates":[-120.261112297551,47.3422263930699]},"ZIP4":"","N_STRSUF":"RD","Y_COORD":47.34223,"id":"a652y5pzoy2u","ADDRESS":"4601 STEMILT HILL RD","N_MCODE":"S80","N_PREDIR":"","SOURCE":"TIGER 2006","QUALITY":"03","TRACT00D":"9612.001","X_COORDS":"-120.26111","AV_CITY":""},{"NAME":"TENTS-LUCKY BOHEMIAN FARMS","CITY":"MALAGA","CERTAINTY":"1","ZCTA":"98828","AV_CO":"007","ZIP":"98828","N_LCODE":"AS1","N_HOUSENUM":"4147","GEOLEVEL":"CENSUSTRACT","AV_SCORE":100,"RUCA":2.0,"N_STREET":"HAMLIN","AV_ALPHA":"04","TRACT00":"961200","BLOCK00":"2016","N_ADDRESS":"4147 HAMLIN RD","N_UNIT":"","X_COORD":-120.22891,"TYPE":"Cherry Harvest Camp License","N_ZIP4":"9713","N_STATE":"WA","TRACT90":"961200","BLOCK90":"26","Y_COORDS":"47.35299","N_ZIP":"98828","AV_ZIP":"98801","BG00":"2","STATE":"WA","N_CITY":"MALAGA","N_POSTDIR":"","AV_DATE":"Mon Mar 31 07:38:38 2008","BG90":"2","ACCURACY":"Close","TRACT90D":"9612.002","geometry":{"type":"Point","coordinates":[-120.228909035477,47.3529880856425]},"ZIP4":"","N_STRSUF":"RD","Y_COORD":47.35299,"id":"a652y5fhf7zj","ADDRESS":"4147 HAMLIN RD","N_MCODE":"S80","N_PREDIR":"","SOURCE":"TIGER 2006","QUALITY":"03","TRACT00D":"9612.002","X_COORDS":"-120.22891","AV_CITY":""},{"NAME":"TENTS-MORRIS WEST SO 40","CITY":"MALAGA","CERTAINTY":"1","ZCTA":"98828","AV_CO":"007","ZIP":"98828","N_LCODE":"AS1","N_HOUSENUM":"7057","GEOLEVEL":"CENSUSTRACT","AV_SCORE":100,"RUCA":2.0,"N_STREET":"TARPISCAN","AV_ALPHA":"04","TRACT00":"961200","BLOCK00":"1000","N_ADDRESS":"7057 TARPISCAN RD","N_UNIT":"","X_COORD":-120.10298,"TYPE":"Cherry Harvest Camp License","N_ZIP4":"9300","N_STATE":"WA","TRACT90":"961200","BLOCK90":"86","Y_COORDS":"47.29877","N_ZIP":"98828","AV_ZIP":"98828","BG00":"1","STATE":"WA","N_CITY":"MALAGA","N_POSTDIR":"","AV_DATE":"Mon Mar 31 07:38:38 2008","BG90":"1","ACCURACY":"Close","TRACT90D":"9612.001","geometry":{"type":"Point","coordinates":[-120.102983811108,47.2987731271646]},"ZIP4":"","N_STRSUF":"RD","Y_COORD":47.29877,"id":"a652y5j59h6b","ADDRESS":"7057 TARPISCAN RD","N_MCODE":"S80","N_PREDIR":"","SOURCE":"TIGER 2006","QUALITY":"03","TRACT00D":"9612.001","X_COORDS":"-120.10298","AV_CITY":""},{"NAME":"TENTS-PRINGLE ORCHARDS","CITY":"KENNEWICK","CERTAINTY":"3","ZCTA":"99337","AV_CO":"005","ZIP":"99337","N_LCODE":"ZT7F","N_HOUSENUM":"5701","GEOLEVEL":"ZIPCODE","AV_SCORE":40,"RUCA":1.0,"N_STREET":"GARFIELD","AV_ALPHA":"03","TRACT00":"011402","BLOCK00":"4015","N_ADDRESS":"5701 S GARFIELD ST","N_UNIT":"","X_COORD":-119.12725,"TYPE":"Cherry Harvest Camp License","N_ZIP4":"","N_STATE":"WA","TRACT90":"011402","BLOCK90":"01C","Y_COORDS":"46.17997","N_ZIP":"99337","AV_ZIP":"99337","BG00":"4","STATE":"WA","N_CITY":"KENNEWICK","N_POSTDIR":"","AV_DATE":"Mon Mar 31 07:38:38 2008","BG90":"4","ACCURACY":"Very Approximate","TRACT90D":"0114.024","geometry":{"type":"Point","coordinates":[-119.127250001,46.1799699993576]},"ZIP4":"","N_STRSUF":"ST","Y_COORD":46.17997,"id":"a652y5nj4y9s","ADDRESS":"5701 S GARFIELD ST","N_MCODE":"E022","N_PREDIR":"S","SOURCE":"Street Centroid","QUALITY":"05","TRACT00D":"0114.024","X_COORDS":"-119.12725","AV_CITY":"KENNEWICK"},{"NAME":"TENTS-WENATCHEE RIVER COUNTY PARK","CITY":"MONITOR","CERTAINTY":"5","ZCTA":"","AV_CO":"007","ZIP":"98836","N_LCODE":"ZC5X","N_HOUSENUM":"2924","GEOLEVEL":"CITY","AV_SCORE":0,"RUCA":2.0,"N_STREET":"STATE HWY 2","AV_ALPHA":"04","TRACT00":"960500","BLOCK00":"4000","N_ADDRESS":"2924 STATE HWY 2","N_UNIT":"","X_COORD":-120.41694,"TYPE":"Cherry Harvest Camp License","N_ZIP4":"","N_STATE":"WA","TRACT90":"960500","BLOCK90":"21","Y_COORDS":"47.48694","N_ZIP":"98836","AV_ZIP":"","BG00":"4","STATE":"WA","N_CITY":"MONITOR","N_POSTDIR":"","AV_DATE":"","BG90":"4","ACCURACY":"Very Approximate","TRACT90D":"9605.004","geometry":{"type":"Point","coordinates":[-120.41694,47.4869399990435]},"ZIP4":"","N_STRSUF":"","Y_COORD":47.48694,"id":"a652y5mnwho1","ADDRESS":"2924 STATE HWY 2","N_MCODE":"E020","N_PREDIR":"","SOURCE":"City or Place Centroid","QUALITY":"11","TRACT00D":"9605.004","X_COORDS":"-120.41694","AV_CITY":""},{"NAME":"TROUT LAKE FARM (EAST)","CITY":"EPHRATA","CERTAINTY":"1","ZCTA":"98823","AV_CO":"025","ZIP":"98823","N_LCODE":"AS1","N_HOUSENUM":"2490","GEOLEVEL":"CENSUSTRACT","AV_SCORE":60,"RUCA":5.0,"N_STREET":"ROAD 7","AV_ALPHA":"13","TRACT00":"981200","BLOCK00":"1102","N_ADDRESS":"2490 ROAD 7 NW","N_UNIT":"","X_COORD":-119.54372,"TYPE":"Temporary Worker Housing License","N_ZIP4":"9749","N_STATE":"WA","TRACT90":"981200","BLOCK90":"64","Y_COORDS":"47.19258","N_ZIP":"98823","AV_ZIP":"98823","BG00":"1","STATE":"WA","N_CITY":"EPHRATA","N_POSTDIR":"NW","AV_DATE":"Mon Mar 31 07:38:38 2008","BG90":"2","ACCURACY":"Approximate","TRACT90D":"9812.002","geometry":{"type":"Point","coordinates":[-119.543722918605,47.1925796650736]},"ZIP4":"","N_STRSUF":"","Y_COORD":47.19258,"id":"a652y5rhr41r","ADDRESS":"2490 RD 7 NW","N_MCODE":"S80","N_PREDIR":"","SOURCE":"GDT 1000","QUALITY":"03","TRACT00D":"9812.001","X_COORDS":"-119.54372","AV_CITY":""},{"NAME":"TROUT LAKE FARM (WEST)","CITY":"TROUT LAKE","CERTAINTY":"1","ZCTA":"98650","AV_CO":"039","ZIP":"98650","N_LCODE":"AS1","N_HOUSENUM":"42","GEOLEVEL":"CENSUSTRACT","AV_SCORE":100,"RUCA":4.0,"N_STREET":"WARNER","AV_ALPHA":"20","TRACT00":"950300","BLOCK00":"1167","N_ADDRESS":"42 WARNER RD","N_UNIT":"","X_COORD":-121.48264,"TYPE":"Temporary Worker Housing License","N_ZIP4":"9727","N_STATE":"WA","TRACT90":"950300","BLOCK90":"67","Y_COORDS":"45.96322","N_ZIP":"98650","AV_ZIP":"98650","BG00":"1","STATE":"WA","N_CITY":"TROUT LAKE","N_POSTDIR":"","AV_DATE":"Mon Mar 31 07:38:38 2008","BG90":"1","ACCURACY":"Close","TRACT90D":"9503.001","geometry":{"type":"Point","coordinates":[-121.48264439135,45.9632243540472]},"ZIP4":"","N_STRSUF":"RD","Y_COORD":45.96322,"id":"a652y5ewxqoy","ADDRESS":"42 WARNER RD","N_MCODE":"S80","N_PREDIR":"","SOURCE":"TIGER 2006","QUALITY":"03","TRACT00D":"9503.001","X_COORDS":"-121.48264","AV_CITY":""},{"NAME":"TSUGAWA FARMS I","CITY":"WOODLAND","CERTAINTY":"1","ZCTA":"98674","AV_CO":"015","ZIP":"98674","N_LCODE":"AS1","N_HOUSENUM":"143","GEOLEVEL":"CENSUSTRACT","AV_SCORE":100,"RUCA":7.1,"N_STREET":"WHALEN","AV_ALPHA":"08","TRACT00":"001500","BLOCK00":"2030","N_ADDRESS":"143 WHALEN RD","N_UNIT":"","X_COORD":-122.74715,"TYPE":"Temporary Worker Housing License","N_ZIP4":"9529","N_STATE":"WA","TRACT90":"001500","BLOCK90":"31","Y_COORDS":"45.89052","N_ZIP":"98674","AV_ZIP":"98674","BG00":"2","STATE":"WA","N_CITY":"WOODLAND","N_POSTDIR":"","AV_DATE":"Mon Mar 31 07:38:38 2008","BG90":"2","ACCURACY":"Close","TRACT90D":"0015.002","geometry":{"type":"Point","coordinates":[-122.747151005075,45.8905182838188]},"ZIP4":"","N_STRSUF":"RD","Y_COORD":45.89052,"id":"a652y5cdgur5","ADDRESS":"143 WHALEN RD","N_MCODE":"S80","N_PREDIR":"","SOURCE":"TIGER 2006","QUALITY":"03","TRACT00D":"0015.002","X_COORDS":"-122.74715","AV_CITY":""},{"NAME":"Tents - East Oroville Harvest Park","CITY":"Oroville","CERTAINTY":"1","ZCTA":"98844","AV_CO":"047","ZIP":"98844","N_LCODE":"AS1","N_HOUSENUM":"18","GEOLEVEL":"CENSUSTRACT","AV_SCORE":100,"RUCA":10.0,"N_STREET":"SAWTELLS","AV_ALPHA":"24","TRACT00":"970300","BLOCK00":"3067","N_ADDRESS":"18 SAWTELLS RD","N_UNIT":"","X_COORD":-119.40747,"TYPE":"Cherry Harvest Camp License","N_ZIP4":"9518","N_STATE":"WA","TRACT90":"970300","BLOCK90":"05","Y_COORDS":"48.93932","N_ZIP":"98844","AV_ZIP":"98844","BG00":"3","STATE":"WA","N_CITY":"OROVILLE","N_POSTDIR":"","AV_DATE":"Mon Mar 31 07:38:38 2008","BG90":"4","ACCURACY":"Close","TRACT90D":"9703.004","geometry":{"type":"Point","coordinates":[-119.407467412381,48.939322664653]},"ZIP4":"9518","N_STRSUF":"RD","Y_COORD":48.93932,"id":"a652y5ex2b8a","ADDRESS":"18 Sawtells Rd","N_MCODE":"S00","N_PREDIR":"","SOURCE":"NAVTECH","QUALITY":"03","TRACT00D":"9703.003","X_COORDS":"-119.40747","AV_CITY":""},{"NAME":"Tents-Bradley W Carlson","CITY":"Pasco","CERTAINTY":"1","ZCTA":"99301","AV_CO":"021","ZIP":"99301","N_LCODE":"AS1","N_HOUSENUM":"8012","GEOLEVEL":"CENSUSTRACT","AV_SCORE":100,"RUCA":2.0,"N_STREET":"SAGEMOOR","AV_ALPHA":"11","TRACT00":"020601","BLOCK00":"2108","N_ADDRESS":"8012 W SAGEMOOR RD","N_UNIT":"","X_COORD":-119.23191,"TYPE":"Cherry Harvest Camp License","N_ZIP4":"8740","N_STATE":"WA","TRACT90":"020600","BLOCK90":"65","Y_COORDS":"46.38529","N_ZIP":"99301","AV_ZIP":"99301","BG00":"2","STATE":"WA","N_CITY":"PASCO","N_POSTDIR":"","AV_DATE":"Mon Mar 31 07:38:38 2008","BG90":"2","ACCURACY":"Close","TRACT90D":"0206.002","geometry":{"type":"Point","coordinates":[-119.231909078779,46.3852933267836]},"ZIP4":"8740","N_STRSUF":"RD","Y_COORD":46.38529,"id":"a652y5edhdgz","ADDRESS":"8012 W Sagemoor Rd","N_MCODE":"S00","N_PREDIR":"W","SOURCE":"TIGER 2006","QUALITY":"03","TRACT00D":"0206.012","X_COORDS":"-119.23191","AV_CITY":""},{"NAME":"Tents-Carr Harden Orchards","CITY":"Malaga","CERTAINTY":"1","ZCTA":"98828","AV_CO":"007","ZIP":"98828","N_LCODE":"AS1","N_HOUSENUM":"2988","GEOLEVEL":"CENSUSTRACT","AV_SCORE":100,"RUCA":2.0,"N_STREET":"MALAGA","AV_ALPHA":"04","TRACT00":"961200","BLOCK00":"2010","N_ADDRESS":"2988 W MALAGA RD","N_UNIT":"","X_COORD":-120.22443,"TYPE":"Cherry Harvest Camp License","N_ZIP4":"9786","N_STATE":"WA","TRACT90":"961200","BLOCK90":"35","Y_COORDS":"47.36292","N_ZIP":"98828","AV_ZIP":"98828","BG00":"2","STATE":"WA","N_CITY":"MALAGA","N_POSTDIR":"","AV_DATE":"Mon Mar 31 07:38:38 2008","BG90":"2","ACCURACY":"Close","TRACT90D":"9612.002","geometry":{"type":"Point","coordinates":[-120.224431241799,47.3629225138861]},"ZIP4":"9786","N_STRSUF":"RD","Y_COORD":47.36292,"id":"a652y5ohiavb","ADDRESS":"2988 W Malaga Rd","N_MCODE":"S00","N_PREDIR":"W","SOURCE":"TIGER 2006","QUALITY":"03","TRACT00D":"9612.002","X_COORDS":"-120.22443","AV_CITY":""},{"NAME":"Tents-Dorsing Farms","CITY":"Othello","CERTAINTY":"1","ZCTA":"99344","AV_CO":"025","ZIP":"99344","N_LCODE":"AS1","N_HOUSENUM":"3408","GEOLEVEL":"CENSUSTRACT","AV_SCORE":60,"RUCA":10.0,"N_STREET":"ROAD 10.5","AV_ALPHA":"13","TRACT00":"981400","BLOCK00":"2093","N_ADDRESS":"3408 ROAD 10.5 SE","N_UNIT":"","X_COORD":-119.42156,"TYPE":"Cherry Harvest Camp License","N_ZIP4":"9682","N_STATE":"WA","TRACT90":"981400","BLOCK90":"07","Y_COORDS":"46.92815","N_ZIP":"99344","AV_ZIP":"99344","BG00":"2","STATE":"WA","N_CITY":"OTHELLO","N_POSTDIR":"SE","AV_DATE":"Mon Mar 31 07:38:38 2008","BG90":"2","ACCURACY":"Approximate","TRACT90D":"9814.002","geometry":{"type":"Point","coordinates":[-119.421557675473,46.9281514307732]},"ZIP4":"","N_STRSUF":"","Y_COORD":46.92815,"id":"a652y5ht3i2w","ADDRESS":"3408 South East 10 5 Rd","N_MCODE":"A8F","N_PREDIR":"","SOURCE":"GDT 1000","QUALITY":"03","TRACT00D":"9814.002","X_COORDS":"-119.42156","AV_CITY":""},{"NAME":"Tents-H &amp; S Orchards","CITY":"Wenatchee","CERTAINTY":"1","ZCTA":"98801","AV_CO":"007","ZIP":"98801","N_LCODE":"AS1","N_HOUSENUM":"5044","GEOLEVEL":"CENSUSTRACT","AV_SCORE":100,"RUCA":2.0,"N_STREET":"STEMILT HILL","AV_ALPHA":"04","TRACT00":"961200","BLOCK00":"1083","N_ADDRESS":"5044 STEMILT HILL RD","N_UNIT":"","X_COORD":-120.26283,"TYPE":"Cherry Harvest Camp License","N_ZIP4":"8930","N_STATE":"WA","TRACT90":"961200","BLOCK90":"96","Y_COORDS":"47.33545","N_ZIP":"98801","AV_ZIP":"98801","BG00":"1","STATE":"WA","N_CITY":"WENATCHEE","N_POSTDIR":"","AV_DATE":"Mon Mar 31 07:38:38 2008","BG90":"1","ACCURACY":"Close","TRACT90D":"9612.001","geometry":{"type":"Point","coordinates":[-120.262826145968,47.3354505882678]},"ZIP4":"8930","N_STRSUF":"RD","Y_COORD":47.33545,"id":"a652y5etqnrc","ADDRESS":"5044 Stemilt Hill Rd","N_MCODE":"S00","N_PREDIR":"","SOURCE":"TIGER 2006","QUALITY":"03","TRACT00D":"9612.001","X_COORDS":"-120.26283","AV_CITY":""},{"NAME":"Tents-Lakes Tent Camp","CITY":"Malaga","CERTAINTY":"1","ZCTA":"98828","AV_CO":"007","ZIP":"98828","N_LCODE":"AS1","N_HOUSENUM":"4825","GEOLEVEL":"CENSUSTRACT","AV_SCORE":100,"RUCA":2.0,"N_STREET":"JOE MILLER","AV_ALPHA":"04","TRACT00":"961200","BLOCK00":"1005","N_ADDRESS":"4825 JOE MILLER RD # 3","N_UNIT":"3","X_COORD":-120.24007,"TYPE":"Cherry Harvest Camp License","N_ZIP4":"9716","N_STATE":"WA","TRACT90":"961200","BLOCK90":"05","Y_COORDS":"47.33913","N_ZIP":"98828","AV_ZIP":"98801","BG00":"1","STATE":"WA","N_CITY":"MALAGA","N_POSTDIR":"","AV_DATE":"Mon Mar 31 07:38:38 2008","BG90":"1","ACCURACY":"Close","TRACT90D":"9612.001","geometry":{"type":"Point","coordinates":[-120.240073099373,47.3391316038079]},"ZIP4":"","N_STRSUF":"RD","Y_COORD":47.33913,"id":"a652y5ppdvwk","ADDRESS":"4825-3 Joe Miller Rd","N_MCODE":"S80","N_PREDIR":"","SOURCE":"TIGER 2006","QUALITY":"03","TRACT00D":"9612.001","X_COORDS":"-120.24007","AV_CITY":""},{"NAME":"Tents-Pangborn Cherry Harvest Camp","CITY":"East Wenatchee","CERTAINTY":"1","ZCTA":"98802","AV_CO":"017","ZIP":"98802","N_LCODE":"AS1","N_HOUSENUM":"711","GEOLEVEL":"CENSUSTRACT","AV_SCORE":100,"RUCA":1.0,"N_STREET":"UNION","AV_ALPHA":"09","TRACT00":"950300","BLOCK00":"3016","N_ADDRESS":"711 S UNION AVE","N_UNIT":"","X_COORD":-120.21799,"TYPE":"Cherry Harvest Camp License","N_ZIP4":"","N_STATE":"WA","TRACT90":"950300","BLOCK90":"28","Y_COORDS":"47.39310","N_ZIP":"98802","AV_ZIP":"98802","BG00":"3","STATE":"WA","N_CITY":"EAST WENATCHEE","N_POSTDIR":"","AV_DATE":"Mon Mar 31 07:38:38 2008","BG90":"3","ACCURACY":"Close","TRACT90D":"9503.003","geometry":{"type":"Point","coordinates":[-120.217985011012,47.3930997990497]},"ZIP4":"","N_STRSUF":"AVE","Y_COORD":47.3931,"id":"a652y5kbgiaw","ADDRESS":"711 S Union","N_MCODE":"T81","N_PREDIR":"S","SOURCE":"NAVTECH","QUALITY":"03","TRACT00D":"9503.003","X_COORDS":"-120.21799","AV_CITY":""},{"NAME":"Tents-Senseney Orchards","CITY":"Wenatchee","CERTAINTY":"1","ZCTA":"98801","AV_CO":"007","ZIP":"98801","N_LCODE":"AS1","N_HOUSENUM":"4278","GEOLEVEL":"CENSUSTRACT","AV_SCORE":100,"RUCA":2.0,"N_STREET":"STEMILT CREEK","AV_ALPHA":"04","TRACT00":"961200","BLOCK00":"1077","N_ADDRESS":"4278 STEMILT CREEK RD","N_UNIT":"","X_COORD":-120.27715,"TYPE":"Cherry Harvest Camp License","N_ZIP4":"8935","N_STATE":"WA","TRACT90":"961200","BLOCK90":"51","Y_COORDS":"47.34961","N_ZIP":"98801","AV_ZIP":"98801","BG00":"1","STATE":"WA","N_CITY":"WENATCHEE","N_POSTDIR":"","AV_DATE":"Mon Mar 31 07:38:38 2008","BG90":"1","ACCURACY":"Close","TRACT90D":"9612.001","geometry":{"type":"Point","coordinates":[-120.277154468727,47.3496098942844]},"ZIP4":"8935","N_STRSUF":"RD","Y_COORD":47.34961,"id":"a652y5phnnn5","ADDRESS":"4278 Stemilt Creek Rd","N_MCODE":"S00","N_PREDIR":"","SOURCE":"TIGER 2006","QUALITY":"03","TRACT00D":"9612.001","X_COORDS":"-120.27715","AV_CITY":""},{"NAME":"Tents-Steve Shiflett","CITY":"Wenatchee","CERTAINTY":"1","ZCTA":"98801","AV_CO":"007","ZIP":"98801","N_LCODE":"AS1","N_HOUSENUM":"4862","GEOLEVEL":"CENSUSTRACT","AV_SCORE":100,"RUCA":2.0,"N_STREET":"STEMILT CREEK","AV_ALPHA":"04","TRACT00":"961200","BLOCK00":"1077","N_ADDRESS":"4862 STEMILT CREEK RD","N_UNIT":"","X_COORD":-120.27964,"TYPE":"Cherry Harvest Camp License","N_ZIP4":"8934","N_STATE":"WA","TRACT90":"961200","BLOCK90":"51","Y_COORDS":"47.33980","N_ZIP":"98801","AV_ZIP":"98801","BG00":"1","STATE":"WA","N_CITY":"WENATCHEE","N_POSTDIR":"","AV_DATE":"Mon Mar 31 07:38:38 2008","BG90":"1","ACCURACY":"Close","TRACT90D":"9612.001","geometry":{"type":"Point","coordinates":[-120.279635574116,47.3397966130626]},"ZIP4":"8934","N_STRSUF":"RD","Y_COORD":47.3398,"id":"a652y5q5wx04","ADDRESS":"4862 Stemilt Creek Rd","N_MCODE":"S00","N_PREDIR":"","SOURCE":"TIGER 2006","QUALITY":"03","TRACT00D":"9612.001","X_COORDS":"-120.27964","AV_CITY":""},{"NAME":"Tsugawa Farms II","CITY":"Woodland","CERTAINTY":"1","ZCTA":"98674","AV_CO":"015","ZIP":"98674","N_LCODE":"AS1","N_HOUSENUM":"421 1/2","GEOLEVEL":"CENSUSTRACT","AV_SCORE":100,"RUCA":7.1,"N_STREET":"ROBERSON","AV_ALPHA":"08","TRACT00":"001500","BLOCK00":"1027","N_ADDRESS":"421 1/2 ROBERSON RD","N_UNIT":"","X_COORD":-122.76874,"TYPE":"Temporary Worker Housing License","N_ZIP4":"9507","N_STATE":"WA","TRACT90":"001500","BLOCK90":"23","Y_COORDS":"45.87795","N_ZIP":"98674","AV_ZIP":"98674","BG00":"1","STATE":"WA","N_CITY":"WOODLAND","N_POSTDIR":"","AV_DATE":"Mon Mar 31 07:38:38 2008","BG90":"1","ACCURACY":"Close","TRACT90D":"0015.001","geometry":{"type":"Point","coordinates":[-122.768741233911,45.8779479898029]},"ZIP4":"9507","N_STRSUF":"RD","Y_COORD":45.87795,"id":"a652y5f2gofl","ADDRESS":"421 1/2 Roberson Rd","N_MCODE":"S00","N_PREDIR":"","SOURCE":"TIGER 2006","QUALITY":"03","TRACT00D":"0015.001","X_COORDS":"-122.76874","AV_CITY":""},{"NAME":"V M S CORPORATION (BROOKHART ORCHARDS)","CITY":"BREWSTER","CERTAINTY":"4","ZCTA":"98812","AV_CO":"047","ZIP":"98812","N_LCODE":"ZT5V","N_HOUSENUM":"","GEOLEVEL":"ZIPCODE","AV_SCORE":70,"RUCA":10.0,"N_STREET":"BREWSTER","AV_ALPHA":"24","TRACT00":"970800","BLOCK00":"1068","N_ADDRESS":"BREWSTER FLATS","N_UNIT":"","X_COORD":-119.7883,"TYPE":"Temporary Worker Housing License","N_ZIP4":"","N_STATE":"WA","TRACT90":"970800","BLOCK90":"33","Y_COORDS":"48.16990","N_ZIP":"98812","AV_ZIP":"98812","BG00":"1","STATE":"WA","N_CITY":"BREWSTER","N_POSTDIR":"","AV_DATE":"Mon Mar 31 07:38:38 2008","BG90":"1","ACCURACY":"Very Approximate","TRACT90D":"9708.001","geometry":{"type":"Point","coordinates":[-119.7883,48.1698989990474]},"ZIP4":"","N_STRSUF":"FLTS","Y_COORD":48.1699,"id":"a652y5cgzndd","ADDRESS":"BREWSTER FLATS","N_MCODE":"E020","N_PREDIR":"","SOURCE":"Centrus","QUALITY":"09","TRACT00D":"9708.001","X_COORDS":"-119.78830","AV_CITY":""},{"NAME":"VICENTE FARMS (MISSION ROAD)","CITY":"EVERSON","CERTAINTY":"1","ZCTA":"98247","AV_CO":"073","ZIP":"98247","N_LCODE":"AS1","N_HOUSENUM":"6810","GEOLEVEL":"CENSUSTRACT","AV_SCORE":100,"RUCA":2.0,"N_STREET":"MISSION","AV_ALPHA":"37","TRACT00":"010700","BLOCK00":"4025","N_ADDRESS":"6810 MISSION RD","N_UNIT":"","X_COORD":-122.35264,"TYPE":"Temporary Worker Housing License","N_ZIP4":"9750","N_STATE":"WA","TRACT90":"010700","BLOCK90":"16","Y_COORDS":"48.88905","N_ZIP":"98247","AV_ZIP":"98247","BG00":"4","STATE":"WA","N_CITY":"EVERSON","N_POSTDIR":"","AV_DATE":"Mon Mar 31 07:38:38 2008","BG90":"4","ACCURACY":"Close","TRACT90D":"0107.004","geometry":{"type":"Point","coordinates":[-122.352637573963,48.8890481046107]},"ZIP4":"","N_STRSUF":"RD","Y_COORD":48.88905,"id":"a652y5jqh1lo","ADDRESS":"6810 MISSION RD","N_MCODE":"S80","N_PREDIR":"","SOURCE":"TIGER 2006","QUALITY":"03","TRACT00D":"0107.004","X_COORDS":"-122.35264","AV_CITY":""},{"NAME":"VICENTE FARMS - ENTERPRISE ROAD","CITY":"FERNDALE","CERTAINTY":"1","ZCTA":"98248","AV_CO":"073","ZIP":"98248","N_LCODE":"AS1","N_HOUSENUM":"7342","GEOLEVEL":"CENSUSTRACT","AV_SCORE":100,"RUCA":7.1,"N_STREET":"ENTERPRISE","AV_ALPHA":"37","TRACT00":"010301","BLOCK00":"2028","N_ADDRESS":"7342 N ENTERPRISE RD","N_UNIT":"","X_COORD":-122.57387,"TYPE":"Temporary Worker Housing License","N_ZIP4":"9747","N_STATE":"WA","TRACT90":"010300","BLOCK90":"20","Y_COORDS":"48.90779","N_ZIP":"98248","AV_ZIP":"98248","BG00":"2","STATE":"WA","N_CITY":"FERNDALE","N_POSTDIR":"","AV_DATE":"Mon Mar 31 07:38:38 2008","BG90":"7","ACCURACY":"Close","TRACT90D":"0103.007","geometry":{"type":"Point","coordinates":[-122.573872336425,48.9077922806047]},"ZIP4":"","N_STRSUF":"RD","Y_COORD":48.90779,"id":"a652y5jgyq82","ADDRESS":"7342 ENTERPRISE RD","N_MCODE":"S82","N_PREDIR":"N","SOURCE":"TIGER 2006","QUALITY":"03","TRACT00D":"0103.012","X_COORDS":"-122.57387","AV_CITY":""},{"NAME":"Valley Fruit Orchards","CITY":"Royal City","CERTAINTY":"5","ZCTA":"","AV_CO":"025","ZIP":"98955","N_LCODE":"ZC5X","N_HOUSENUM":"9386","GEOLEVEL":"CITY","AV_SCORE":0,"RUCA":10.0,"N_STREET":"RD G","AV_ALPHA":"13","TRACT00":"981400","BLOCK00":"3021","N_ADDRESS":"9386 RD G","N_UNIT":"","X_COORD":-119.62944,"TYPE":"Temporary Worker Housing License","N_ZIP4":"","N_STATE":"WA","TRACT90":"981400","BLOCK90":"07","Y_COORDS":"46.90111","N_ZIP":"98955","AV_ZIP":"","BG00":"3","STATE":"WA","N_CITY":"ROYAL CITY","N_POSTDIR":"","AV_DATE":"","BG90":"3","ACCURACY":"Very Approximate","TRACT90D":"9814.003","geometry":{"type":"Point","coordinates":[-119.62944,46.9011099990589]},"ZIP4":"","N_STRSUF":"","Y_COORD":46.90111,"id":"a652y5bdtz1k","ADDRESS":"9386 Rd G","N_MCODE":"E023","N_PREDIR":"","SOURCE":"City or Place Centroid","QUALITY":"11","TRACT00D":"9814.003","X_COORDS":"-119.62944","AV_CITY":""},{"NAME":"Valley Investments","CITY":"MOUNT VERNON","CERTAINTY":"1","ZCTA":"98273","AV_CO":"057","ZIP":"98273","N_LCODE":"AS1","N_HOUSENUM":"13239","GEOLEVEL":"CENSUSTRACT","AV_SCORE":100,"RUCA":2.0,"N_STREET":"YOUNG","AV_ALPHA":"29","TRACT00":"952100","BLOCK00":"2002","N_ADDRESS":"13239 YOUNG RD","N_UNIT":"","X_COORD":-122.45731,"TYPE":"Temporary Worker Housing License","N_ZIP4":"4787","N_STATE":"WA","TRACT90":"952100","BLOCK90":"13","Y_COORDS":"48.44299","N_ZIP":"98273","AV_ZIP":"98273","BG00":"2","STATE":"WA","N_CITY":"MOUNT VERNON","N_POSTDIR":"","AV_DATE":"Mon Mar 31 07:38:38 2008","BG90":"2","ACCURACY":"Close","TRACT90D":"9521.002","geometry":{"type":"Point","coordinates":[-122.457312449788,48.4429902762539]},"ZIP4":"","N_STRSUF":"RD","Y_COORD":48.44299,"id":"a652y5jibpvr","ADDRESS":"13239 YOUNG RD","N_MCODE":"S80","N_PREDIR":"","SOURCE":"TIGER 2000","QUALITY":"03","TRACT00D":"9521.002","X_COORDS":"-122.45731","AV_CITY":""},{"NAME":"Van Laeken Farms","CITY":"Ridgefield","CERTAINTY":"1","ZCTA":"98642","AV_CO":"011","ZIP":"98642","N_LCODE":"AS1","N_HOUSENUM":"3300","GEOLEVEL":"CENSUSTRACT","AV_SCORE":100,"RUCA":2.0,"N_STREET":"166TH","AV_ALPHA":"06","TRACT00":"040905","BLOCK00":"2005","N_ADDRESS":"3300 NW 166TH ST","N_UNIT":"","X_COORD":-122.70554,"TYPE":"Temporary Worker Housing License","N_ZIP4":"8556","N_STATE":"WA","TRACT90":"040902","BLOCK90":"11","Y_COORDS":"45.74180","N_ZIP":"98642","AV_ZIP":"98642","BG00":"2","STATE":"WA","N_CITY":"RIDGEFIELD","N_POSTDIR":"","AV_DATE":"Mon Mar 31 07:38:38 2008","BG90":"2","ACCURACY":"Close","TRACT90D":"0409.022","geometry":{"type":"Point","coordinates":[-122.705539107222,45.7417999678285]},"ZIP4":"8556","N_STRSUF":"ST","Y_COORD":45.7418,"id":"a652y5iuut24","ADDRESS":"3300 NW 166th St","N_MCODE":"S00","N_PREDIR":"NW","SOURCE":"TIGER 2006","QUALITY":"03","TRACT00D":"0409.052","X_COORDS":"-122.70554","AV_CITY":""},{"NAME":"Van Winkle Orchards","CITY":"Orondo","CERTAINTY":"4","ZCTA":"98858","AV_CO":"017","ZIP":"98843","N_LCODE":"ZT5V","N_HOUSENUM":"","GEOLEVEL":"ZIPCODE","AV_SCORE":70,"RUCA":10.4,"N_STREET":"MILE POST 221 HWY 97","AV_ALPHA":"09","TRACT00":"950200","BLOCK00":"1107","N_ADDRESS":"MILE POST 221 HWY 97","N_UNIT":"","X_COORD":-120.1061,"TYPE":"Temporary Worker Housing License","N_ZIP4":"","N_STATE":"WA","TRACT90":"950200","BLOCK90":"12","Y_COORDS":"47.72820","N_ZIP":"98843","AV_ZIP":"98858","BG00":"1","STATE":"WA","N_CITY":"ORONDO","N_POSTDIR":"","AV_DATE":"Mon Mar 31 07:38:38 2008","BG90":"2","ACCURACY":"Very Approximate","TRACT90D":"9502.002","geometry":{"type":"Point","coordinates":[-120.106102,47.7281989990448]},"ZIP4":"","N_STRSUF":"","Y_COORD":47.7282,"id":"a652y5o84dig","ADDRESS":"Mile Post 221 Hwy 97","N_MCODE":"E020","N_PREDIR":"","SOURCE":"Centrus","QUALITY":"09","TRACT00D":"9502.001","X_COORDS":"-120.10610","AV_CITY":""},{"NAME":"WASHINGTON BULB COMPANY - TESCH HOUSE","CITY":"MOUNT VERNON","CERTAINTY":"1","ZCTA":"98273","AV_CO":"057","ZIP":"98273","N_LCODE":"AS1","N_HOUSENUM":"16201","GEOLEVEL":"CENSUSTRACT","AV_SCORE":100,"RUCA":2.0,"N_STREET":"JUNGQUIST","AV_ALPHA":"29","TRACT00":"952100","BLOCK00":"3040","N_ADDRESS":"16201 JUNGQUIST RD","N_UNIT":"","X_COORD":-122.3964,"TYPE":"Temporary Worker Housing License","N_ZIP4":"8867","N_STATE":"WA","TRACT90":"952100","BLOCK90":"40","Y_COORDS":"48.40694","N_ZIP":"98273","AV_ZIP":"98273","BG00":"3","STATE":"WA","N_CITY":"MOUNT VERNON","N_POSTDIR":"","AV_DATE":"Mon Mar 31 07:38:38 2008","BG90":"3","ACCURACY":"Close","TRACT90D":"9521.003","geometry":{"type":"Point","coordinates":[-122.396401197314,48.4069449790779]},"ZIP4":"","N_STRSUF":"RD","Y_COORD":48.40694,"id":"a652y5fgx7xo","ADDRESS":"16201 JUNGQUIST RD","N_MCODE":"S80","N_PREDIR":"","SOURCE":"TIGER 2006","QUALITY":"03","TRACT00D":"9521.003","X_COORDS":"-122.39640","AV_CITY":""},{"NAME":"WASHINGTON BULB COMPANY - VALLEY GARDEN APTS","CITY":"BURLINGTON","CERTAINTY":"1","ZCTA":"98233","AV_CO":"057","ZIP":"98233","N_LCODE":"AS1","N_HOUSENUM":"610","GEOLEVEL":"CENSUSTRACT","AV_SCORE":100,"RUCA":1.0,"N_STREET":"PAULI","AV_ALPHA":"29","TRACT00":"951800","BLOCK00":"1049","N_ADDRESS":"610 PAULI DR","N_UNIT":"","X_COORD":-122.34615,"TYPE":"Temporary Worker Housing License","N_ZIP4":"2690","N_STATE":"WA","TRACT90":"951800","BLOCK90":"32A","Y_COORDS":"48.47129","N_ZIP":"98233","AV_ZIP":"98233","BG00":"1","STATE":"WA","N_CITY":"BURLINGTON","N_POSTDIR":"","AV_DATE":"Mon Mar 31 07:38:38 2008","BG90":"1","ACCURACY":"Close","TRACT90D":"9518.001","geometry":{"type":"Point","coordinates":[-122.346146709178,48.4712921587876]},"ZIP4":"","N_STRSUF":"DR","Y_COORD":48.47129,"id":"a652y5ffa4na","ADDRESS":"610 PAULI DR","N_MCODE":"S80","N_PREDIR":"","SOURCE":"TIGER 2006","QUALITY":"03","TRACT00D":"9518.001","X_COORDS":"-122.34615","AV_CITY":"BURLINGTON"},{"NAME":"WENATCHEE RIVER COUNTY PARK","CITY":"MONITOR","CERTAINTY":"5","ZCTA":"","AV_CO":"007","ZIP":"98836","N_LCODE":"ZC5X","N_HOUSENUM":"2924","GEOLEVEL":"CITY","AV_SCORE":0,"RUCA":2.0,"N_STREET":"STATE HWY 2","AV_ALPHA":"04","TRACT00":"960500","BLOCK00":"4000","N_ADDRESS":"2924 STATE HWY 2","N_UNIT":"","X_COORD":-120.41694,"TYPE":"Temporary Worker Housing License","N_ZIP4":"","N_STATE":"WA","TRACT90":"960500","BLOCK90":"21","Y_COORDS":"47.48694","N_ZIP":"98836","AV_ZIP":"","BG00":"4","STATE":"WA","N_CITY":"MONITOR","N_POSTDIR":"","AV_DATE":"","BG90":"4","ACCURACY":"Very Approximate","TRACT90D":"9605.004","geometry":{"type":"Point","coordinates":[-120.41694,47.4869399990435]},"ZIP4":"","N_STRSUF":"","Y_COORD":47.48694,"id":"a652y5cmjlk2","ADDRESS":"2924 STATE HWY 2","N_MCODE":"E020","N_PREDIR":"","SOURCE":"City or Place Centroid","QUALITY":"11","TRACT00D":"9605.004","X_COORDS":"-120.41694","AV_CITY":""},{"NAME":"WHITE CITY FARM HOUSING","CITY":"ROYAL CITY","CERTAINTY":"1","ZCTA":"99357","AV_CO":"025","ZIP":"99357","N_LCODE":"AS1","N_HOUSENUM":"14054","GEOLEVEL":"CENSUSTRACT","AV_SCORE":60,"RUCA":10.0,"N_STREET":"ROAD 11","AV_ALPHA":"13","TRACT00":"981400","BLOCK00":"1041","N_ADDRESS":"14054 ROAD 11 SW","N_UNIT":"","X_COORD":-119.79392,"TYPE":"Temporary Worker Housing License","N_ZIP4":"9510","N_STATE":"WA","TRACT90":"981400","BLOCK90":"55","Y_COORDS":"46.92886","N_ZIP":"99357","AV_ZIP":"99357","BG00":"1","STATE":"WA","N_CITY":"ROYAL CITY","N_POSTDIR":"SW","AV_DATE":"Mon Mar 31 07:38:38 2008","BG90":"1","ACCURACY":"Approximate","TRACT90D":"9814.001","geometry":{"type":"Point","coordinates":[-119.79392000636,46.9288591161539]},"ZIP4":"","N_STRSUF":"","Y_COORD":46.92886,"id":"a652y5lkagvz","ADDRESS":"14054 RD 11 SW","N_MCODE":"S80","N_PREDIR":"","SOURCE":"GDT 1000","QUALITY":"03","TRACT00D":"9814.001","X_COORDS":"-119.79392","AV_CITY":""},{"NAME":"WHITESTONE MOUNTAIN ORCHARD","CITY":"TONASKET","CERTAINTY":"3","ZCTA":"98827","AV_CO":"047","ZIP":"98855","N_LCODE":"ZT7F","N_HOUSENUM":"213","GEOLEVEL":"ZIPCODE","AV_SCORE":40,"RUCA":10.6,"N_STREET":"LOOMIS","AV_ALPHA":"24","TRACT00":"970400","BLOCK00":"2099","N_ADDRESS":"213 LOOMIS HWY","N_UNIT":"","X_COORD":-119.63553,"TYPE":"Temporary Worker Housing License","N_ZIP4":"","N_STATE":"WA","TRACT90":"970400","BLOCK90":"21","Y_COORDS":"48.81983","N_ZIP":"98855","AV_ZIP":"98827","BG00":"2","STATE":"WA","N_CITY":"TONASKET","N_POSTDIR":"","AV_DATE":"Mon Mar 31 07:38:38 2008","BG90":"2","ACCURACY":"Very Approximate","TRACT90D":"9704.002","geometry":{"type":"Point","coordinates":[-119.635534897,48.8198299990516]},"ZIP4":"","N_STRSUF":"HWY","Y_COORD":48.81983,"id":"a652y5rbtql1","ADDRESS":"213 LOOMIS HWY","N_MCODE":"E020","N_PREDIR":"","SOURCE":"Street Centroid","QUALITY":"05","TRACT00D":"9704.002","X_COORDS":"-119.63553","AV_CITY":""},{"NAME":"WYCKOFF FARMS (GREEN GIANT LABOR CAMP)","CITY":"GRANDVIEW","CERTAINTY":"1","ZCTA":"99350","AV_CO":"005","ZIP":"98930","N_LCODE":"AS1","N_HOUSENUM":"156602","GEOLEVEL":"CENSUSTRACT","AV_SCORE":100,"RUCA":9.0,"N_STREET":"EVANS","AV_ALPHA":"03","TRACT00":"011800","BLOCK00":"1196","N_ADDRESS":"156602 EVANS RD","N_UNIT":"","X_COORD":-119.82116,"TYPE":"Temporary Worker Housing License","N_ZIP4":"9167","N_STATE":"WA","TRACT90":"011800","BLOCK90":"62","Y_COORDS":"46.28534","N_ZIP":"98930","AV_ZIP":"99350","BG00":"1","STATE":"WA","N_CITY":"GRANDVIEW","N_POSTDIR":"","AV_DATE":"Mon Mar 31 07:38:38 2008","BG90":"1","ACCURACY":"Close","TRACT90D":"0118.001","geometry":{"type":"Point","coordinates":[-119.821156905955,46.2853404585703]},"ZIP4":"","N_STRSUF":"RD","Y_COORD":46.28534,"id":"a652y5i7i6k8","ADDRESS":"156602 W EVANS RD","N_MCODE":"S82","N_PREDIR":"","SOURCE":"TIGER 2006","QUALITY":"03","TRACT00D":"0118.001","X_COORDS":"-119.82116","AV_CITY":""},{"NAME":"Weber Orchard","CITY":"Quincy","CERTAINTY":"1","ZCTA":"98848","AV_CO":"025","ZIP":"98848","N_LCODE":"AS1","N_HOUSENUM":"12559","GEOLEVEL":"CENSUSTRACT","AV_SCORE":60,"RUCA":8.0,"N_STREET":"ROAD Q","AV_ALPHA":"13","TRACT00":"980500","BLOCK00":"1038","N_ADDRESS":"12559 ROAD Q NW","N_UNIT":"","X_COORD":-119.85456,"TYPE":"Temporary Worker Housing License","N_ZIP4":"9687","N_STATE":"WA","TRACT90":"980500","BLOCK90":"30","Y_COORDS":"47.26893","N_ZIP":"98848","AV_ZIP":"98848","BG00":"1","STATE":"WA","N_CITY":"QUINCY","N_POSTDIR":"NW","AV_DATE":"Mon Mar 31 07:38:38 2008","BG90":"1","ACCURACY":"Approximate","TRACT90D":"9805.001","geometry":{"type":"Point","coordinates":[-119.854562330163,47.2689299864008]},"ZIP4":"9687","N_STRSUF":"","Y_COORD":47.26893,"id":"a652y5q9wx5v","ADDRESS":"12559 Road Q NW","N_MCODE":"S00","N_PREDIR":"","SOURCE":"GDT 1000","QUALITY":"03","TRACT00D":"9805.001","X_COORDS":"-119.85456","AV_CITY":""},{"NAME":"Willow Springs Orchards","CITY":"Dryden","CERTAINTY":"5","ZCTA":"","AV_CO":"007","ZIP":"98821","N_LCODE":"ZC5X","N_HOUSENUM":"8721","GEOLEVEL":"CITY","AV_SCORE":0,"RUCA":2.0,"N_STREET":"DEADMAN HILL","AV_ALPHA":"04","TRACT00":"960500","BLOCK00":"6013","N_ADDRESS":"8721 DEADMAN HILL RD","N_UNIT":"","X_COORD":-120.55972,"TYPE":"Temporary Worker Housing License","N_ZIP4":"","N_STATE":"WA","TRACT90":"960500","BLOCK90":"48","Y_COORDS":"47.54139","N_ZIP":"98821","AV_ZIP":"","BG00":"6","STATE":"WA","N_CITY":"DRYDEN","N_POSTDIR":"","AV_DATE":"","BG90":"6","ACCURACY":"Very Approximate","TRACT90D":"9605.006","geometry":{"type":"Point","coordinates":[-120.55972,47.5413899990437]},"ZIP4":"","N_STRSUF":"RD","Y_COORD":47.54139,"id":"a652y5ot9izm","ADDRESS":"8721 Deadman Hill Rd","N_MCODE":"E020","N_PREDIR":"","SOURCE":"City or Place Centroid","QUALITY":"11","TRACT00D":"9605.006","X_COORDS":"-120.55972","AV_CITY":""},{"NAME":"Worden Orchard","CITY":"Manson","CERTAINTY":"3","ZCTA":"98831","AV_CO":"007","ZIP":"98831","N_LCODE":"ZT7F","N_HOUSENUM":"405","GEOLEVEL":"ZIPCODE","AV_SCORE":40,"RUCA":10.6,"N_STREET":"KINSEY","AV_ALPHA":"04","TRACT00":"960400","BLOCK00":"2018","N_ADDRESS":"405 KINSEY RD","N_UNIT":"","X_COORD":-120.13904,"TYPE":"Temporary Worker Housing License","N_ZIP4":"9439","N_STATE":"WA","TRACT90":"960400","BLOCK90":"29","Y_COORDS":"47.91721","N_ZIP":"98831","AV_ZIP":"98831","BG00":"2","STATE":"WA","N_CITY":"MANSON","N_POSTDIR":"","AV_DATE":"Mon Mar 31 07:38:38 2008","BG90":"2","ACCURACY":"Very Approximate","TRACT90D":"9604.002","geometry":{"type":"Point","coordinates":[-120.139039999,47.9172099992459]},"ZIP4":"9439","N_STRSUF":"RD","Y_COORD":47.91721,"id":"a652y5qturl5","ADDRESS":"405 Kinsey Rd","N_MCODE":"S00","N_PREDIR":"","SOURCE":"Street Centroid","QUALITY":"05","TRACT00D":"9604.002","X_COORDS":"-120.13904","AV_CITY":""},{"NAME":"Yakima Golding Farms - Camp #1","CITY":"Toppenish","CERTAINTY":"1","ZCTA":"98948","AV_CO":"077","ZIP":"98948","N_LCODE":"AS1","N_HOUSENUM":"50","GEOLEVEL":"CENSUSTRACT","AV_SCORE":100,"RUCA":10.5,"N_STREET":"GOLDING","AV_ALPHA":"39","TRACT00":"002400","BLOCK00":"2010","N_ADDRESS":"50 GOLDING RD","N_UNIT":"","X_COORD":-120.36865,"TYPE":"Temporary Worker Housing License","N_ZIP4":"9408","N_STATE":"WA","TRACT90":"002400","BLOCK90":"20","Y_COORDS":"46.35991","N_ZIP":"98948","AV_ZIP":"98948","BG00":"2","STATE":"WA","N_CITY":"TOPPENISH","N_POSTDIR":"","AV_DATE":"Mon Mar 31 07:38:38 2008","BG90":"3","ACCURACY":"Close","TRACT90D":"0024.003","geometry":{"type":"Point","coordinates":[-120.368647541423,46.3599062351868]},"ZIP4":"9408","N_STRSUF":"RD","Y_COORD":46.35991,"id":"a652y5ob4jms","ADDRESS":"50 Golding Rd","N_MCODE":"S00","N_PREDIR":"","SOURCE":"TIGER 2006","QUALITY":"03","TRACT00D":"0024.002","X_COORDS":"-120.36865","AV_CITY":""},{"NAME":"ZIRKLE - AZWELL ORCHARDS","CITY":"PATEROS","CERTAINTY":"4","ZCTA":"98846","AV_CO":"047","ZIP":"98846","N_LCODE":"ZB7I","N_HOUSENUM":"425","GEOLEVEL":"ZIPCODE","AV_SCORE":70,"RUCA":10.0,"N_STREET":"AZWELL","AV_ALPHA":"24","TRACT00":"970800","BLOCK00":"5010","N_ADDRESS":"425 AZWELL RD # 25","N_UNIT":"25","X_COORD":-119.9345,"TYPE":"Temporary Worker Housing License","N_ZIP4":"9614","N_STATE":"WA","TRACT90":"970800","BLOCK90":"02B","Y_COORDS":"48.05860","N_ZIP":"98846","AV_ZIP":"98846","BG00":"5","STATE":"WA","N_CITY":"PATEROS","N_POSTDIR":"","AV_DATE":"Mon Mar 31 07:38:38 2008","BG90":"5","ACCURACY":"Very Approximate","TRACT90D":"9708.005","geometry":{"type":"Point","coordinates":[-119.934502,48.0586009990468]},"ZIP4":"","N_STRSUF":"RD","Y_COORD":48.0586,"id":"a652y5b2cc29","ADDRESS":"425-25 AZWELL RD","N_MCODE":"S80","N_PREDIR":"","SOURCE":"Centrus","QUALITY":"09","TRACT00D":"9708.005","X_COORDS":"-119.93450","AV_CITY":""},{"NAME":"ZIRKLE - BEST WESTERN LAKE INN &amp; CONF CENTER","CITY":"MOSES LAKE","CERTAINTY":"1","ZCTA":"98837","AV_CO":"025","ZIP":"98837","N_LCODE":"AS1","N_HOUSENUM":"3000","GEOLEVEL":"CENSUSTRACT","AV_SCORE":100,"RUCA":4.0,"N_STREET":"MARINA","AV_ALPHA":"13","TRACT00":"981100","BLOCK00":"1000","N_ADDRESS":"3000 W MARINA DR","N_UNIT":"","X_COORD":-119.31701,"TYPE":"Temporary Worker Housing License","N_ZIP4":"2946","N_STATE":"WA","TRACT90":"981100","BLOCK90":"01A","Y_COORDS":"47.10357","N_ZIP":"98837","AV_ZIP":"98837","BG00":"1","STATE":"WA","N_CITY":"MOSES LAKE","N_POSTDIR":"","AV_DATE":"Mon Mar 31 07:38:38 2008","BG90":"1","ACCURACY":"Close","TRACT90D":"9811.001","geometry":{"type":"Point","coordinates":[-119.317009317567,47.1035729621707]},"ZIP4":"","N_STRSUF":"DR","Y_COORD":47.10357,"id":"a652y5cx49gi","ADDRESS":"3000 W MARINA DR","N_MCODE":"S80","N_PREDIR":"W","SOURCE":"TIGER 2006","QUALITY":"03","TRACT00D":"9811.001","X_COORDS":"-119.31701","AV_CITY":"MOSES LAKE"},{"NAME":"ZIRKLE - CABANA MOTEL","CITY":"OTHELLO","CERTAINTY":"1","ZCTA":"99344","AV_CO":"001","ZIP":"99344","N_LCODE":"AS1","N_HOUSENUM":"665","GEOLEVEL":"CENSUSTRACT","AV_SCORE":100,"RUCA":7.0,"N_STREET":"WINDSOR","AV_ALPHA":"01","TRACT00":"950400","BLOCK00":"2022","N_ADDRESS":"665 E WINDSOR ST","N_UNIT":"","X_COORD":-119.1656,"TYPE":"Temporary Worker Housing License","N_ZIP4":"1136","N_STATE":"WA","TRACT90":"950400","BLOCK90":"23","Y_COORDS":"46.82766","N_ZIP":"99344","AV_ZIP":"99344","BG00":"2","STATE":"WA","N_CITY":"OTHELLO","N_POSTDIR":"","AV_DATE":"Mon Mar 31 07:38:38 2008","BG90":"2","ACCURACY":"Close","TRACT90D":"9504.002","geometry":{"type":"Point","coordinates":[-119.165596814514,46.8276622681349]},"ZIP4":"","N_STRSUF":"ST","Y_COORD":46.82766,"id":"a652y5dpj1dy","ADDRESS":"665 E WINDSOR ST","N_MCODE":"S80","N_PREDIR":"E","SOURCE":"TIGER 2006","QUALITY":"03","TRACT00D":"9504.002","X_COORDS":"-119.16560","AV_CITY":"OTHELLO"},{"NAME":"ZIRKLE - CRO FRUIT COMPANY","CITY":"ROCK ISLAND","CERTAINTY":"4","ZCTA":"98850","AV_CO":"017","ZIP":"98850","N_LCODE":"ZB7I","N_HOUSENUM":"1570","GEOLEVEL":"ZIPCODE","AV_SCORE":70,"RUCA":1.0,"N_STREET":"STATE ROUTE 28","AV_ALPHA":"09","TRACT00":"950300","BLOCK00":"5057","N_ADDRESS":"1570 STATE ROUTE 28","N_UNIT":"","X_COORD":-120.0739,"TYPE":"Temporary Worker Housing License","N_ZIP4":"9713","N_STATE":"WA","TRACT90":"950200","BLOCK90":"53","Y_COORDS":"47.23540","N_ZIP":"98850","AV_ZIP":"98850","BG00":"5","STATE":"WA","N_CITY":"ROCK ISLAND","N_POSTDIR":"","AV_DATE":"Mon Mar 31 07:38:38 2008","BG90":"4","ACCURACY":"Very Approximate","TRACT90D":"9502.004","geometry":{"type":"Point","coordinates":[-120.073898,47.2354009990421]},"ZIP4":"","N_STRSUF":"","Y_COORD":47.2354,"id":"a652y5cfd8p3","ADDRESS":"1570 SR 28 - POB 190","N_MCODE":"S88","N_PREDIR":"","SOURCE":"Centrus","QUALITY":"09","TRACT00D":"9503.005","X_COORDS":"-120.07390","AV_CITY":""},{"NAME":"ZIRKLE - GOPHER","CITY":"MATTAWA","CERTAINTY":"1","ZCTA":"99349","AV_CO":"025","ZIP":"99349","N_LCODE":"AS0","N_HOUSENUM":"22069","GEOLEVEL":"CENSUSTRACT","AV_SCORE":70,"RUCA":10.0,"N_STREET":"ROAD E","AV_ALPHA":"13","TRACT00":"981400","BLOCK00":"4077","N_ADDRESS":"22069 ROAD E SW","N_UNIT":"","X_COORD":-119.6012,"TYPE":"Temporary Worker Housing License","N_ZIP4":"8297","N_STATE":"WA","TRACT90":"981400","BLOCK90":"01","Y_COORDS":"46.77184","N_ZIP":"99349","AV_ZIP":"99349","BG00":"4","STATE":"WA","N_CITY":"MATTAWA","N_POSTDIR":"SW","AV_DATE":"Mon Mar 31 07:38:38 2008","BG90":"4","ACCURACY":"Approximate","TRACT90D":"9814.004","geometry":{"type":"Point","coordinates":[-119.601196,46.7718349990586]},"ZIP4":"","N_STRSUF":"","Y_COORD":46.77184,"id":"a652y5qc83tb","ADDRESS":"22069 RD E SW","N_MCODE":"S80","N_PREDIR":"","SOURCE":"Centrus","QUALITY":"03","TRACT00D":"9814.004","X_COORDS":"-119.60120","AV_CITY":""},{"NAME":"ZIRKLE - JAW B &amp; O APARTMENTS","CITY":"OKANOGAN","CERTAINTY":"5","ZCTA":"","AV_CO":"047","ZIP":"98840","N_LCODE":"ZC5X","N_HOUSENUM":"414","GEOLEVEL":"CITY","AV_SCORE":0,"RUCA":7.0,"N_STREET":"B &amp; O","AV_ALPHA":"24","TRACT00":"970700","BLOCK00":"3002","N_ADDRESS":"414 B &amp; O RD","N_UNIT":"","X_COORD":-119.58222,"TYPE":"Temporary Worker Housing License","N_ZIP4":"","N_STATE":"WA","TRACT90":"970700","BLOCK90":"03","Y_COORDS":"48.36139","N_ZIP":"98840","AV_ZIP":"","BG00":"3","STATE":"WA","N_CITY":"OKANOGAN","N_POSTDIR":"","AV_DATE":"","BG90":"3","ACCURACY":"Very Approximate","TRACT90D":"9707.003","geometry":{"type":"Point","coordinates":[-119.58222,48.3613899990486]},"ZIP4":"","N_STRSUF":"RD","Y_COORD":48.36139,"id":"a652y5d90ykm","ADDRESS":"414 B &amp; O RD","N_MCODE":"E022","N_PREDIR":"","SOURCE":"City or Place Centroid","QUALITY":"11","TRACT00D":"9707.003","X_COORDS":"-119.58222","AV_CITY":""},{"NAME":"ZIRKLE - JAW LOUP LOUP APTS","CITY":"OKANOGAN","CERTAINTY":"3","ZCTA":"98840","AV_CO":"047","ZIP":"98840","N_LCODE":"ZT7F","N_HOUSENUM":"48","GEOLEVEL":"ZIPCODE","AV_SCORE":40,"RUCA":7.0,"N_STREET":"B AND O","AV_ALPHA":"24","TRACT00":"970700","BLOCK00":"5002","N_ADDRESS":"48 B AND O RD # B","N_UNIT":"B","X_COORD":-119.6733,"TYPE":"Temporary Worker Housing License","N_ZIP4":"8293","N_STATE":"WA","TRACT90":"970700","BLOCK90":"03","Y_COORDS":"48.31596","N_ZIP":"98840","AV_ZIP":"98840","BG00":"5","STATE":"WA","N_CITY":"OKANOGAN","N_POSTDIR":"","AV_DATE":"Mon Mar 31 07:38:38 2008","BG90":"5","ACCURACY":"Very Approximate","TRACT90D":"9707.005","geometry":{"type":"Point","coordinates":[-119.673303214,48.3159563998483]},"ZIP4":"","N_STRSUF":"RD","Y_COORD":48.31596,"id":"a652y5iii4fs","ADDRESS":"48 B AND O RD - B","N_MCODE":"S80","N_PREDIR":"","SOURCE":"Street Centroid","QUALITY":"05","TRACT00D":"9707.005","X_COORDS":"-119.67330","AV_CITY":""},{"NAME":"ZIRKLE - JAW LOUP LOUP BUNKHOUSE","CITY":"OKANOGAN","CERTAINTY":"3","ZCTA":"98840","AV_CO":"047","ZIP":"98840","N_LCODE":"ZT7F","N_HOUSENUM":"48","GEOLEVEL":"ZIPCODE","AV_SCORE":40,"RUCA":7.0,"N_STREET":"B AND O","AV_ALPHA":"24","TRACT00":"970700","BLOCK00":"5002","N_ADDRESS":"48 B AND O RD","N_UNIT":"","X_COORD":-119.6733,"TYPE":"Temporary Worker Housing License","N_ZIP4":"8293","N_STATE":"WA","TRACT90":"970700","BLOCK90":"03","Y_COORDS":"48.31596","N_ZIP":"98840","AV_ZIP":"98840","BG00":"5","STATE":"WA","N_CITY":"OKANOGAN","N_POSTDIR":"","AV_DATE":"Mon Mar 31 07:38:38 2008","BG90":"5","ACCURACY":"Very Approximate","TRACT90D":"9707.005","geometry":{"type":"Point","coordinates":[-119.673303214,48.3159563998483]},"ZIP4":"","N_STRSUF":"RD","Y_COORD":48.31596,"id":"a652y5do6u8x","ADDRESS":"48 B AND O RD","N_MCODE":"S80","N_PREDIR":"","SOURCE":"Street Centroid","QUALITY":"05","TRACT00D":"9707.005","X_COORDS":"-119.67330","AV_CITY":""},{"NAME":"ZIRKLE - JAW ROOSEVELT CABINS","CITY":"OKANOGAN","CERTAINTY":"3","ZCTA":"98840","AV_CO":"047","ZIP":"98840","N_LCODE":"ZT7F","N_HOUSENUM":"202","GEOLEVEL":"ZIPCODE","AV_SCORE":40,"RUCA":7.0,"N_STREET":"B AND O","AV_ALPHA":"24","TRACT00":"970700","BLOCK00":"5002","N_ADDRESS":"202 B AND O RD","N_UNIT":"","X_COORD":-119.6733,"TYPE":"Temporary Worker Housing License","N_ZIP4":"8262","N_STATE":"WA","TRACT90":"970700","BLOCK90":"03","Y_COORDS":"48.31596","N_ZIP":"98840","AV_ZIP":"98840","BG00":"5","STATE":"WA","N_CITY":"OKANOGAN","N_POSTDIR":"","AV_DATE":"Mon Mar 31 07:38:38 2008","BG90":"5","ACCURACY":"Very Approximate","TRACT90D":"9707.005","geometry":{"type":"Point","coordinates":[-119.673303214,48.3159563998483]},"ZIP4":"","N_STRSUF":"RD","Y_COORD":48.31596,"id":"a652y5e1x6hv","ADDRESS":"202 B&amp;O RD","N_MCODE":"S88","N_PREDIR":"","SOURCE":"Street Centroid","QUALITY":"05","TRACT00D":"9707.005","X_COORDS":"-119.67330","AV_CITY":""},{"NAME":"ZIRKLE - JAW TRAILER PARK","CITY":"OKANOGAN","CERTAINTY":"3","ZCTA":"98840","AV_CO":"047","ZIP":"98840","N_LCODE":"ZT7F","N_HOUSENUM":"378","GEOLEVEL":"ZIPCODE","AV_SCORE":40,"RUCA":7.0,"N_STREET":"B AND O","AV_ALPHA":"24","TRACT00":"970700","BLOCK00":"5002","N_ADDRESS":"378 B AND O RD","N_UNIT":"","X_COORD":-119.6733,"TYPE":"Temporary Worker Housing License","N_ZIP4":"8276","N_STATE":"WA","TRACT90":"970700","BLOCK90":"03","Y_COORDS":"48.31596","N_ZIP":"98840","AV_ZIP":"98840","BG00":"5","STATE":"WA","N_CITY":"OKANOGAN","N_POSTDIR":"","AV_DATE":"Mon Mar 31 07:38:38 2008","BG90":"5","ACCURACY":"Very Approximate","TRACT90D":"9707.005","geometry":{"type":"Point","coordinates":[-119.673303214,48.3159563998483]},"ZIP4":"","N_STRSUF":"RD","Y_COORD":48.31596,"id":"a652y5oqz8ac","ADDRESS":"378 B AND O RD","N_MCODE":"S80","N_PREDIR":"","SOURCE":"Street Centroid","QUALITY":"05","TRACT00D":"9707.005","X_COORDS":"-119.67330","AV_CITY":""},{"NAME":"ZIRKLE - ROYAL SLOPE RANCH","CITY":"ROYAL CITY","CERTAINTY":"1","ZCTA":"99357","AV_CO":"025","ZIP":"99357","N_LCODE":"AS1","N_HOUSENUM":"16740","GEOLEVEL":"CENSUSTRACT","AV_SCORE":60,"RUCA":10.0,"N_STREET":"ROAD 9","AV_ALPHA":"13","TRACT00":"981400","BLOCK00":"1012","N_ADDRESS":"16740 ROAD 9 SW","N_UNIT":"","X_COORD":-119.85184,"TYPE":"Temporary Worker Housing License","N_ZIP4":"9401","N_STATE":"WA","TRACT90":"981400","BLOCK90":"16","Y_COORDS":"46.95797","N_ZIP":"99357","AV_ZIP":"99357","BG00":"1","STATE":"WA","N_CITY":"ROYAL CITY","N_POSTDIR":"SW","AV_DATE":"Mon Mar 31 07:38:38 2008","BG90":"1","ACCURACY":"Approximate","TRACT90D":"9814.001","geometry":{"type":"Point","coordinates":[-119.851839269005,46.9579678815151]},"ZIP4":"","N_STRSUF":"","Y_COORD":46.95797,"id":"a652y5bxx8bh","ADDRESS":"16740 RD 9 SW","N_MCODE":"S80","N_PREDIR":"","SOURCE":"GDT 1000","QUALITY":"03","TRACT00D":"9814.001","X_COORDS":"-119.85184","AV_CITY":""},{"NAME":"ZIRKLE - SOARING EAGLE 6","CITY":"MATTAWA","CERTAINTY":"1","ZCTA":"99349","AV_CO":"025","ZIP":"99542","N_LCODE":"AS1","N_HOUSENUM":"19475","GEOLEVEL":"CENSUSTRACT","AV_SCORE":60,"RUCA":10.0,"N_STREET":"ROAD 26","AV_ALPHA":"13","TRACT00":"981400","BLOCK00":"4227","N_ADDRESS":"19475 ROAD 26 SW","N_UNIT":"","X_COORD":-119.90598,"TYPE":"Temporary Worker Housing License","N_ZIP4":"","N_STATE":"WA","TRACT90":"981400","BLOCK90":"62C","Y_COORDS":"46.70776","N_ZIP":"99349","AV_ZIP":"99349","BG00":"4","STATE":"WA","N_CITY":"MATTAWA","N_POSTDIR":"SW","AV_DATE":"Mon Mar 31 07:38:38 2008","BG90":"4","ACCURACY":"Approximate","TRACT90D":"9814.004","geometry":{"type":"Point","coordinates":[-119.905982653374,46.7077589571685]},"ZIP4":"","N_STRSUF":"","Y_COORD":46.70776,"id":"a652y5jzdec6","ADDRESS":"19475 RD 26 SW","N_MCODE":"T90","N_PREDIR":"","SOURCE":"GDT 1000","QUALITY":"03","TRACT00D":"9814.004","X_COORDS":"-119.90598","AV_CITY":""},{"NAME":"ZIRKLE - SUN COUNTRY INN","CITY":"YAKIMA","CERTAINTY":"1","ZCTA":"98901","AV_CO":"077","ZIP":"98901","N_LCODE":"AS1","N_HOUSENUM":"1700","GEOLEVEL":"CENSUSTRACT","AV_SCORE":100,"RUCA":1.0,"N_STREET":"1ST","AV_ALPHA":"39","TRACT00":"000200","BLOCK00":"1012","N_ADDRESS":"1700 N 1ST ST","N_UNIT":"","X_COORD":-120.51247,"TYPE":"Temporary Worker Housing License","N_ZIP4":"1730","N_STATE":"WA","TRACT90":"000200","BLOCK90":"01B","Y_COORDS":"46.62242","N_ZIP":"98901","AV_ZIP":"98901","BG00":"1","STATE":"WA","N_CITY":"YAKIMA","N_POSTDIR":"","AV_DATE":"Mon Mar 31 07:38:38 2008","BG90":"2","ACCURACY":"Close","TRACT90D":"0002.002","geometry":{"type":"Point","coordinates":[-120.512472825397,46.6224247318678]},"ZIP4":"","N_STRSUF":"ST","Y_COORD":46.62242,"id":"a652y5qe01gj","ADDRESS":"1700 N 1ST ST","N_MCODE":"S80","N_PREDIR":"N","SOURCE":"TIGER 2006","QUALITY":"03","TRACT00D":"0002.001","X_COORDS":"-120.51247","AV_CITY":"YAKIMA"},{"NAME":"Zirkle - Hata Ranch 1","CITY":"Wapato","CERTAINTY":"1","ZCTA":"98951","AV_CO":"077","ZIP":"98951","N_LCODE":"AS1","N_HOUSENUM":"1291","GEOLEVEL":"CENSUSTRACT","AV_SCORE":100,"RUCA":2.0,"N_STREET":"PROGRESSIVE","AV_ALPHA":"39","TRACT00":"002600","BLOCK00":"2020","N_ADDRESS":"1291 PROGRESSIVE RD","N_UNIT":"","X_COORD":-120.42538,"TYPE":"Temporary Worker Housing License","N_ZIP4":"9500","N_STATE":"WA","TRACT90":"002600","BLOCK90":"21","Y_COORDS":"46.41930","N_ZIP":"98951","AV_ZIP":"98951","BG00":"2","STATE":"WA","N_CITY":"WAPATO","N_POSTDIR":"","AV_DATE":"Mon Mar 31 07:38:38 2008","BG90":"2","ACCURACY":"Close","TRACT90D":"0026.002","geometry":{"type":"Point","coordinates":[-120.425379697066,46.4193032160021]},"ZIP4":"9500","N_STRSUF":"RD","Y_COORD":46.4193,"id":"a652y5gpio0o","ADDRESS":"1291 Progressive Rd","N_MCODE":"S00","N_PREDIR":"","SOURCE":"TIGER 2006","QUALITY":"03","TRACT00D":"0026.002","X_COORDS":"-120.42538","AV_CITY":""},{"NAME":"Zirkle - JAW Cloverdale","CITY":"Malott","CERTAINTY":"5","ZCTA":"","AV_CO":"047","ZIP":"98829","N_LCODE":"ZC5X","N_HOUSENUM":"226","GEOLEVEL":"CITY","AV_SCORE":0,"RUCA":7.0,"N_STREET":"B AND O","AV_ALPHA":"24","TRACT00":"970700","BLOCK00":"5031","N_ADDRESS":"226 B AND O RD","N_UNIT":"","X_COORD":-119.70556,"TYPE":"Temporary Worker Housing License","N_ZIP4":"","N_STATE":"WA","TRACT90":"970700","BLOCK90":"33","Y_COORDS":"48.28278","N_ZIP":"98829","AV_ZIP":"","BG00":"5","STATE":"WA","N_CITY":"MALOTT","N_POSTDIR":"","AV_DATE":"","BG90":"5","ACCURACY":"Very Approximate","TRACT90D":"9707.005","geometry":{"type":"Point","coordinates":[-119.70556,48.2827799990481]},"ZIP4":"","N_STRSUF":"RD","Y_COORD":48.28278,"id":"a652y5l6vzbw","ADDRESS":"226 B AND O RD","N_MCODE":"E024","N_PREDIR":"","SOURCE":"City or Place Centroid","QUALITY":"11","TRACT00D":"9707.005","X_COORDS":"-119.70556","AV_CITY":""},{"NAME":"Zirkle - Mesa Apts","CITY":"Yakima","CERTAINTY":"1","ZCTA":"98901","AV_CO":"077","ZIP":"98901","N_LCODE":"AS1","N_HOUSENUM":"1705","GEOLEVEL":"CENSUSTRACT","AV_SCORE":100,"RUCA":1.0,"N_STREET":"GORDON","AV_ALPHA":"39","TRACT00":"000200","BLOCK00":"1012","N_ADDRESS":"1705 GORDON RD","N_UNIT":"","X_COORD":-120.51432,"TYPE":"Temporary Worker Housing License","N_ZIP4":"1768","N_STATE":"WA","TRACT90":"000200","BLOCK90":"01B","Y_COORDS":"46.62340","N_ZIP":"98901","AV_ZIP":"98901","BG00":"1","STATE":"WA","N_CITY":"YAKIMA","N_POSTDIR":"","AV_DATE":"Mon Mar 31 07:38:38 2008","BG90":"2","ACCURACY":"Close","TRACT90D":"0002.002","geometry":{"type":"Point","coordinates":[-120.514324469473,46.6234021464083]},"ZIP4":"1768","N_STRSUF":"RD","Y_COORD":46.6234,"id":"a652y5gsgjr8","ADDRESS":"1705 Gordon Rd","N_MCODE":"S00","N_PREDIR":"","SOURCE":"TIGER 2006","QUALITY":"03","TRACT00D":"0002.001","X_COORDS":"-120.51432","AV_CITY":"YAKIMA"}],"geometry_types":["point"],"unique_name":null,"name":"Washington State Department of Health, Farmworker Housing, Washington, 2008","feature_count":180,"state":"complete","published":"2008-03-31T12:00:00Z","description":"Abstract:\n    Locations of licensed temporary farmworker housing facilities. These include cherry harvest and migrant camps. \nPurpose:\n    This dataset was made as part of a project to map Washington's Health System.","stats":{"CERTAINTY":{"max": null, "min": null, "median": null},"ZCTA":{"max": null, "min": null, "median": null},"AV_SCORE":{"max": 100, "mean": 74.6611111111111, "variance": 1112.02417752949, "stdev": 33.3470265170597, "min": 0, "median": 100},"RUCA":{"max": 10.6, "mean": 6.00833333333333, "variance": 14.4687011173184, "stdev": 3.80377458813196, "min": 1.0, "median": 7.0},"BLOCK00":{"max": null, "min": null, "median": null},"X_COORD":{"max": -119.01399, "mean": -120.421531611111, "variance": 1.21094363171191, "stdev": 1.10042883991284, "min": -122.79341, "median": -120.10298},"N_ZIP4":{"max": null, "min": null, "median": null},"Y_COORDS":{"max": null, "min": null, "median": null},"N_ZIP":{"max": null, "min": null, "median": null},"AV_ZIP":{"max": null, "min": null, "median": null},"BG00":{"max": null, "min": null, "median": null},"BG90":{"max": null, "min": null, "median": null},"TRACT90D":{"max": null, "min": null, "median": null},"ZIP4":{"max": null, "min": null, "median": null},"Y_COORD":{"max": 48.99384, "mean": 47.4356326111111, "variance": 0.836100154433927, "stdev": 0.914385123694566, "min": 45.71842, "median": 47.48694},"TRACT00D":{"max": null, "min": null, "median": null},"X_COORDS":{"max": null, "min": null, "median": null}},"next_feature":null,"is_raster":false,"pagination":{"sort":null,"start":0,"limit":1000000,"total":180},"short_classification":"Y","is_temporal":false,"author":{"metadata":"http://ww4.doh.wa.gov/gis/metadata/farmworker_housing.htm","url":"http://ww4.doh.wa.gov/gis/gisdata.htm","contact_name":"","contact_address":"","source":"Washington State Department of Health","contact_phone":""},"source":"http://ww4.doh.wa.gov/gis/gisdata.htm","data_type":"Dataset","permissions":[{"group_id":"everyone","permissions":{"download":true,"view":true}}],"classification":null,"tags":"agriculture,farms,health,medicine,washington","id":3270}