{"type":"FeatureCollection","data_type":"Dataset","url_type":null,"permissions":[{"permissions":{"download":true,"view":true},"group_id":"everyone"}],"classification":null,"title":"test_2","count":8,"stream_id":327494,"contributor":{"url":"http://geocommons.com/users/47904","name":"IOM_ROAP"},"data_attributes":null,"calculation_params":null,"icon_link":null,"link":"http://geocommons.com/overlays/327494.json","extent":[73.0853,6.89967,105.81,33.7307],"geometry_types":["point"],"unique_name":null,"name":"test_2","feature_count":8,"description":"","next_feature":null,"is_raster":false,"short_classification":"Y","stats":{"h3":{"max":1,"variance":0.0,"mean":1.0,"stdev":0.0,"min":1,"median":1},"latitude":{"max":33.730693,"variance":79.0437922350017,"mean":19.40352225,"stdev":8.89065758169786,"min":6.899672,"median":21.029622},"number of projects":{"max":5,"variance":2.55357142857143,"mean":2.375,"stdev":1.59798980865694,"min":0,"median":2},"longitude":{"max":105.809863,"variance":142.834538531757,"mean":92.012952875,"stdev":11.9513404491612,"min":73.08526,"median":96.158566}},"features":[{"properties":{"city":"Yangon","h3":null,"latitude":16.779315,"column_10":null,"column_7":null,"country":"Myanmar","column_8":null,"number of projects":4,"column_9":null,"longitude":96.158566,"id":"acmkxfe3d78x"},"type":"Feature","geometry":{"type":"Point","coordinates":[96.158566,16.779315]}},{"properties":{"city":"Phnom Penh","h3":null,"latitude":11.56278,"column_10":null,"column_7":null,"country":"Cambodia","column_8":null,"number of projects":2,"column_9":null,"longitude":104.916687,"id":"acmkxfcvdnos"},"type":"Feature","geometry":{"type":"Point","coordinates":[104.916687,11.56278]}},{"properties":{"city":"Bangkok","h3":1,"latitude":13.721579,"column_10":null,"column_7":null,"country":"Thailand","column_8":null,"number of projects":5,"column_9":null,"longitude":100.529628,"id":"acmkxfk8zn9i"},"type":"Feature","geometry":{"type":"Point","coordinates":[100.529628,13.721579]}},{"properties":{"city":"Hanoi","h3":null,"latitude":21.029622,"column_10":null,"column_7":null,"country":"Vietnam","column_8":null,"number of projects":3,"column_9":null,"longitude":105.809863,"id":"acmkxf9jxuee"},"type":"Feature","geometry":{"type":"Point","coordinates":[105.809863,21.029622]}},{"properties":{"city":"Dhaka","h3":null,"latitude":23.779042,"column_10":null,"column_7":null,"country":"Bangladesh","column_8":null,"number of projects":2,"column_9":null,"longitude":90.417738,"id":"acmkxf7dkz3d"},"type":"Feature","geometry":{"type":"Point","coordinates":[90.417738,23.779042]}},{"properties":{"city":"Kathmandu","h3":null,"latitude":27.725475,"column_10":null,"column_7":null,"country":"Nepal","column_8":null,"number of projects":2,"column_9":null,"longitude":85.33021,"id":"acmkxflt8vmc"},"type":"Feature","geometry":{"type":"Point","coordinates":[85.33021,27.725475]}},{"properties":{"city":"Colombo","h3":1,"latitude":6.899672,"column_10":null,"column_7":null,"country":"Sri Lanka","column_8":null,"number of projects":0,"column_9":null,"longitude":79.855671,"id":"acmkxfcza4g1"},"type":"Feature","geometry":{"type":"Point","coordinates":[79.855671,6.899672]}},{"properties":{"city":"Islamabad","h3":null,"latitude":33.730693,"column_10":null,"column_7":null,"country":"Pakistan","column_8":null,"number of projects":1,"column_9":null,"longitude":73.08526,"id":"acmkxfhm55j1"},"type":"Feature","geometry":{"type":"Point","coordinates":[73.08526,33.730693]}}],"is_temporal":false,"author":{"url":"","metadata":null,"contact_name":null,"contact_address":null,"source":null,"contact_phone":null},"source":"","pagination":{"sort":null,"start":0,"total":8,"limit":1000000},"state":"complete","tags":"","published":"2014-08-16T22:15:23-04:00","id":327494}