{"type":"FeatureCollection","data_type":"Dataset","url_type":null,"permissions":[{"permissions":{"download":true,"view":true},"group_id":"everyone"}],"classification":null,"title":"\ndelwedd's places\n","count":28,"stream_id":32765,"contributor":{"url":"http://geocommons.com/users/11444","name":"platial"},"data_attributes":null,"calculation_params":null,"icon_link":null,"link":"http://geocommons.com/overlays/32765.json","extent":[-4.27943,51.4998,-0.075788,53.3968],"geometry_types":["point"],"unique_name":null,"name":"\ndelwedd's places\n","feature_count":28,"description":"\nA Map by Delwedd\n\n\n","next_feature":null,"is_raster":false,"short_classification":"Y","stats":{},"features":[{"properties":{"name":null,"description":"Posted by Delwedd<a title=\"Built for Community Mapping\" href=\"http://www.platial.com\"><img src=\"http://media.geocommons.com/platial/images/logotype_small.jpg\"></a>","id":"a68y5hfjcm6h"},"type":"Feature","geometry":{"type":"Point","coordinates":[-4.26338,53.13719]}},{"properties":{"name":null,"description":"Posted by Delwedd<a title=\"Built for Community Mapping\" href=\"http://www.platial.com\"><img src=\"http://media.geocommons.com/platial/images/logotype_small.jpg\"></a>","id":"a68y5hor84pd"},"type":"Feature","geometry":{"type":"Point","coordinates":[-4.26338,53.13719]}},{"properties":{"name":null,"description":"Posted by Delwedd<a title=\"Built for Community Mapping\" href=\"http://www.platial.com\"><img src=\"http://media.geocommons.com/platial/images/logotype_small.jpg\"></a>","id":"a68y5hg11fc2"},"type":"Feature","geometry":{"type":"Point","coordinates":[-4.26338,53.13719]}},{"properties":{"name":null,"description":"Posted by DelweddSegontiwm/Segontium<a title=\"Built for Community Mapping\" href=\"http://www.platial.com\"><img src=\"http://media.geocommons.com/platial/images/logotype_small.jpg\"></a>","id":"a68y5hqq9mq1"},"type":"Feature","geometry":{"type":"Point","coordinates":[-4.26338,53.13719]}},{"properties":{"name":null,"description":"Posted by Delwedd<a title=\"Built for Community Mapping\" href=\"http://www.platial.com\"><img src=\"http://media.geocommons.com/platial/images/logotype_small.jpg\"></a>","id":"a68y5hlcwpae"},"type":"Feature","geometry":{"type":"Point","coordinates":[-4.26338,53.13719]}},{"properties":{"name":null,"description":"Posted by Delwedd<a title=\"Built for Community Mapping\" href=\"http://www.platial.com\"><img src=\"http://media.geocommons.com/platial/images/logotype_small.jpg\"></a>","id":"a68y5hdeipaf"},"type":"Feature","geometry":{"type":"Point","coordinates":[-4.26338,53.13719]}},{"properties":{"name":"Beaumaris Castle","description":"Posted by DelweddLL58 8AP<a title=\"Built for Community Mapping\" href=\"http://www.platial.com\"><img src=\"http://media.geocommons.com/platial/images/logotype_small.jpg\"></a>","id":"a68y5hjbzy03"},"type":"Feature","geometry":{"type":"Point","coordinates":[-4.091526,53.263409]}},{"properties":{"name":"Chirck Castle","description":"Posted by DelweddLL14 5AF<a title=\"Built for Community Mapping\" href=\"http://www.platial.com\"><img src=\"http://media.geocommons.com/platial/images/logotype_small.jpg\"></a>","id":"a68y5hnrtzes"},"type":"Feature","geometry":{"type":"Point","coordinates":[-3.089715,52.935358]}},{"properties":{"name":"David Llod George Museum","description":"Posted by Delwedd<img src=\"http://media.geocommons.com/platial/images/categories/ICON_culture_verD.gif\"> LL52 0SH<a title=\"Built for Community Mapping\" href=\"http://www.platial.com\"><img src=\"http://media.geocommons.com/platial/images/logotype_small.jpg\"></a>","id":"a68y5hlpglz7"},"type":"Feature","geometry":{"type":"Point","coordinates":[-4.269642,52.921605]}},{"properties":{"name":"Doc Fictoria/Victoria Dock","description":"Posted by Delwedd<img src=\"http://media.geocommons.com/platial/img/2007/06/0/p1000103001.jpg\"><img src=\"http://media.geocommons.com/platial/img/2007/06/0/p1000104001.jpg\"><img src=\"http://media.geocommons.com/platial/img/2007/06/0/532971561_7f60a185b2_o.jpg\"><a title=\"Built for Community Mapping\" href=\"http://www.platial.com\"><img src=\"http://media.geocommons.com/platial/images/logotype_small.jpg\"></a>","id":"a68y5hc0el8b"},"type":"Feature","geometry":{"type":"Point","coordinates":[-4.27754,53.14229]}},{"properties":{"name":"Eirias Park","description":"Posted by Delwedd<img src=\"http://media.geocommons.com/platial/images/categories/ICON_nature_verD.gif\"> LL29 7SP<a title=\"Built for Community Mapping\" href=\"http://www.platial.com\"><img src=\"http://media.geocommons.com/platial/images/logotype_small.jpg\"></a>","id":"a68y5hez0tmb"},"type":"Feature","geometry":{"type":"Point","coordinates":[-3.718331,53.290751]}},{"properties":{"name":"Galeri/Pretoria Terr.","description":"Posted by Delwedd<img src=\"http://media.geocommons.com/platial/img/2007/06/0/p1000113001_2_.jpg\"><img src=\"http://media.geocommons.com/platial/img/2007/06/0/p1000109001.jpg\">Galeri<a title=\"Built for Community Mapping\" href=\"http://www.platial.com\"><img src=\"http://media.geocommons.com/platial/images/logotype_small.jpg\"></a>","id":"a68y5hp3nsgg"},"type":"Feature","geometry":{"type":"Point","coordinates":[-4.27497,53.14336]}},{"properties":{"name":"Holywell Gates","description":"Posted by DelweddCH8 7TJ<a title=\"Built for Community Mapping\" href=\"http://www.platial.com\"><img src=\"http://media.geocommons.com/platial/images/logotype_small.jpg\"></a>","id":"a68y5hhkqhnb"},"type":"Feature","geometry":{"type":"Point","coordinates":[-3.22137,53.273971]}},{"properties":{"name":"Liverpool Cathedral","description":"Posted by DelweddSt James Mount, Liverpool<a title=\"Built for Community Mapping\" href=\"http://www.platial.com\"><img src=\"http://media.geocommons.com/platial/images/logotype_small.jpg\"></a>","id":"a68y5hg57mpy"},"type":"Feature","geometry":{"type":"Point","coordinates":[-2.979053,53.396793]}},{"properties":{"name":"Llys/Court","description":"Posted by Delwedd<img src=\"http://media.geocommons.com/platial/img/2007/06/0/p1000056001.jpg\"><a title=\"Built for Community Mapping\" href=\"http://www.platial.com\"><img src=\"http://media.geocommons.com/platial/images/logotype_small.jpg\"></a>","id":"a68y5hpf69v1"},"type":"Feature","geometry":{"type":"Point","coordinates":[-4.27775,53.13969]}},{"properties":{"name":"Merton College, Oxford","description":"Posted by Delwedd<a title=\"Built for Community Mapping\" href=\"http://www.platial.com\"><img src=\"http://media.geocommons.com/platial/images/logotype_small.jpg\"></a>","id":"a68y5hi0afkg"},"type":"Feature","geometry":{"type":"Point","coordinates":[-1.251197,51.750972]}},{"properties":{"name":"Plas Newydd","description":"Posted by DelweddLlangollen LL20 8AW<a title=\"Built for Community Mapping\" href=\"http://www.platial.com\"><img src=\"http://media.geocommons.com/platial/images/logotype_small.jpg\"></a>","id":"a68y5hi1cff9"},"type":"Feature","geometry":{"type":"Point","coordinates":[-3.164743,52.964421]}},{"properties":{"name":"Pont yr Aber ~ Aber Foreshore","description":"Posted by Delwedd<img src=\"http://media.geocommons.com/platial/img/2007/06/0/532970775_7ea7d80333_o.jpg\">Pont yr Aber ~ Aber Foreshore<a title=\"Built for Community Mapping\" href=\"http://www.platial.com\"><img src=\"http://media.geocommons.com/platial/images/logotype_small.jpg\"></a>","id":"a68y5hn9lwb6"},"type":"Feature","geometry":{"type":"Point","coordinates":[-4.27943,53.13897]}},{"properties":{"name":"Segontiwm/Segontium","description":"Posted by Delwedd<img src=\"http://media.geocommons.com/platial/img/2007/06/2/569957248_d7d294b7d3_o.jpg\"><img src=\"http://media.geocommons.com/platial/img/2007/06/2/569957248_d7d294b7d3_o.jpg\"><a title=\"Built for Community Mapping\" href=\"http://www.platial.com\"><img src=\"http://media.geocommons.com/platial/images/logotype_small.jpg\"></a>","id":"a68y5hjdq2gd"},"type":"Feature","geometry":{"type":"Point","coordinates":[-4.26338,53.13719]}},{"properties":{"name":"Stryd yr Eglwys/Church Street","description":"Posted by Delwedd<img src=\"http://media.geocommons.com/platial/img/2007/06/0/532971401_13cc15899a_o.jpg\"><img src=\"http://media.geocommons.com/platial/img/2007/06/0/532971483_800690ab3c_o.jpg\"><a title=\"Built for Community Mapping\" href=\"http://www.platial.com\"><img src=\"http://media.geocommons.com/platial/images/logotype_small.jpg\"></a>","id":"a68y5hnf0ugs"},"type":"Feature","geometry":{"type":"Point","coordinates":[-4.27763,53.14187]}},{"properties":{"name":"Swyddfa Cyngor Gwynedd Council Offices","description":"Posted by Delwedd<img src=\"http://media.geocommons.com/platial/img/2007/06/0/p1000054001.jpg\"><img src=\"http://media.geocommons.com/platial/img/2007/06/0/p1000053001.jpg\"><a title=\"Built for Community Mapping\" href=\"http://www.platial.com\"><img src=\"http://media.geocommons.com/platial/images/logotype_small.jpg\"></a>","id":"a68y5hi5dv8b"},"type":"Feature","geometry":{"type":"Point","coordinates":[-4.27664,53.13982]}},{"properties":{"name":"Swyddfa Harbourmasters Office","description":"Posted by Delwedd<img src=\"http://media.geocommons.com/platial/img/2007/06/0/532875922_be25fa8f5d_o.jpg\"><a title=\"Built for Community Mapping\" href=\"http://www.platial.com\"><img src=\"http://media.geocommons.com/platial/images/logotype_small.jpg\"></a>","id":"a68y5hk1irve"},"type":"Feature","geometry":{"type":"Point","coordinates":[-4.27512,53.13882]}},{"properties":{"name":"Tower of London","description":"Posted by Delwedd<a title=\"Built for Community Mapping\" href=\"http://www.platial.com\"><img src=\"http://media.geocommons.com/platial/images/logotype_small.jpg\"></a>","id":"a68y5hsb0hry"},"type":"Feature","geometry":{"type":"Point","coordinates":[-0.075788,51.507995]}},{"properties":{"name":"Twll yn y Wal/Hole in the Wall St","description":"Posted by Delwedd<img src=\"http://media.geocommons.com/platial/img/2007/06/0/532971221_d0647baa26_o.jpg\"><a title=\"Built for Community Mapping\" href=\"http://www.platial.com\"><img src=\"http://media.geocommons.com/platial/images/logotype_small.jpg\"></a>","id":"a68y5hjpqi7w"},"type":"Feature","geometry":{"type":"Point","coordinates":[-4.27555,53.1403]}},{"properties":{"name":"Welsh Highland Railway","description":"Posted by DelweddLL55 2PB<a title=\"Built for Community Mapping\" href=\"http://www.platial.com\"><img src=\"http://media.geocommons.com/platial/images/logotype_small.jpg\"></a>","id":"a68y5hh4egqo"},"type":"Feature","geometry":{"type":"Point","coordinates":[-4.275002,53.138669]}},{"properties":{"name":"Westminster Area","description":"Posted by DelweddPalace of Westminster<a title=\"Built for Community Mapping\" href=\"http://www.platial.com\"><img src=\"http://media.geocommons.com/platial/images/logotype_small.jpg\"></a>","id":"a68y5hkxa5fv"},"type":"Feature","geometry":{"type":"Point","coordinates":[-0.12616,51.499767]}},{"properties":{"name":"Y Cei/The Quay","description":"Posted by Delwedd<img src=\"http://media.geocommons.com/platial/img/2007/06/0/532970895_8518a41860_o.jpg\"><a title=\"Built for Community Mapping\" href=\"http://www.platial.com\"><img src=\"http://media.geocommons.com/platial/images/logotype_small.jpg\"></a>","id":"a68y5hqd91xz"},"type":"Feature","geometry":{"type":"Point","coordinates":[-4.27613,53.13879]}},{"properties":{"name":"Y Maes/Castle Square","description":"Posted by Delwedd<img src=\"http://media.geocommons.com/platial/img/2007/06/0/532876064_f71e6c28ac_o.jpg\"><a title=\"Built for Community Mapping\" href=\"http://www.platial.com\"><img src=\"http://media.geocommons.com/platial/images/logotype_small.jpg\"></a>","id":"a68y5hct0ojs"},"type":"Feature","geometry":{"type":"Point","coordinates":[-4.27489,53.13956]}}],"is_temporal":false,"author":{"url":"http://www.platial.com/map/246171","metadata":null,"contact_name":"delwedd","contact_address":null,"source":"platial:delwedd","contact_phone":null},"source":"http://www.platial.com/map/246171","pagination":{"sort":null,"start":0,"total":28,"limit":1000000},"state":"complete","tags":"platial,platial:id=246171,platial:user=delwedd","published":"2010-03-04T17:00:00Z","id":32765}