{"type":"FeatureCollection","data_type":"Dataset","url_type":null,"permissions":[{"permissions":{"download":true,"view":true},"group_id":"everyone"}],"classification":null,"title":"\nPassioneMOBILE\n","count":25,"stream_id":32822,"contributor":{"url":"http://geocommons.com/users/11444","name":"platial"},"data_attributes":null,"calculation_params":null,"icon_link":null,"link":"http://geocommons.com/overlays/32822.json","extent":[-79.6379,-57.3265,35.5078,59.4115],"geometry_types":["point"],"unique_name":null,"name":"\nPassioneMOBILE\n","feature_count":25,"description":"\nA Map by Passionemobile\n\n\n","next_feature":null,"is_raster":false,"short_classification":"Y","stats":{},"features":[{"properties":{"name":null,"description":"Posted by Passionemobile<a title=\"Built for Community Mapping\" href=\"http://www.platial.com\"><img src=\"http://media.geocommons.com/platial/images/logotype_small.jpg\"></a>","id":"a6cktsora6un"},"type":"Feature","geometry":{"type":"Point","coordinates":[9.66797,44.65302]}},{"properties":{"name":null,"description":"Posted by Passionemobile<a title=\"Built for Community Mapping\" href=\"http://www.platial.com\"><img src=\"http://media.geocommons.com/platial/images/logotype_small.jpg\"></a>","id":"a6cktspjcotw"},"type":"Feature","geometry":{"type":"Point","coordinates":[13.71094,37.0201]}},{"properties":{"name":null,"description":"Posted by Passionemobile<a title=\"Built for Community Mapping\" href=\"http://www.platial.com\"><img src=\"http://media.geocommons.com/platial/images/logotype_small.jpg\"></a>","id":"a6cktsh5tgri"},"type":"Feature","geometry":{"type":"Point","coordinates":[35.50781,31.80289]}},{"properties":{"name":null,"description":"Posted by Passionemobile<a title=\"Built for Community Mapping\" href=\"http://www.platial.com\"><img src=\"http://media.geocommons.com/platial/images/logotype_small.jpg\"></a>","id":"a6cktsf4922w"},"type":"Feature","geometry":{"type":"Point","coordinates":[16.52344,40.04444]}},{"properties":{"name":null,"description":"Posted by Passionemobile<a title=\"Built for Community Mapping\" href=\"http://www.platial.com\"><img src=\"http://media.geocommons.com/platial/images/logotype_small.jpg\"></a>","id":"a6cktsjzuads"},"type":"Feature","geometry":{"type":"Point","coordinates":[35.50781,31.80289]}},{"properties":{"name":null,"description":"Posted by Passionemobile<a title=\"Built for Community Mapping\" href=\"http://www.platial.com\"><img src=\"http://media.geocommons.com/platial/images/logotype_small.jpg\"></a>","id":"a6cktslzjvlk"},"type":"Feature","geometry":{"type":"Point","coordinates":[13.88672,42.03297]}},{"properties":{"name":null,"description":"Posted by Passionemobile<a title=\"Built for Community Mapping\" href=\"http://www.platial.com\"><img src=\"http://media.geocommons.com/platial/images/logotype_small.jpg\"></a>","id":"a6cktss85epd"},"type":"Feature","geometry":{"type":"Point","coordinates":[9.66797,44.65302]}},{"properties":{"name":null,"description":"Posted by Passionemobile<a title=\"Built for Community Mapping\" href=\"http://www.platial.com\"><img src=\"http://media.geocommons.com/platial/images/logotype_small.jpg\"></a>","id":"a6cktsddp5if"},"type":"Feature","geometry":{"type":"Point","coordinates":[12.45927,45.6195]}},{"properties":{"name":null,"description":"Posted by Passionemobile<a title=\"Built for Community Mapping\" href=\"http://www.platial.com\"><img src=\"http://media.geocommons.com/platial/images/logotype_small.jpg\"></a>","id":"a6cktsr0jxnt"},"type":"Feature","geometry":{"type":"Point","coordinates":[9.87946,45.65773]}},{"properties":{"name":null,"description":"Posted by Passionemobile<a title=\"Built for Community Mapping\" href=\"http://www.platial.com\"><img src=\"http://media.geocommons.com/platial/images/logotype_small.jpg\"></a>","id":"a6cktshnvtnz"},"type":"Feature","geometry":{"type":"Point","coordinates":[27.77344,44.21371]}},{"properties":{"name":null,"description":"Posted by Passionemobile<a title=\"Built for Community Mapping\" href=\"http://www.platial.com\"><img src=\"http://media.geocommons.com/platial/images/logotype_small.jpg\"></a>","id":"a6cktspzktip"},"type":"Feature","geometry":{"type":"Point","coordinates":[-0.13184,51.28941]}},{"properties":{"name":null,"description":"Posted by Passionemobile<a title=\"Built for Community Mapping\" href=\"http://www.platial.com\"><img src=\"http://media.geocommons.com/platial/images/logotype_small.jpg\"></a>","id":"a6cktsjtcil2"},"type":"Feature","geometry":{"type":"Point","coordinates":[7.29492,44.65302]}},{"properties":{"name":null,"description":"Posted by Passionemobilepassione mobile reader <a title=\"Built for Community Mapping\" href=\"http://www.platial.com\"><img src=\"http://media.geocommons.com/platial/images/logotype_small.jpg\"></a>","id":"a6cktsju3pec"},"type":"Feature","geometry":{"type":"Point","coordinates":[10.92453,43.8669]}},{"properties":{"name":null,"description":"Posted by Passionemobile<a title=\"Built for Community Mapping\" href=\"http://www.platial.com\"><img src=\"http://media.geocommons.com/platial/images/logotype_small.jpg\"></a>","id":"a6cktshg8udj"},"type":"Feature","geometry":{"type":"Point","coordinates":[17.8418,58.95001]}},{"properties":{"name":null,"description":"Posted by Passionemobile<a title=\"Built for Community Mapping\" href=\"http://www.platial.com\"><img src=\"http://media.geocommons.com/platial/images/logotype_small.jpg\"></a>","id":"a6cktsoogfbr"},"type":"Feature","geometry":{"type":"Point","coordinates":[17.75391,59.41155]}},{"properties":{"name":"3GSM World","description":"Posted by Passionemobile<img src=\"http://static.flickr.com/46/109731679_373bb1451b_o.jpg\"><a title=\"Built for Community Mapping\" href=\"http://www.platial.com\"><img src=\"http://media.geocommons.com/platial/images/logotype_small.jpg\"></a>","id":"a6cktsqa7a1k"},"type":"Feature","geometry":{"type":"Point","coordinates":[-0.87891,40.11169]}},{"properties":{"name":"Milano SMAU 2007","description":"Posted by Passionemobile<a title=\"Built for Community Mapping\" href=\"http://www.platial.com\"><img src=\"http://media.geocommons.com/platial/images/logotype_small.jpg\"></a>","id":"a6cktske8nqo"},"type":"Feature","geometry":{"type":"Point","coordinates":[9.49219,45.52174]}},{"properties":{"name":"Title","description":"Posted by System<a title=\"Built for Community Mapping\" href=\"http://www.platial.com\"><img src=\"http://media.geocommons.com/platial/images/logotype_small.jpg\"></a>","id":"a6cktsplxjnt"},"type":"Feature","geometry":{"type":"Point","coordinates":[-79.6378755569,39.2111913424]}},{"properties":{"name":"Title","description":"Posted by Passionemobile<a title=\"Built for Community Mapping\" href=\"http://www.platial.com\"><img src=\"http://media.geocommons.com/platial/images/logotype_small.jpg\"></a>","id":"a6cktsggoh4f"},"type":"Feature","geometry":{"type":"Point","coordinates":[-22.5,-57.3265212252]}},{"properties":{"name":"Title","description":"Posted by Passionemobile<a title=\"Built for Community Mapping\" href=\"http://www.platial.com\"><img src=\"http://media.geocommons.com/platial/images/logotype_small.jpg\"></a>","id":"a6cktsra0hsi"},"type":"Feature","geometry":{"type":"Point","coordinates":[13.7109375,41.1124687892]}},{"properties":{"name":"Title or search term","description":"Posted by SystemLocation<a title=\"Built for Community Mapping\" href=\"http://www.platial.com\"><img src=\"http://media.geocommons.com/platial/images/logotype_small.jpg\"></a>","id":"a6cktspo4he1"},"type":"Feature","geometry":{"type":"Point","coordinates":[-79.63722,39.21389]}},{"properties":{"name":"Title or search term","description":"Posted by PassionemobileLocation<a title=\"Built for Community Mapping\" href=\"http://www.platial.com\"><img src=\"http://media.geocommons.com/platial/images/logotype_small.jpg\"></a>","id":"a6cktsgb9whw"},"type":"Feature","geometry":{"type":"Point","coordinates":[-79.63722,39.21389]}},{"properties":{"name":"Title or search term","description":"Posted by SystemLocation<a title=\"Built for Community Mapping\" href=\"http://www.platial.com\"><img src=\"http://media.geocommons.com/platial/images/logotype_small.jpg\"></a>","id":"a6cktshi2etj"},"type":"Feature","geometry":{"type":"Point","coordinates":[-79.63722,39.21389]}},{"properties":{"name":"moldova","description":"Posted by Passionemobilechisinau<a title=\"Built for Community Mapping\" href=\"http://www.platial.com\"><img src=\"http://media.geocommons.com/platial/images/logotype_small.jpg\"></a>","id":"a6cktsndobxb"},"type":"Feature","geometry":{"type":"Point","coordinates":[28.829999,47.029998]}},{"properties":{"name":"via centro","description":"Posted by Passionemobilesoave verona<a title=\"Built for Community Mapping\" href=\"http://www.platial.com\"><img src=\"http://media.geocommons.com/platial/images/logotype_small.jpg\"></a>","id":"a6cktsrimps1"},"type":"Feature","geometry":{"type":"Point","coordinates":[11.247667,45.422037]}}],"is_temporal":false,"author":{"url":"http://www.platial.com/map/15453","metadata":null,"contact_name":"passionemobile","contact_address":null,"source":"platial:passionemobile","contact_phone":null},"source":"http://www.platial.com/map/15453","pagination":{"sort":null,"start":0,"total":25,"limit":1000000},"state":"complete","tags":"platial,platial:id=15453,platial:user=passionemobile","published":"2010-03-04T17:00:00Z","id":32822}