{"type":"FeatureCollection","data_type":"Dataset","url_type":null,"permissions":[{"permissions":{"download":true,"view":true},"group_id":"everyone"}],"classification":null,"title":"NPS History Sites 2012 visits","count":220,"stream_id":343438,"contributor":{"url":"http://geocommons.com/users/68942","name":"AHAhistorians"},"data_attributes":null,"calculation_params":null,"icon_link":null,"link":"http://geocommons.com/overlays/343438.json","extent":[-157.954,13.3,144.667,59.4564],"geometry_types":["point"],"unique_name":null,"name":"NPS History Sites 2012 visits","feature_count":220,"description":"This dataset includes the total number of visitors in 2012 to National Park Service sites that have a historical focus. Visitor data from https://irma.nps.gov/Stats/Reports/ReportList","next_feature":null,"is_raster":false,"short_classification":"Y","stats":{"latitude":{"max":59.4564,"variance":35.2554848621725,"mean":37.689729173364,"stdev":5.93763293427376,"min":13.3,"median":38.82163546},"longitude":{"max":144.6669,"variance":602.511168996092,"mean":-89.0976233629493,"stdev":24.5461029288988,"min":-157.9543,"median":-82.81189845},"visitors in 2012":{"max":6191361,"variance":906244671776.661,"mean":471034.804545455,"stdev":951968.839708874,"min":0,"median":120025}},"features":[{"properties":{"name":"Abraham Lincoln Birthplace NHP","latitude":37.5303,"square miles":"0.182812","longitude":-85.7259,"id":"adia01ebpngn","visitors in 2012":169515},"type":"Feature","geometry":{"type":"Point","coordinates":[-85.7259,37.5303]}},{"properties":{"name":"Adams NHP","latitude":42.25644496,"square miles":null,"longitude":-71.01134146,"id":"adia01l83hix","visitors in 2012":336031},"type":"Feature","geometry":{"type":"Point","coordinates":[-71.01134146,42.25644496]}},{"properties":{"name":"African Burial Ground NM","latitude":40.71444,"square miles":null,"longitude":-74.00417,"id":"adia0185n1lw","visitors in 2012":77624},"type":"Feature","geometry":{"type":"Point","coordinates":[-74.00417,40.71444]}},{"properties":{"name":"Allegheny Portage Railroad NHS","latitude":40.41076546,"square miles":"1.936","longitude":-78.65497845,"id":"adia01jhcsh9","visitors in 2012":138864},"type":"Feature","geometry":{"type":"Point","coordinates":[-78.65497845,40.41076546]}},{"properties":{"name":"Andersonville NHS","latitude":32.19827896,"square miles":"0.74548","longitude":-84.13094295,"id":"adia01b4qbgx","visitors in 2012":122883},"type":"Feature","geometry":{"type":"Point","coordinates":[-84.13094295,32.19827896]}},{"properties":{"name":"Andrew Johnson NHS","latitude":36.15830596,"square miles":"0.02522","longitude":-82.83417795,"id":"adia01ewmd3n","visitors in 2012":51261},"type":"Feature","geometry":{"type":"Point","coordinates":[-82.83417795,36.15830596]}},{"properties":{"name":"Antietam NB","latitude":39.45127996,"square miles":"5.05623","longitude":-77.68898145,"id":"adia01fhed3e","visitors in 2012":510921},"type":"Feature","geometry":{"type":"Point","coordinates":[-77.68898145,39.45127996]}},{"properties":{"name":"Appomattox Court House NHP","latitude":37.39242646,"square miles":"2.77416","longitude":-78.79213395,"id":"adia01mbimc3","visitors in 2012":320668},"type":"Feature","geometry":{"type":"Point","coordinates":[-78.79213395,37.39242646]}},{"properties":{"name":"Arkansas Post NMEM","latitude":34.01884846,"square miles":"0.65961","longitude":-91.34685945,"id":"adia01dlfqdu","visitors in 2012":39703},"type":"Feature","geometry":{"type":"Point","coordinates":[-91.34685945,34.01884846]}},{"properties":{"name":"Arlington House The R.E. Lee MEM","latitude":38.88206596,"square miles":"0.0325","longitude":-77.07467295,"id":"adia01affbwz","visitors in 2012":562772},"type":"Feature","geometry":{"type":"Point","coordinates":[-77.07467295,38.88206596]}},{"properties":{"name":"Aztec Ruins NM","latitude":36.83549746,"square miles":"0.5008","longitude":-108.000815,"id":"adia016tzpsn","visitors in 2012":44744},"type":"Feature","geometry":{"type":"Point","coordinates":[-108.000815,36.83549746]}},{"properties":{"name":"Bandelier NM","latitude":35.78479696,"square miles":"51.42542","longitude":-106.3170275,"id":"adia016lhqd5","visitors in 2012":150289},"type":"Feature","geometry":{"type":"Point","coordinates":[-106.3170275,35.78479696]}},{"properties":{"name":"Bent's Old Fort NHS","latitude":38.03846896,"square miles":"1.2525","longitude":-103.4262275,"id":"adia01c4dp3u","visitors in 2012":25815},"type":"Feature","geometry":{"type":"Point","coordinates":[-103.4262275,38.03846896]}},{"properties":{"name":"Big Hole NB","latitude":45.64625896,"square miles":"1.04878","longitude":-113.6512175,"id":"adia018u4dd4","visitors in 2012":35207},"type":"Feature","geometry":{"type":"Point","coordinates":[-113.6512175,45.64625896]}},{"properties":{"name":"Booker T. Washington NM","latitude":37.11484396,"square miles":"0.35317","longitude":-79.73197695,"id":"adia01d7px4k","visitors in 2012":24361},"type":"Feature","geometry":{"type":"Point","coordinates":[-79.73197695,37.11484396]}},{"properties":{"name":"Boston African American NHS","latitude":42.35856346,"square miles":"0.16329","longitude":-71.06722245,"id":"adia01gc2p38","visitors in 2012":404248},"type":"Feature","geometry":{"type":"Point","coordinates":[-71.06722245,42.35856346]}},{"properties":{"name":"Boston NHP","latitude":42.35589946,"square miles":"0.22989","longitude":-71.05305195,"id":"adia01ibm2gm","visitors in 2012":2629064},"type":"Feature","geometry":{"type":"Point","coordinates":[-71.05305195,42.35589946]}},{"properties":{"name":"Brown v. Board of Education NHS","latitude":39.0381,"square miles":null,"longitude":-95.6764,"id":"adia01km1wis","visitors in 2012":21101},"type":"Feature","geometry":{"type":"Point","coordinates":[-95.6764,39.0381]}},{"properties":{"name":"Cabrillo NM","latitude":32.67211096,"square miles":"0.21669","longitude":-117.2413715,"id":"adia01c2cc65","visitors in 2012":877951},"type":"Feature","geometry":{"type":"Point","coordinates":[-117.2413715,32.67211096]}},{"properties":{"name":"Cane River Creole NHP","latitude":31.66697,"square miles":null,"longitude":-93.001499,"id":"adia01e7zqn7","visitors in 2012":28310},"type":"Feature","geometry":{"type":"Point","coordinates":[-93.001499,31.66697]}},{"properties":{"name":"Canyon de Chelly NM","latitude":36.14316346,"square miles":"144.76744","longitude":-109.3394885,"id":"adia01i13kvv","visitors in 2012":828523},"type":"Feature","geometry":{"type":"Point","coordinates":[-109.3394885,36.14316346]}},{"properties":{"name":"Carl Sandburg Home NHS","latitude":35.26800796,"square miles":"0.42398","longitude":-82.45241595,"id":"adia01i23t9w","visitors in 2012":93429},"type":"Feature","geometry":{"type":"Point","coordinates":[-82.45241595,35.26800796]}},{"properties":{"name":"Casa Grande Ruins NM","latitude":32.9942,"square miles":null,"longitude":-111.5381,"id":"adia017ak54d","visitors in 2012":68631},"type":"Feature","geometry":{"type":"Point","coordinates":[-111.5381,32.9942]}},{"properties":{"name":"Castillo de San Marcos NM","latitude":29.89763596,"square miles":"0.03537","longitude":-81.31640445,"id":"adia016rbrts","visitors in 2012":727243},"type":"Feature","geometry":{"type":"Point","coordinates":[-81.31640445,29.89763596]}},{"properties":{"name":"Castle Clinton NM","latitude":40.7034,"square miles":null,"longitude":-74.0168,"id":"adia017lc18a","visitors in 2012":3264439},"type":"Feature","geometry":{"type":"Point","coordinates":[-74.0168,40.7034]}},{"properties":{"name":"Chaco Culture NHP","latitude":35.87828896,"square miles":"54.35555","longitude":-107.889449,"id":"adia01aeff2o","visitors in 2012":39044},"type":"Feature","geometry":{"type":"Point","coordinates":[-107.889449,35.87828896]}},{"properties":{"name":"Chamizal NMEM","latitude":31.76708896,"square miles":"0.07703","longitude":-106.454516,"id":"adia01dqtjw1","visitors in 2012":104148},"type":"Feature","geometry":{"type":"Point","coordinates":[-106.454516,31.76708896]}},{"properties":{"name":"Charles Pinckney NHS","latitude":32.84300296,"square miles":"0.04499","longitude":-79.82466345,"id":"adia01a3yy9i","visitors in 2012":44314},"type":"Feature","geometry":{"type":"Point","coordinates":[-79.82466345,32.84300296]}},{"properties":{"name":"Chesapeake &amp; Ohio Canal NHP","latitude":39.30044896,"square miles":"31.87426","longitude":-77.91586245,"id":"adia017dlp12","visitors in 2012":4712377},"type":"Feature","geometry":{"type":"Point","coordinates":[-77.91586245,39.30044896]}},{"properties":{"name":"Christiansted NHS","latitude":17.7489,"square miles":null,"longitude":-64.7023,"id":"adia01dehnfs","visitors in 2012":126962},"type":"Feature","geometry":{"type":"Point","coordinates":[-64.7023,17.7489]}},{"properties":{"name":"Clara Barton NHS","latitude":38.9676,"square miles":null,"longitude":-77.1411,"id":"adia01eyl078","visitors in 2012":25347},"type":"Feature","geometry":{"type":"Point","coordinates":[-77.1411,38.9676]}},{"properties":{"name":"Colonial NHP","latitude":37.24466446,"square miles":"14.86119","longitude":-76.65889095,"id":"adia01dllf3m","visitors in 2012":3274187},"type":"Feature","geometry":{"type":"Point","coordinates":[-76.65889095,37.24466446]}},{"properties":{"name":"Coronado NMEM","latitude":39.04920946,"square miles":"31.90097","longitude":-108.6892565,"id":"adia0182675o","visitors in 2012":97579},"type":"Feature","geometry":{"type":"Point","coordinates":[-108.6892565,39.04920946]}},{"properties":{"name":"Cowpens NB","latitude":35.13237796,"square miles":"1.33128","longitude":-81.80814645,"id":"adia0185by8n","visitors in 2012":231973},"type":"Feature","geometry":{"type":"Point","coordinates":[-81.80814645,35.13237796]}},{"properties":{"name":"Cumberland Gap NHP","latitude":36.62196346,"square miles":"31.89042","longitude":-83.56380345,"id":"adia01l3v6lz","visitors in 2012":853998},"type":"Feature","geometry":{"type":"Point","coordinates":[-83.56380345,36.62196346]}},{"properties":{"name":"Dayton Aviation Heritage NHP","latitude":39.7947,"square miles":null,"longitude":-84.0889,"id":"adia01bv14kx","visitors in 2012":65999},"type":"Feature","geometry":{"type":"Point","coordinates":[-84.0889,39.7947]}},{"properties":{"name":"De Soto NMEM","latitude":27.5239,"square miles":null,"longitude":-82.6427,"id":"adia01bcm1ar","visitors in 2012":432981},"type":"Feature","geometry":{"type":"Point","coordinates":[-82.6427,27.5239]}},{"properties":{"name":"Dry Tortugas NP","latitude":24.63872446,"square miles":"107.67469","longitude":-82.87349895,"id":"adia01h70vpk","visitors in 2012":60550},"type":"Feature","geometry":{"type":"Point","coordinates":[-82.87349895,24.63872446]}},{"properties":{"name":"Edgar Allan Poe NHS","latitude":39.96195796,"square miles":"0.0042","longitude":-75.15051795,"id":"adia01gq7806","visitors in 2012":19104},"type":"Feature","geometry":{"type":"Point","coordinates":[-75.15051795,39.96195796]}},{"properties":{"name":"Effigy Mounds NM","latitude":39.96195796,"square miles":"0.0042","longitude":-75.15051795,"id":"adia01m2gk7j","visitors in 2012":78540},"type":"Feature","geometry":{"type":"Point","coordinates":[-75.15051795,39.96195796]}},{"properties":{"name":"Eisenhower NHS","latitude":39.79647496,"square miles":"1.0931","longitude":-77.26775895,"id":"adia01hhj9e5","visitors in 2012":53286},"type":"Feature","geometry":{"type":"Point","coordinates":[-77.26775895,39.79647496]}},{"properties":{"name":"El Morro NM","latitude":35.03900746,"square miles":"1.61922","longitude":-108.3463835,"id":"adia01h1j6fx","visitors in 2012":44808},"type":"Feature","geometry":{"type":"Point","coordinates":[-108.3463835,35.03900746]}},{"properties":{"name":"Eleanor Roosevelt NHS","latitude":41.76100396,"square miles":"0.275","longitude":-73.90069695,"id":"adia016lnu3t","visitors in 2012":55049},"type":"Feature","geometry":{"type":"Point","coordinates":[-73.90069695,41.76100396]}},{"properties":{"name":"Eugene O'Neill NHS","latitude":37.82643346,"square miles":"0.02114","longitude":-122.02673,"id":"adia01lhvd0i","visitors in 2012":2789},"type":"Feature","geometry":{"type":"Point","coordinates":[-122.02673,37.82643346]}},{"properties":{"name":"Federal Hall NMEM","latitude":40.7071,"square miles":null,"longitude":-74.0107,"id":"adia01l5a015","visitors in 2012":167146},"type":"Feature","geometry":{"type":"Point","coordinates":[-74.0107,40.7071]}},{"properties":{"name":"First Ladies NHS","latitude":40.7967,"square miles":null,"longitude":-81.3753,"id":"adia01kpgya4","visitors in 2012":9903},"type":"Feature","geometry":{"type":"Point","coordinates":[-81.3753,40.7967]}},{"properties":{"name":"Flight 93 NMEM","latitude":40.0508,"square miles":null,"longitude":-78.9036,"id":"adia01kz4n36","visitors in 2012":317926},"type":"Feature","geometry":{"type":"Point","coordinates":[-78.9036,40.0508]}},{"properties":{"name":"Ford's Theatre NHS","latitude":38.896506,"square miles":null,"longitude":-77.025399,"id":"adia01jnp57u","visitors in 2012":701542},"type":"Feature","geometry":{"type":"Point","coordinates":[-77.025399,38.896506]}},{"properties":{"name":"Fort Bowie NHS","latitude":32.14932796,"square miles":"1.57268","longitude":-109.4576855,"id":"adia0169lhxq","visitors in 2012":7966},"type":"Feature","geometry":{"type":"Point","coordinates":[-109.4576855,32.14932796]}},{"properties":{"name":"Fort Caroline NMEM","latitude":30.38481946,"square miles":"0.198","longitude":-81.49648095,"id":"adia016kna5s","visitors in 2012":327339},"type":"Feature","geometry":{"type":"Point","coordinates":[-81.49648095,30.38481946]}},{"properties":{"name":"Fort Davis NHS","latitude":30.60005896,"square miles":"0.71514","longitude":-103.8959465,"id":"adia01dwbkyw","visitors in 2012":38136},"type":"Feature","geometry":{"type":"Point","coordinates":[-103.8959465,30.60005896]}},{"properties":{"name":"Fort Donelson NB","latitude":36.48715246,"square miles":"0.83051","longitude":-87.85246545,"id":"adia018tgpgk","visitors in 2012":284762},"type":"Feature","geometry":{"type":"Point","coordinates":[-87.85246545,36.48715246]}},{"properties":{"name":"Fort Frederica NM","latitude":31.19248396,"square miles":"0.42863","longitude":-81.39027645,"id":"adia01gavq83","visitors in 2012":262235},"type":"Feature","geometry":{"type":"Point","coordinates":[-81.39027645,31.19248396]}},{"properties":{"name":"Fort Laramie NHS","latitude":42.20340346,"square miles":"1.34362","longitude":-104.546588,"id":"adia0179wzr6","visitors in 2012":55199},"type":"Feature","geometry":{"type":"Point","coordinates":[-104.546588,42.20340346]}},{"properties":{"name":"Fort Larned NHS","latitude":38.15491996,"square miles":"1.10061","longitude":-99.22307445,"id":"adia01gszybv","visitors in 2012":33194},"type":"Feature","geometry":{"type":"Point","coordinates":[-99.22307445,38.15491996]}},{"properties":{"name":"Fort Matanzas NM","latitude":29.71000846,"square miles":"0.46589","longitude":-81.23632245,"id":"adia016lia8j","visitors in 2012":497574},"type":"Feature","geometry":{"type":"Point","coordinates":[-81.23632245,29.71000846]}},{"properties":{"name":"Fort McHenry NM &amp; HS","latitude":39.26365246,"square miles":"0.06903","longitude":-76.58086095,"id":"adia01g3b487","visitors in 2012":744076},"type":"Feature","geometry":{"type":"Point","coordinates":[-76.58086095,39.26365246]}},{"properties":{"name":"Fort Necessity NB","latitude":39.83545846,"square miles":"1.47509","longitude":-79.61385645,"id":"adia01dm9vyc","visitors in 2012":187893},"type":"Feature","geometry":{"type":"Point","coordinates":[-79.61385645,39.83545846]}},{"properties":{"name":"Fort Point NHS","latitude":37.80855496,"square miles":"0.03798","longitude":-122.4735485,"id":"adia01h2xwyq","visitors in 2012":1502786},"type":"Feature","geometry":{"type":"Point","coordinates":[-122.4735485,37.80855496]}},{"properties":{"name":"Fort Pulaski NM","latitude":32.03244496,"square miles":"8.66065","longitude":-80.94208095,"id":"adia01kjllqm","visitors in 2012":385751},"type":"Feature","geometry":{"type":"Point","coordinates":[-80.94208095,32.03244496]}},{"properties":{"name":"Fort Raleigh NHS","latitude":35.93552896,"square miles":"0.24637","longitude":-75.71403045,"id":"adia01b9nvit","visitors in 2012":281833},"type":"Feature","geometry":{"type":"Point","coordinates":[-75.71403045,35.93552896]}},{"properties":{"name":"Fort Scott NHS","latitude":37.84345696,"square miles":"0.0283","longitude":-94.70445795,"id":"adia016uir7y","visitors in 2012":25034},"type":"Feature","geometry":{"type":"Point","coordinates":[-94.70445795,37.84345696]}},{"properties":{"name":"Fort Smith NHS","latitude":35.38807246,"square miles":"0.11783","longitude":-94.43871045,"id":"adia01ieuuq6","visitors in 2012":87386},"type":"Feature","geometry":{"type":"Point","coordinates":[-94.43871045,35.38807246]}},{"properties":{"name":"Fort Stanwix NM","latitude":43.21044946,"square miles":"0.02568","longitude":-75.45555945,"id":"adia016yad31","visitors in 2012":195057},"type":"Feature","geometry":{"type":"Point","coordinates":[-75.45555945,43.21044946]}},{"properties":{"name":"Fort Sumter NM","latitude":32.74983046,"square miles":"0.02535","longitude":-79.87649895,"id":"adia01hzg00w","visitors in 2012":842027},"type":"Feature","geometry":{"type":"Point","coordinates":[-79.87649895,32.74983046]}},{"properties":{"name":"Fort Union NM","latitude":35.90726896,"square miles":"1.08556","longitude":-105.0187235,"id":"adia01efowm3","visitors in 2012":9215},"type":"Feature","geometry":{"type":"Point","coordinates":[-105.0187235,35.90726896]}},{"properties":{"name":"Fort Union Trading Post NHS","latitude":47.99931796,"square miles":"0.69254","longitude":-104.0388665,"id":"adia01cgvyut","visitors in 2012":12677},"type":"Feature","geometry":{"type":"Point","coordinates":[-104.0388665,47.99931796]}},{"properties":{"name":"Fort Vancouver NHS","latitude":45.62289496,"square miles":"0.34382","longitude":-122.662724,"id":"adia01e14eru","visitors in 2012":681404},"type":"Feature","geometry":{"type":"Point","coordinates":[-122.662724,45.62289496]}},{"properties":{"name":"Fort Washington Park","latitude":38.71083,"square miles":null,"longitude":-77.02917,"id":"adia01gzaj14","visitors in 2012":368824},"type":"Feature","geometry":{"type":"Point","coordinates":[-77.02917,38.71083]}},{"properties":{"name":"Franklin Delano Roosevelt MEM","latitude":38.8839,"square miles":null,"longitude":-77.0444,"id":"adia01kfg8rs","visitors in 2012":2764459},"type":"Feature","geometry":{"type":"Point","coordinates":[-77.0444,38.8839]}},{"properties":{"name":"Frederick Douglass NHS","latitude":38.8641,"square miles":null,"longitude":-76.9856,"id":"adia01gjj5jx","visitors in 2012":53314},"type":"Feature","geometry":{"type":"Point","coordinates":[-76.9856,38.8641]}},{"properties":{"name":"Frederick Law Olmsted NHS","latitude":42.325,"square miles":null,"longitude":-71.1322,"id":"adia01m1xh9h","visitors in 2012":8668},"type":"Feature","geometry":{"type":"Point","coordinates":[-71.1322,42.325]}},{"properties":{"name":"Fredericksburg &amp; Spotsylvania NMP","latitude":38.2931,"square miles":null,"longitude":-77.4692,"id":"adia01bokv0i","visitors in 2012":982324},"type":"Feature","geometry":{"type":"Point","coordinates":[-77.4692,38.2931]}},{"properties":{"name":"Friendship Hill NHS","latitude":39.77331346,"square miles":"1.02972","longitude":-79.92349695,"id":"adia01c12btg","visitors in 2012":34289},"type":"Feature","geometry":{"type":"Point","coordinates":[-79.92349695,39.77331346]}},{"properties":{"name":"General Grant NMEM","latitude":40.8126,"square miles":null,"longitude":-73.963,"id":"adia01axxqhf","visitors in 2012":92418},"type":"Feature","geometry":{"type":"Point","coordinates":[-73.963,40.8126]}},{"properties":{"name":"George Rogers Clark NHP","latitude":38.67916096,"square miles":"0.0415","longitude":-87.53551695,"id":"adia01fsqtzt","visitors in 2012":125972},"type":"Feature","geometry":{"type":"Point","coordinates":[-87.53551695,38.67916096]}},{"properties":{"name":"George Washington Birthplace NM","latitude":38.19196846,"square miles":"0.89348","longitude":-76.92014745,"id":"adia01ma25st","visitors in 2012":134824},"type":"Feature","geometry":{"type":"Point","coordinates":[-76.92014745,38.19196846]}},{"properties":{"name":"George Washington Carver NM","latitude":37.01056996,"square miles":"2.00837","longitude":-94.39815195,"id":"adia01gkdsoa","visitors in 2012":30425},"type":"Feature","geometry":{"type":"Point","coordinates":[-94.39815195,37.01056996]}},{"properties":{"name":"Gettysburg NMP","latitude":39.81553696,"square miles":"9.23695","longitude":-77.22034695,"id":"adia01a9d8a3","visitors in 2012":1126577},"type":"Feature","geometry":{"type":"Point","coordinates":[-77.22034695,39.81553696]}},{"properties":{"name":"Gila Cliff Dwellings NM","latitude":33.22681246,"square miles":"0.82257","longitude":-108.2574725,"id":"adia01j3w8n8","visitors in 2012":28637},"type":"Feature","geometry":{"type":"Point","coordinates":[-108.2574725,33.22681246]}},{"properties":{"name":"Golden Spike NHS","latitude":41.61677896,"square miles":"4.16775","longitude":-112.542305,"id":"adia01enl5b6","visitors in 2012":42551},"type":"Feature","geometry":{"type":"Point","coordinates":[-112.542305,41.61677896]}},{"properties":{"name":"Governors Island NM","latitude":40.6916667,"square miles":null,"longitude":-74.0175,"id":"adia01g3ag02","visitors in 2012":348249},"type":"Feature","geometry":{"type":"Point","coordinates":[-74.0175,40.6916667]}},{"properties":{"name":"Grand Portage NM","latitude":47.91065896,"square miles":"145.86435","longitude":-89.98339995,"id":"adia01f1m3q5","visitors in 2012":93156},"type":"Feature","geometry":{"type":"Point","coordinates":[-89.98339995,47.91065896]}},{"properties":{"name":"Grant-Kohrs Ranch NHS","latitude":46.41844996,"square miles":"2.50138","longitude":-112.7472125,"id":"adia01j2ahvn","visitors in 2012":17095},"type":"Feature","geometry":{"type":"Point","coordinates":[-112.7472125,46.41844996]}},{"properties":{"name":"Guilford Courthouse NMP","latitude":36.13220146,"square miles":"0.3364","longitude":-79.84093995,"id":"adia01hfrumw","visitors in 2012":313374},"type":"Feature","geometry":{"type":"Point","coordinates":[-79.84093995,36.13220146]}},{"properties":{"name":"Hamilton Grange NMEM","latitude":40.8224,"square miles":null,"longitude":-73.9483,"id":"adia01bnj5jh","visitors in 2012":16358},"type":"Feature","geometry":{"type":"Point","coordinates":[-73.9483,40.8224]}},{"properties":{"name":"Hampton NHS","latitude":39.41820496,"square miles":"0.09793","longitude":-76.58819145,"id":"adia01glil0c","visitors in 2012":37529},"type":"Feature","geometry":{"type":"Point","coordinates":[-76.58819145,39.41820496]}},{"properties":{"name":"Harpers Ferry NHP","latitude":39.32276446,"square miles":"3.62031","longitude":-77.71885245,"id":"adia01d805ch","visitors in 2012":263105},"type":"Feature","geometry":{"type":"Point","coordinates":[-77.71885245,39.32276446]}},{"properties":{"name":"Harry S Truman NHS","latitude":39.09374596,"square miles":"0.00468","longitude":-94.42311795,"id":"adia01h6mcc6","visitors in 2012":31316},"type":"Feature","geometry":{"type":"Point","coordinates":[-94.42311795,39.09374596]}},{"properties":{"name":"Herbert Hoover NHS","latitude":41.66792596,"square miles":"0.29738","longitude":-91.35164295,"id":"adia01gng26v","visitors in 2012":128812},"type":"Feature","geometry":{"type":"Point","coordinates":[-91.35164295,41.66792596]}},{"properties":{"name":"Home of Franklin D. Roosevelt NHS","latitude":41.76637696,"square miles":"0.45115","longitude":-73.93849245,"id":"adia019x1fih","visitors in 2012":135746},"type":"Feature","geometry":{"type":"Point","coordinates":[-73.93849245,41.76637696]}},{"properties":{"name":"Homestead NM of America","latitude":40.28881996,"square miles":"0.30454","longitude":-96.83482995,"id":"adia016e4nqt","visitors in 2012":103708},"type":"Feature","geometry":{"type":"Point","coordinates":[-96.83482995,40.28881996]}},{"properties":{"name":"Hopewell Culture NHP","latitude":39.31068646,"square miles":"1.74387","longitude":-83.07048195,"id":"adia017hatfb","visitors in 2012":39462},"type":"Feature","geometry":{"type":"Point","coordinates":[-83.07048195,39.31068646]}},{"properties":{"name":"Hopewell Furnace NHS","latitude":40.20480946,"square miles":"1.39616","longitude":-75.76632945,"id":"adia01cwd5nc","visitors in 2012":52870},"type":"Feature","geometry":{"type":"Point","coordinates":[-75.76632945,40.20480946]}},{"properties":{"name":"Horseshoe Bend NMP","latitude":32.97421846,"square miles":"3.20417","longitude":-85.73168745,"id":"adia018zrpy5","visitors in 2012":58668},"type":"Feature","geometry":{"type":"Point","coordinates":[-85.73168745,32.97421846]}},{"properties":{"name":"Hovenweep NM","latitude":37.4432,"square miles":null,"longitude":-108.983,"id":"adia01a06j8d","visitors in 2012":26710},"type":"Feature","geometry":{"type":"Point","coordinates":[-108.983,37.4432]}},{"properties":{"name":"Hubbell Trading Post NHS","latitude":35.70723046,"square miles":"0.25286","longitude":-109.5598355,"id":"adia01jf4r96","visitors in 2012":75061},"type":"Feature","geometry":{"type":"Point","coordinates":[-109.5598355,35.70723046]}},{"properties":{"name":"Independence NHP","latitude":39.95055046,"square miles":"0.08165","longitude":-75.14921295,"id":"adia01jxuwi6","visitors in 2012":3594549},"type":"Feature","geometry":{"type":"Point","coordinates":[-75.14921295,39.95055046]}},{"properties":{"name":"James A. Garfield NHS","latitude":41.66504596,"square miles":"0.01402","longitude":-81.35094645,"id":"adia01jcov8u","visitors in 2012":36375},"type":"Feature","geometry":{"type":"Point","coordinates":[-81.35094645,41.66504596]}},{"properties":{"name":"Jean Lafitte NHP &amp; PRES","latitude":30.11725846,"square miles":"29.04749","longitude":-91.16599995,"id":"adia01meo8ws","visitors in 2012":419694},"type":"Feature","geometry":{"type":"Point","coordinates":[-91.16599995,30.11725846]}},{"properties":{"name":"Jefferson National Expansion Memorial","latitude":38.6246,"square miles":null,"longitude":-90.185,"id":"adia01dr8vgs","visitors in 2012":2496726},"type":"Feature","geometry":{"type":"Point","coordinates":[-90.185,38.6246]}},{"properties":{"name":"Jimmy Carter NHS","latitude":32.03127946,"square miles":"0.13703","longitude":-84.41448795,"id":"adia01e29mem","visitors in 2012":69940},"type":"Feature","geometry":{"type":"Point","coordinates":[-84.41448795,32.03127946]}},{"properties":{"name":"John F. Kennedy NHS","latitude":42.34649446,"square miles":"0.00151","longitude":-71.12340945,"id":"adia01edp8cq","visitors in 2012":22642},"type":"Feature","geometry":{"type":"Point","coordinates":[-71.12340945,42.34649446]}},{"properties":{"name":"John Muir NHS","latitude":37.98391546,"square miles":"0.51322","longitude":-122.133011,"id":"adia0188d5hi","visitors in 2012":37403},"type":"Feature","geometry":{"type":"Point","coordinates":[-122.133011,37.98391546]}},{"properties":{"name":"Johnstown Flood NMEM","latitude":40.34598796,"square miles":"0.26835","longitude":-78.77462445,"id":"adia01e30ebc","visitors in 2012":123081},"type":"Feature","geometry":{"type":"Point","coordinates":[-78.77462445,40.34598796]}},{"properties":{"name":"Kalaupapa NHP","latitude":21.17300446,"square miles":"16.75599","longitude":-156.956387,"id":"adia01htdqaj","visitors in 2012":58875},"type":"Feature","geometry":{"type":"Point","coordinates":[-156.956387,21.17300446]}},{"properties":{"name":"Kaloko Honokohau NHP","latitude":19.67967946,"square miles":"1.99014","longitude":-156.031142,"id":"adia01fafckm","visitors in 2012":153584},"type":"Feature","geometry":{"type":"Point","coordinates":[-156.031142,19.67967946]}},{"properties":{"name":"Kennesaw Mountain NBP","latitude":33.94939996,"square miles":"4.51434","longitude":-84.58873695,"id":"adia01erck04","visitors in 2012":1935909},"type":"Feature","geometry":{"type":"Point","coordinates":[-84.58873695,33.94939996]}},{"properties":{"name":"Kings Mountain NMP","latitude":35.12866996,"square miles":"18.2131","longitude":-81.36201195,"id":"adia01l1r6j0","visitors in 2012":265713},"type":"Feature","geometry":{"type":"Point","coordinates":[-81.36201195,35.12866996]}},{"properties":{"name":"Klondike Gold Rush NHP Alaska","latitude":59.4564,"square miles":null,"longitude":-135.3117,"id":"adia019livic","visitors in 2012":854250},"type":"Feature","geometry":{"type":"Point","coordinates":[-135.3117,59.4564]}},{"properties":{"name":"Klondike Gold Rush NHP Seattle","latitude":47.599318,"square miles":null,"longitude":-122.331811,"id":"adia01gg6bl1","visitors in 2012":60198},"type":"Feature","geometry":{"type":"Point","coordinates":[-122.331811,47.599318]}},{"properties":{"name":"Knife River Indian Villages NHS","latitude":47.35374346,"square miles":"2.74654","longitude":-101.383799,"id":"adia01d43cgm","visitors in 2012":16010},"type":"Feature","geometry":{"type":"Point","coordinates":[-101.383799,47.35374346]}},{"properties":{"name":"Korean War Veterans Memorial","latitude":38.8878,"square miles":null,"longitude":-77.0472,"id":"adia01e3vc7n","visitors in 2012":3267124},"type":"Feature","geometry":{"type":"Point","coordinates":[-77.0472,38.8878]}},{"properties":{"name":"LBJ Memorial Grove on the Potomac","latitude":38.882348,"square miles":null,"longitude":-77.058921,"id":"adia019otc39","visitors in 2012":371063},"type":"Feature","geometry":{"type":"Point","coordinates":[-77.058921,38.882348]}},{"properties":{"name":"Lewis &amp; Clark NHP","latitude":46.134506,"square miles":null,"longitude":-123.88007,"id":"adia016fn0qk","visitors in 2012":201704},"type":"Feature","geometry":{"type":"Point","coordinates":[-123.88007,46.134506]}},{"properties":{"name":"Lincoln Boyhood NMEM","latitude":38.11851496,"square miles":"0.32113","longitude":-86.99717295,"id":"adia01kcu9vs","visitors in 2012":133550},"type":"Feature","geometry":{"type":"Point","coordinates":[-86.99717295,38.11851496]}},{"properties":{"name":"Lincoln Home NHS","latitude":39.79709146,"square miles":"0.02162","longitude":-89.64515295,"id":"adia01glp67y","visitors in 2012":295464},"type":"Feature","geometry":{"type":"Point","coordinates":[-89.64515295,39.79709146]}},{"properties":{"name":"Lincoln Memorial","latitude":38.889,"square miles":null,"longitude":-77.0501,"id":"adia01839u9g","visitors in 2012":6191361},"type":"Feature","geometry":{"type":"Point","coordinates":[-77.0501,38.889]}},{"properties":{"name":"Little Bighorn Battlefield NM","latitude":45.54626446,"square miles":"1.18733","longitude":-107.4089345,"id":"adia01ijl975","visitors in 2012":346327},"type":"Feature","geometry":{"type":"Point","coordinates":[-107.4089345,45.54626446]}},{"properties":{"name":"Little Rock Central High School NHS","latitude":34.7367,"square miles":null,"longitude":-92.2986,"id":"adia01id6sz0","visitors in 2012":63938},"type":"Feature","geometry":{"type":"Point","coordinates":[-92.2986,34.7367]}},{"properties":{"name":"Longfellow NHS","latitude":42.3764,"square miles":null,"longitude":-71.1262,"id":"adia01h62dcb","visitors in 2012":52234},"type":"Feature","geometry":{"type":"Point","coordinates":[-71.1262,42.3764]}},{"properties":{"name":"Lowell NHP","latitude":42.64513246,"square miles":"0.29594","longitude":-71.32975695,"id":"adia01g7mn13","visitors in 2012":537551},"type":"Feature","geometry":{"type":"Point","coordinates":[-71.32975695,42.64513246]}},{"properties":{"name":"Lyndon B. Johnson NHP","latitude":30.25591696,"square miles":"2.61572","longitude":-98.52646095,"id":"adia01fhcb7z","visitors in 2012":110791},"type":"Feature","geometry":{"type":"Point","coordinates":[-98.52646095,30.25591696]}},{"properties":{"name":"Maggie L. Walker NHS","latitude":37.54790596,"square miles":"0.02016","longitude":-77.43855645,"id":"adia01fhqisf","visitors in 2012":8276},"type":"Feature","geometry":{"type":"Point","coordinates":[-77.43855645,37.54790596]}},{"properties":{"name":"Manassas NBP","latitude":38.82163546,"square miles":"7.87083","longitude":-77.53116195,"id":"adia0169vcu5","visitors in 2012":600354},"type":"Feature","geometry":{"type":"Point","coordinates":[-77.53116195,38.82163546]}},{"properties":{"name":"Manzanar NHS","latitude":36.7283,"square miles":null,"longitude":-118.1544,"id":"adia01k4ibvz","visitors in 2012":72831},"type":"Feature","geometry":{"type":"Point","coordinates":[-118.1544,36.7283]}},{"properties":{"name":"Marsh-Billings-Rockefeller NHP","latitude":43.6333,"square miles":null,"longitude":-72.5207,"id":"adia01cjml06","visitors in 2012":32403},"type":"Feature","geometry":{"type":"Point","coordinates":[-72.5207,43.6333]}},{"properties":{"name":"Martin Luther King, Jr. Memorial","latitude":38.8861,"square miles":null,"longitude":-77.045,"id":"adia01kvvro0","visitors in 2012":3738336},"type":"Feature","geometry":{"type":"Point","coordinates":[-77.045,38.8861]}},{"properties":{"name":"Martin Luther King, Jr. NHS","latitude":33.75508546,"square miles":"0.03631","longitude":-84.37158945,"id":"adia01habq6b","visitors in 2012":707514},"type":"Feature","geometry":{"type":"Point","coordinates":[-84.37158945,33.75508546]}},{"properties":{"name":"Martin Van Buren NHS","latitude":42.36947146,"square miles":"0.04123","longitude":-73.70333145,"id":"adia016xd1iv","visitors in 2012":22062},"type":"Feature","geometry":{"type":"Point","coordinates":[-73.70333145,42.36947146]}},{"properties":{"name":"Mary McLeod Bethune Council House NHS","latitude":38.9078,"square miles":null,"longitude":-77.0303,"id":"adia01bhr69z","visitors in 2012":6646},"type":"Feature","geometry":{"type":"Point","coordinates":[-77.0303,38.9078]}},{"properties":{"name":"Mesa Verde NP","latitude":37.25333146,"square miles":"83.15528","longitude":-108.4471925,"id":"adia01cut4ib","visitors in 2012":488860},"type":"Feature","geometry":{"type":"Point","coordinates":[-108.4471925,37.25333146]}},{"properties":{"name":"Minute Man NHP","latitude":42.45959746,"square miles":"1.44466","longitude":-71.30766645,"id":"adia01kurp9v","visitors in 2012":1001207},"type":"Feature","geometry":{"type":"Point","coordinates":[-71.30766645,42.45959746]}},{"properties":{"name":"Minuteman Missile NHS","latitude":43.9311,"square miles":null,"longitude":-102.1606,"id":"adia017wox22","visitors in 2012":75654},"type":"Feature","geometry":{"type":"Point","coordinates":[-102.1606,43.9311]}},{"properties":{"name":"Monocacy NB","latitude":39.36165346,"square miles":"2.50994","longitude":-77.39431245,"id":"adia01gmmtqw","visitors in 2012":47249},"type":"Feature","geometry":{"type":"Point","coordinates":[-77.39431245,39.36165346]}},{"properties":{"name":"Montezuma Castle NM","latitude":34.62923746,"square miles":"1.3246","longitude":-111.798707,"id":"adia01jfzvym","visitors in 2012":455305},"type":"Feature","geometry":{"type":"Point","coordinates":[-111.798707,34.62923746]}},{"properties":{"name":"Moores Creek NB","latitude":34.45856146,"square miles":"0.15514","longitude":-78.11008245,"id":"adia018dq8y0","visitors in 2012":79345},"type":"Feature","geometry":{"type":"Point","coordinates":[-78.11008245,34.45856146]}},{"properties":{"name":"Morristown NHP","latitude":40.76922196,"square miles":"2.66682","longitude":-74.51554545,"id":"adia01eu97wq","visitors in 2012":294606},"type":"Feature","geometry":{"type":"Point","coordinates":[-74.51554545,40.76922196]}},{"properties":{"name":"Mount Rushmore NMEM","latitude":43.90178896,"square miles":"0.00017","longitude":-103.458191,"id":"adia01eo2u0o","visitors in 2012":2185447},"type":"Feature","geometry":{"type":"Point","coordinates":[-103.458191,43.90178896]}},{"properties":{"name":"Natchez NHP","latitude":31.54973896,"square miles":"0.1693","longitude":-91.39763745,"id":"adia01ceru2q","visitors in 2012":184551},"type":"Feature","geometry":{"type":"Point","coordinates":[-91.39763745,31.54973896]}},{"properties":{"name":"Navajo NM","latitude":36.71758846,"square miles":"0.94188","longitude":-110.657318,"id":"adia01j9x8lq","visitors in 2012":58219},"type":"Feature","geometry":{"type":"Point","coordinates":[-110.657318,36.71758846]}},{"properties":{"name":"New Bedford Whaling NHP","latitude":41.6356,"square miles":null,"longitude":-70.9233,"id":"adia01k09cfg","visitors in 2012":269885},"type":"Feature","geometry":{"type":"Point","coordinates":[-70.9233,41.6356]}},{"properties":{"name":"New Orleans Jazz NHP","latitude":29.9631,"square miles":null,"longitude":-90.0681,"id":"adia01akefgw","visitors in 2012":177909},"type":"Feature","geometry":{"type":"Point","coordinates":[-90.0681,29.9631]}},{"properties":{"name":"Nez Perce NHP","latitude":46.13662396,"square miles":"3.28794","longitude":-116.416463,"id":"adia01eo81ze","visitors in 2012":233093},"type":"Feature","geometry":{"type":"Point","coordinates":[-116.416463,46.13662396]}},{"properties":{"name":"Nicodemus NHS","latitude":39.3908,"square miles":null,"longitude":-99.6175,"id":"adia017pimh1","visitors in 2012":3505},"type":"Feature","geometry":{"type":"Point","coordinates":[-99.6175,39.3908]}},{"properties":{"name":"Ninety Six NHS","latitude":34.14103696,"square miles":"1.4812","longitude":-82.01506995,"id":"adia01lj7xjy","visitors in 2012":73044},"type":"Feature","geometry":{"type":"Point","coordinates":[-82.01506995,34.14103696]}},{"properties":{"name":"Ocmulgee NM","latitude":32.82948496,"square miles":"1.07913","longitude":-83.60361495,"id":"adia01hc5i5c","visitors in 2012":120025},"type":"Feature","geometry":{"type":"Point","coordinates":[-83.60361495,32.82948496]}},{"properties":{"name":"Palo Alto Battlefield NHP","latitude":26.02428346,"square miles":"5.32875","longitude":-97.46261145,"id":"adia01hvr9tp","visitors in 2012":36707},"type":"Feature","geometry":{"type":"Point","coordinates":[-97.46261145,26.02428346]}},{"properties":{"name":"Pea Ridge NMP","latitude":36.44585146,"square miles":"6.72508","longitude":-94.03223895,"id":"adia01kit1lu","visitors in 2012":131907},"type":"Feature","geometry":{"type":"Point","coordinates":[-94.03223895,36.44585146]}},{"properties":{"name":"Pecos NHP","latitude":35.54682346,"square miles":"10.20152","longitude":-105.7370675,"id":"adia01iw9eu8","visitors in 2012":45568},"type":"Feature","geometry":{"type":"Point","coordinates":[-105.7370675,35.54682346]}},{"properties":{"name":"Pennsylvania Avenue NHS","latitude":38.893,"square miles":null,"longitude":-77.0262,"id":"adia01egu4jc","visitors in 2012":283232},"type":"Feature","geometry":{"type":"Point","coordinates":[-77.0262,38.893]}},{"properties":{"name":"Perry's Victory &amp; Intl. Peace MEM","latitude":41.65497946,"square miles":"0.0392","longitude":-82.81189845,"id":"adia01b47yqf","visitors in 2012":140281},"type":"Feature","geometry":{"type":"Point","coordinates":[-82.81189845,41.65497946]}},{"properties":{"name":"Petersburg NB","latitude":37.22533696,"square miles":"4.23712","longitude":-77.45666445,"id":"adia01hndz6n","visitors in 2012":188426},"type":"Feature","geometry":{"type":"Point","coordinates":[-77.45666445,37.22533696]}},{"properties":{"name":"Petroglyph NM","latitude":35.14584196,"square miles":"11.15755","longitude":-106.7265455,"id":"adia01kfnxbg","visitors in 2012":119444},"type":"Feature","geometry":{"type":"Point","coordinates":[-106.7265455,35.14584196]}},{"properties":{"name":"Pipe Spring NM","latitude":36.86267746,"square miles":"0.06357","longitude":-112.7398775,"id":"adia01an7uwz","visitors in 2012":54692},"type":"Feature","geometry":{"type":"Point","coordinates":[-112.7398775,36.86267746]}},{"properties":{"name":"Pipestone NM","latitude":44.01390196,"square miles":"0.44061","longitude":-96.32476845,"id":"adia01d3tnbv","visitors in 2012":76030},"type":"Feature","geometry":{"type":"Point","coordinates":[-96.32476845,44.01390196]}},{"properties":{"name":"Piscataway Park","latitude":38.6848,"square miles":null,"longitude":-77.0513,"id":"adia01chboia","visitors in 2012":124107},"type":"Feature","geometry":{"type":"Point","coordinates":[-77.0513,38.6848]}},{"properties":{"name":"Port Chicago Naval Magazine NM","latitude":38.0575,"square miles":null,"longitude":-122.0297,"id":"adia01c13g1u","visitors in 2012":533},"type":"Feature","geometry":{"type":"Point","coordinates":[-122.0297,38.0575]}},{"properties":{"name":"President W.J. Clinton Birthplace Home NHS","latitude":33.66759,"square miles":null,"longitude":-93.5968,"id":"adia01br80n4","visitors in 2012":8932},"type":"Feature","geometry":{"type":"Point","coordinates":[-93.5968,33.66759]}},{"properties":{"name":"President's Park","latitude":38.8942,"square miles":null,"longitude":-77.0369,"id":"adia01gv998l","visitors in 2012":600083},"type":"Feature","geometry":{"type":"Point","coordinates":[-77.0369,38.8942]}},{"properties":{"name":"Pu'uhonua o Honaunau NHP","latitude":19.41724846,"square miles":"0.30744","longitude":-155.904413,"id":"adia01gho9fx","visitors in 2012":442353},"type":"Feature","geometry":{"type":"Point","coordinates":[-155.904413,19.41724846]}},{"properties":{"name":"Pu'ukohola Heiau NHS","latitude":20.02843846,"square miles":"0.08942","longitude":-155.8204385,"id":"adia01ijf0iy","visitors in 2012":134403},"type":"Feature","geometry":{"type":"Point","coordinates":[-155.8204385,20.02843846]}},{"properties":{"name":"Richmond NBP","latitude":37.47393496,"square miles":"1.27572","longitude":-77.33650095,"id":"adia016oywdu","visitors in 2012":156952},"type":"Feature","geometry":{"type":"Point","coordinates":[-77.33650095,37.47393496]}},{"properties":{"name":"River Raisin NBP","latitude":41.9137,"square miles":null,"longitude":-83.3785,"id":"adia01hh0hcd","visitors in 2012":50667},"type":"Feature","geometry":{"type":"Point","coordinates":[-83.3785,41.9137]}},{"properties":{"name":"Roger Williams NMEM","latitude":41.83052446,"square miles":"0.00578","longitude":-71.41081995,"id":"adia017l88i7","visitors in 2012":51944},"type":"Feature","geometry":{"type":"Point","coordinates":[-71.41081995,41.83052446]}},{"properties":{"name":"Russell Cave NM","latitude":34.97447296,"square miles":"0.46236","longitude":-85.81442895,"id":"adia01h1m6dk","visitors in 2012":20954},"type":"Feature","geometry":{"type":"Point","coordinates":[-85.81442895,34.97447296]}},{"properties":{"name":"Sagamore Hill NHS","latitude":40.88689246,"square miles":"0.11317","longitude":-73.49695695,"id":"adia01h22e79","visitors in 2012":20097},"type":"Feature","geometry":{"type":"Point","coordinates":[-73.49695695,40.88689246]}},{"properties":{"name":"Saint Paul's Church NHS","latitude":40.89276496,"square miles":"0.00817","longitude":-73.82553345,"id":"adia01f4f7vt","visitors in 2012":16188},"type":"Feature","geometry":{"type":"Point","coordinates":[-73.82553345,40.89276496]}},{"properties":{"name":"Saint-Gaudens NHS","latitude":43.49619946,"square miles":"0.14219","longitude":-72.37470195,"id":"adia01k1g528","visitors in 2012":33663},"type":"Feature","geometry":{"type":"Point","coordinates":[-72.37470195,43.49619946]}},{"properties":{"name":"Salem Maritime NHS","latitude":42.51945196,"square miles":"0.01527","longitude":-70.88587245,"id":"adia01aq1vgj","visitors in 2012":756038},"type":"Feature","geometry":{"type":"Point","coordinates":[-70.88587245,42.51945196]}},{"properties":{"name":"Salinas Pueblo Missions NM","latitude":34.42402846,"square miles":"1.66087","longitude":-106.22732,"id":"adia01is94ek","visitors in 2012":29228},"type":"Feature","geometry":{"type":"Point","coordinates":[-106.22732,34.42402846]}},{"properties":{"name":"Salt River Bay NHP &amp; Ecological Pres","latitude":17.776315,"square miles":null,"longitude":-64.75668,"id":"adia017ay4sn","visitors in 2012":5217},"type":"Feature","geometry":{"type":"Point","coordinates":[-64.75668,17.776315]}},{"properties":{"name":"San Antonio Missions NHP","latitude":29.24181496,"square miles":"1.28516","longitude":-98.32810095,"id":"adia01ihrkuy","visitors in 2012":614810},"type":"Feature","geometry":{"type":"Point","coordinates":[-98.32810095,29.24181496]}},{"properties":{"name":"San Francisco Maritime NHP","latitude":37.80852346,"square miles":"0.07724","longitude":-122.423648,"id":"adia01hakqx0","visitors in 2012":4129983},"type":"Feature","geometry":{"type":"Point","coordinates":[-122.423648,37.80852346]}},{"properties":{"name":"San Juan Island NHP","latitude":48.4558,"square miles":null,"longitude":-122.9856,"id":"adia01ltmz4h","visitors in 2012":261139},"type":"Feature","geometry":{"type":"Point","coordinates":[-122.9856,48.4558]}},{"properties":{"name":"San Juan NHS","latitude":48.52371646,"square miles":"2.69289","longitude":-123.0656765,"id":"adia01i8v165","visitors in 2012":1279814},"type":"Feature","geometry":{"type":"Point","coordinates":[-123.0656765,48.52371646]}},{"properties":{"name":"Sand Creek Massacre NHS","latitude":38.5408,"square miles":null,"longitude":-102.5286,"id":"adia01hq2g5w","visitors in 2012":4384},"type":"Feature","geometry":{"type":"Point","coordinates":[-102.5286,38.5408]}},{"properties":{"name":"Saratoga NHP","latitude":42.99409396,"square miles":"4.49334","longitude":-73.62940545,"id":"adia01azawl5","visitors in 2012":57688},"type":"Feature","geometry":{"type":"Point","coordinates":[-73.62940545,42.99409396]}},{"properties":{"name":"Saugus Iron Works NHS","latitude":42.46803046,"square miles":"0.01731","longitude":-71.00787195,"id":"adia01ims7fx","visitors in 2012":11611},"type":"Feature","geometry":{"type":"Point","coordinates":[-71.00787195,42.46803046]}},{"properties":{"name":"Shiloh NMP","latitude":35.14007296,"square miles":"6.3799","longitude":-88.33949595,"id":"adia01anibtb","visitors in 2012":587620},"type":"Feature","geometry":{"type":"Point","coordinates":[-88.33949595,35.14007296]}},{"properties":{"name":"Sitka NHP","latitude":57.04737796,"square miles":"0.16397","longitude":-135.3139835,"id":"adia01b98ad4","visitors in 2012":195157},"type":"Feature","geometry":{"type":"Point","coordinates":[-135.3139835,57.04737796]}},{"properties":{"name":"Springfield Armory NHS","latitude":42.10834996,"square miles":"0.11714","longitude":-72.57987945,"id":"adia016pxwf0","visitors in 2012":16978},"type":"Feature","geometry":{"type":"Point","coordinates":[-72.57987945,42.10834996]}},{"properties":{"name":"Statue of Liberty NM","latitude":40.6893,"square miles":null,"longitude":-74.0446,"id":"adia017dihvf","visitors in 2012":3029443},"type":"Feature","geometry":{"type":"Point","coordinates":[-74.0446,40.6893]}},{"properties":{"name":"Steamtown NHS","latitude":41.40822646,"square miles":"0.09599","longitude":-75.66506145,"id":"adia01jdmj3d","visitors in 2012":106309},"type":"Feature","geometry":{"type":"Point","coordinates":[-75.66506145,41.40822646]}},{"properties":{"name":"Stones River NB","latitude":35.87098096,"square miles":"1.10629","longitude":-86.42573145,"id":"adia01k1pxzt","visitors in 2012":260537},"type":"Feature","geometry":{"type":"Point","coordinates":[-86.42573145,35.87098096]}},{"properties":{"name":"Thaddeus Kosciuszko NMEM","latitude":39.94333246,"square miles":"2.00E+00","longitude":-75.14745795,"id":"adia01ecdu4y","visitors in 2012":2045},"type":"Feature","geometry":{"type":"Point","coordinates":[-75.14745795,39.94333246]}},{"properties":{"name":"Theodore Roosevelt Birthplace NHS","latitude":40.739,"square miles":null,"longitude":-73.9895,"id":"adia01ftf4dg","visitors in 2012":17930},"type":"Feature","geometry":{"type":"Point","coordinates":[-73.9895,40.739]}},{"properties":{"name":"Theodore Roosevelt Inaugural NHS","latitude":42.9014,"square miles":null,"longitude":-78.8733,"id":"adia01glvj3t","visitors in 2012":18875},"type":"Feature","geometry":{"type":"Point","coordinates":[-78.8733,42.9014]}},{"properties":{"name":"Theodore Roosevelt Island","latitude":38.8956,"square miles":null,"longitude":-77.0621,"id":"adia01d6nzrs","visitors in 2012":149754},"type":"Feature","geometry":{"type":"Point","coordinates":[-77.0621,38.8956]}},{"properties":{"name":"Thomas Edison NHP","latitude":40.7868,"square miles":null,"longitude":-74.2375,"id":"adia01bsohak","visitors in 2012":52554},"type":"Feature","geometry":{"type":"Point","coordinates":[-74.2375,40.7868]}},{"properties":{"name":"Thomas Jefferson MEM","latitude":38.8811,"square miles":null,"longitude":-77.0369,"id":"adia01fq91ay","visitors in 2012":2613131},"type":"Feature","geometry":{"type":"Point","coordinates":[-77.0369,38.8811]}},{"properties":{"name":"Thomas Stone NHS","latitude":38.52930646,"square miles":"0.49882","longitude":-77.03720145,"id":"adia01lb7ex2","visitors in 2012":6426},"type":"Feature","geometry":{"type":"Point","coordinates":[-77.03720145,38.52930646]}},{"properties":{"name":"Timucuan EHP","latitude":30.47564746,"square miles":"75.198","longitude":-81.54504945,"id":"adia01gfzo02","visitors in 2012":1076310},"type":"Feature","geometry":{"type":"Point","coordinates":[-81.54504945,30.47564746]}},{"properties":{"name":"Tonto NM","latitude":33.64859296,"square miles":"1.75078","longitude":-111.1134155,"id":"adia01m7eam7","visitors in 2012":51881},"type":"Feature","geometry":{"type":"Point","coordinates":[-111.1134155,33.64859296]}},{"properties":{"name":"Tumacacori NHP","latitude":35.14545496,"square miles":"0.7337","longitude":-103.79219,"id":"adia01lbyms0","visitors in 2012":35158},"type":"Feature","geometry":{"type":"Point","coordinates":[-103.79219,35.14545496]}},{"properties":{"name":"Tuskegee Airmen NHS","latitude":32.4572,"square miles":null,"longitude":-85.68,"id":"adia01dfe3nx","visitors in 2012":23716},"type":"Feature","geometry":{"type":"Point","coordinates":[-85.68,32.4572]}},{"properties":{"name":"Tuskegee Institute NHS","latitude":32.4302,"square miles":null,"longitude":-85.7077,"id":"adia018zllob","visitors in 2012":24030},"type":"Feature","geometry":{"type":"Point","coordinates":[-85.7077,32.4302]}},{"properties":{"name":"Tuzigoot NM","latitude":34.77397996,"square miles":"1.2761","longitude":-112.0320635,"id":"adia01hymibu","visitors in 2012":97388},"type":"Feature","geometry":{"type":"Point","coordinates":[-112.0320635,34.77397996]}},{"properties":{"name":"Ulysses S. Grant NHS","latitude":38.5511,"square miles":null,"longitude":-90.3519,"id":"adia018nykzn","visitors in 2012":39373},"type":"Feature","geometry":{"type":"Point","coordinates":[-90.3519,38.5511]}},{"properties":{"name":"Valley Forge NHP","latitude":40.10041846,"square miles":"5.45322","longitude":-75.44457495,"id":"adia01h0kso6","visitors in 2012":1442750},"type":"Feature","geometry":{"type":"Point","coordinates":[-75.44457495,40.10041846]}},{"properties":{"name":"Vanderbilt Mansion NHS","latitude":41.79767446,"square miles":"0.3266","longitude":-73.94200695,"id":"adia0189qsgo","visitors in 2012":423107},"type":"Feature","geometry":{"type":"Point","coordinates":[-73.94200695,41.79767446]}},{"properties":{"name":"Vicksburg NMP","latitude":32.34546496,"square miles":"2.49957","longitude":-90.86553945,"id":"adia01lpolto","visitors in 2012":573262},"type":"Feature","geometry":{"type":"Point","coordinates":[-90.86553945,32.34546496]}},{"properties":{"name":"Vietnam Veterans MEM","latitude":38.8911,"square miles":null,"longitude":-77.0478,"id":"adia01cs1fbf","visitors in 2012":4424407},"type":"Feature","geometry":{"type":"Point","coordinates":[-77.0478,38.8911]}},{"properties":{"name":"Walnut Canyon NM","latitude":35.18039296,"square miles":"3.49809","longitude":-111.5002085,"id":"adia01jrp6rb","visitors in 2012":110748},"type":"Feature","geometry":{"type":"Point","coordinates":[-111.5002085,35.18039296]}},{"properties":{"name":"War in the Pacific NHP","latitude":13.3,"square miles":null,"longitude":144.6669,"id":"adia01cigyga","visitors in 2012":255923},"type":"Feature","geometry":{"type":"Point","coordinates":[144.6669,13.3]}},{"properties":{"name":"Washington Monument","latitude":38.8895,"square miles":null,"longitude":-77.0352,"id":"adia01dxq1e3","visitors in 2012":0},"type":"Feature","geometry":{"type":"Point","coordinates":[-77.0352,38.8895]}},{"properties":{"name":"Washita Battlefield NHS","latitude":35.6441,"square miles":null,"longitude":-99.7003,"id":"adia0165c2qd","visitors in 2012":10615},"type":"Feature","geometry":{"type":"Point","coordinates":[-99.7003,35.6441]}},{"properties":{"name":"Weir Farm NHS","latitude":41.25823246,"square miles":"0.08604","longitude":-73.45417095,"id":"adia01gx8i2e","visitors in 2012":21465},"type":"Feature","geometry":{"type":"Point","coordinates":[-73.45417095,41.25823246]}},{"properties":{"name":"White House","latitude":38.89689796,"square miles":"0.03684","longitude":-77.03622045,"id":"adia01c0t9s2","visitors in 2012":656949},"type":"Feature","geometry":{"type":"Point","coordinates":[-77.03622045,38.89689796]}},{"properties":{"name":"Whitman Mission NHS","latitude":46.04277646,"square miles":"0.15628","longitude":-118.465484,"id":"adia01it8nhv","visitors in 2012":60785},"type":"Feature","geometry":{"type":"Point","coordinates":[-118.465484,46.04277646]}},{"properties":{"name":"William Howard Taft NHS","latitude":39.11960746,"square miles":"0.00512","longitude":-84.50739045,"id":"adia017qyp5w","visitors in 2012":19416},"type":"Feature","geometry":{"type":"Point","coordinates":[-84.50739045,39.11960746]}},{"properties":{"name":"Wilson's Creek NB","latitude":37.09982296,"square miles":"2.72514","longitude":-93.40978545,"id":"adia01hs2i22","visitors in 2012":167205},"type":"Feature","geometry":{"type":"Point","coordinates":[-93.40978545,37.09982296]}},{"properties":{"name":"Women's Rights NHP","latitude":42.9108,"square miles":null,"longitude":-76.8014,"id":"adia01csyafq","visitors in 2012":29585},"type":"Feature","geometry":{"type":"Point","coordinates":[-76.8014,42.9108]}},{"properties":{"name":"World War II Memorial","latitude":38.8894,"square miles":null,"longitude":-77.0405,"id":"adia01f0k6m6","visitors in 2012":4161685},"type":"Feature","geometry":{"type":"Point","coordinates":[-77.0405,38.8894]}},{"properties":{"name":"World War II Valor in the Pacific NM","latitude":21.368,"square miles":null,"longitude":-157.9543,"id":"adia01gdnm82","visitors in 2012":1751224},"type":"Feature","geometry":{"type":"Point","coordinates":[-157.9543,21.368]}},{"properties":{"name":"Wright Brothers NMEM","latitude":36.01642996,"square miles":"0.67436","longitude":-75.66793245,"id":"adia018bdtx7","visitors in 2012":466816},"type":"Feature","geometry":{"type":"Point","coordinates":[-75.66793245,36.01642996]}},{"properties":{"name":"Wupatki NM","latitude":35.56494496,"square miles":"54.8979","longitude":-111.404048,"id":"adia01l1877x","visitors in 2012":201365},"type":"Feature","geometry":{"type":"Point","coordinates":[-111.404048,35.56494496]}},{"properties":{"name":null,"latitude":null,"square miles":null,"longitude":null,"id":"adia016jx1gz","visitors in 2012":407653},"type":"Feature","geometry":null},{"properties":{"name":null,"latitude":null,"square miles":null,"longitude":null,"id":"adia017e6dut","visitors in 2012":281279},"type":"Feature","geometry":null},{"properties":{"name":null,"latitude":null,"square miles":null,"longitude":null,"id":"adia01e07qyx","visitors in 2012":148152},"type":"Feature","geometry":null}],"is_temporal":false,"author":{"url":"https://irma.nps.gov/Stats/Reports/ReportList","metadata":"","contact_name":"perspectives@historians.org","contact_address":"","source":"National Park Service","contact_phone":""},"source":"https://irma.nps.gov/Stats/Reports/ReportList","pagination":{"sort":null,"start":0,"total":220,"limit":1000000},"state":"complete","tags":"history,national,park,public,service","published":"2014-08-16T16:58:46-04:00","id":343438}