{"type":"FeatureCollection","data_type":"Dataset","url_type":null,"permissions":[{"permissions":{"download":true,"view":true},"group_id":"everyone"}],"classification":null,"title":"World Gazetteer: Albania","count":68,"stream_id":362367,"contributor":{"url":"http://geocommons.com/users/71935","name":"Galaxygal9"},"data_attributes":null,"calculation_params":null,"icon_link":null,"link":"http://geocommons.com/overlays/362367.json","extent":[19.43,39.66,20.98,42.36],"geometry_types":["point"],"unique_name":null,"name":"World Gazetteer: Albania","feature_count":68,"description":"","next_feature":null,"is_raster":false,"short_classification":"Y","stats":{},"features":[{"properties":{"name":"Tirana","description":"population: 606634division: Tiranareference: <a href=\"http://www.world-gazetteer.com/wg.php?men=gpro&amp;des=gamelan&amp;geo=472807982\">World Gazetteer</a>","id":"aengibu19o5r"},"type":"Feature","geometry":{"type":"Point","coordinates":[19.82,41.33]}},{"properties":{"name":"Durrës","description":"population: 172805division: Durrësreference: <a href=\"http://www.world-gazetteer.com/wg.php?men=gpro&amp;des=gamelan&amp;geo=472807945\">World Gazetteer</a>","id":"aengibsnjmqn"},"type":"Feature","geometry":{"type":"Point","coordinates":[19.45,41.33]}},{"properties":{"name":"Vlorë","description":"population: 125954division: Vlorëreference: <a href=\"http://www.world-gazetteer.com/wg.php?men=gpro&amp;des=gamelan&amp;geo=469747949\">World Gazetteer</a>","id":"aengibxpv4hj"},"type":"Feature","geometry":{"type":"Point","coordinates":[19.49,40.48]}},{"properties":{"name":"Elbasan","description":"population: 100281division: Elbasanreference: <a href=\"http://www.world-gazetteer.com/wg.php?men=gpro&amp;des=gamelan&amp;geo=472052009\">World Gazetteer</a>","id":"aengibwajs5e"},"type":"Feature","geometry":{"type":"Point","coordinates":[20.09,41.12]}},{"properties":{"name":"Shkodër","description":"population: 86293division: Shkodërreference: <a href=\"http://www.world-gazetteer.com/wg.php?men=gpro&amp;des=gamelan&amp;geo=475471951\">World Gazetteer</a>","id":"aengibyg85yo"},"type":"Feature","geometry":{"type":"Point","coordinates":[19.51,42.07]}},{"properties":{"name":"Korçë","description":"population: 62495division: Korçëreference: <a href=\"http://www.world-gazetteer.com/wg.php?men=gpro&amp;des=gamelan&amp;geo=470288079\">World Gazetteer</a>","id":"aengibpocbes"},"type":"Feature","geometry":{"type":"Point","coordinates":[20.79,40.63]}},{"properties":{"name":"Fier","description":"population: 56470division: Fierreference: <a href=\"http://www.world-gazetteer.com/wg.php?men=gpro&amp;des=gamelan&amp;geo=470647957\">World Gazetteer</a>","id":"aengibw0gdw0"},"type":"Feature","geometry":{"type":"Point","coordinates":[19.57,40.73]}},{"properties":{"name":"Berat","description":"population: 43251division: Beratreference: <a href=\"http://www.world-gazetteer.com/wg.php?men=gpro&amp;des=gamelan&amp;geo=470575996\">World Gazetteer</a>","id":"aengibo6cgdq"},"type":"Feature","geometry":{"type":"Point","coordinates":[19.96,40.71]}},{"properties":{"name":"Kavajë","description":"population: 40615division: Kavajëreference: <a href=\"http://www.world-gazetteer.com/wg.php?men=gpro&amp;des=gamelan&amp;geo=472339956\">World Gazetteer</a>","id":"aengiboi1hlx"},"type":"Feature","geometry":{"type":"Point","coordinates":[19.56,41.2]}},{"properties":{"name":"Lushnjë","description":"population: 37565division: Lushnjëreference: <a href=\"http://www.world-gazetteer.com/wg.php?men=gpro&amp;des=gamelan&amp;geo=471439971\">World Gazetteer</a>","id":"aengibx335o3"},"type":"Feature","geometry":{"type":"Point","coordinates":[19.71,40.95]}},{"properties":{"name":"Pogradec","description":"population: 28252division: Pogradecreference: <a href=\"http://www.world-gazetteer.com/wg.php?men=gpro&amp;des=gamelan&amp;geo=471152070\">World Gazetteer</a>","id":"aengibnwd9mw"},"type":"Feature","geometry":{"type":"Point","coordinates":[20.7,40.87]}},{"properties":{"name":"Sarandë","description":"population: 24448division: Sarandëreference: <a href=\"http://www.world-gazetteer.com/wg.php?men=gpro&amp;des=gamelan&amp;geo=467588000\">World Gazetteer</a>","id":"aengibviu2h0"},"type":"Feature","geometry":{"type":"Point","coordinates":[20.0,39.88]}},{"properties":{"name":"Gjirokastër","description":"population: 24155division: Gjirokastërreference: <a href=\"http://www.world-gazetteer.com/wg.php?men=gpro&amp;des=gamelan&amp;geo=468308015\">World Gazetteer</a>","id":"aengibxnj35w"},"type":"Feature","geometry":{"type":"Point","coordinates":[20.15,40.08]}},{"properties":{"name":"Lezhë","description":"population: 23239division: Lezhëreference: <a href=\"http://www.world-gazetteer.com/wg.php?men=gpro&amp;des=gamelan&amp;geo=474463965\">World Gazetteer</a>","id":"aengibm8w20o"},"type":"Feature","geometry":{"type":"Point","coordinates":[19.65,41.79]}},{"properties":{"name":"Laç","description":"population: 23057division: Kurbinreference: <a href=\"http://www.world-gazetteer.com/wg.php?men=gpro&amp;des=gamelan&amp;geo=473923971\">World Gazetteer</a>","id":"aengibmt58cp"},"type":"Feature","geometry":{"type":"Point","coordinates":[19.71,41.64]}},{"properties":{"name":"Krujë","description":"population: 20966division: Krujëreference: <a href=\"http://www.world-gazetteer.com/wg.php?men=gpro&amp;des=gamelan&amp;geo=473491980\">World Gazetteer</a>","id":"aengibp8s3wc"},"type":"Feature","geometry":{"type":"Point","coordinates":[19.8,41.52]}},{"properties":{"name":"Patos","description":"population: 20597division: Fierreference: <a href=\"http://www.world-gazetteer.com/wg.php?men=gpro&amp;des=gamelan&amp;geo=470323965\">World Gazetteer</a>","id":"aengibq8pk7h"},"type":"Feature","geometry":{"type":"Point","coordinates":[19.65,40.64]}},{"properties":{"name":"Kuçovë","description":"population: 16595division: Kuçovëreference: <a href=\"http://www.world-gazetteer.com/wg.php?men=gpro&amp;des=gamelan&amp;geo=470935993\">World Gazetteer</a>","id":"aengibw3n00u"},"type":"Feature","geometry":{"type":"Point","coordinates":[19.93,40.81]}},{"properties":{"name":"Cërrik","description":"population: 14803division: Elbasanreference: <a href=\"http://www.world-gazetteer.com/wg.php?men=gpro&amp;des=gamelan&amp;geo=471691996\">World Gazetteer</a>","id":"aengibyjav6m"},"type":"Feature","geometry":{"type":"Point","coordinates":[19.96,41.02]}},{"properties":{"name":"Shijak","description":"population: 14101division: Durrësreference: <a href=\"http://www.world-gazetteer.com/wg.php?men=gpro&amp;des=gamelan&amp;geo=472843956\">World Gazetteer</a>","id":"aengibufmiph"},"type":"Feature","geometry":{"type":"Point","coordinates":[19.56,41.34]}},{"properties":{"name":"Kamzë","description":"population: 12602division: Tiranareference: <a href=\"http://www.world-gazetteer.com/wg.php?men=gpro&amp;des=gamelan&amp;geo=473023976\">World Gazetteer</a>","id":"aengibtgs1vk"},"type":"Feature","geometry":{"type":"Point","coordinates":[19.76,41.39]}},{"properties":{"name":"Peshkopi","description":"population: 12311division: Dibrëreference: <a href=\"http://www.world-gazetteer.com/wg.php?men=gpro&amp;des=gamelan&amp;geo=474104044\">World Gazetteer</a>","id":"aengibwcf77j"},"type":"Feature","geometry":{"type":"Point","coordinates":[20.44,41.69]}},{"properties":{"name":"Burrel","description":"population: 11190division: Matreference: <a href=\"http://www.world-gazetteer.com/wg.php?men=gpro&amp;des=gamelan&amp;geo=473888002\">World Gazetteer</a>","id":"aengibssx81l"},"type":"Feature","geometry":{"type":"Point","coordinates":[20.02,41.63]}},{"properties":{"name":"Fushë-Krujë","description":"population: 11148division: Krujëreference: <a href=\"http://www.world-gazetteer.com/wg.php?men=gpro&amp;des=gamelan&amp;geo=473347971\">World Gazetteer</a>","id":"aengibjuqnar"},"type":"Feature","geometry":{"type":"Point","coordinates":[19.71,41.48]}},{"properties":{"name":"Librazhd","description":"population: 10919division: Librazhdreference: <a href=\"http://www.world-gazetteer.com/wg.php?men=gpro&amp;des=gamelan&amp;geo=472304032\">World Gazetteer</a>","id":"aengibj9opbn"},"type":"Feature","geometry":{"type":"Point","coordinates":[20.32,41.19]}},{"properties":{"name":"Poliçan","description":"population: 10322division: Beratreference: <a href=\"http://www.world-gazetteer.com/wg.php?men=gpro&amp;des=gamelan&amp;geo=470180010\">World Gazetteer</a>","id":"aengibrr4amw"},"type":"Feature","geometry":{"type":"Point","coordinates":[20.1,40.6]}},{"properties":{"name":"Kukës","description":"population: 10288division: Kukësreference: <a href=\"http://www.world-gazetteer.com/wg.php?men=gpro&amp;des=gamelan&amp;geo=475544043\">World Gazetteer</a>","id":"aengibnif55u"},"type":"Feature","geometry":{"type":"Point","coordinates":[20.43,42.09]}},{"properties":{"name":"Përmet","description":"population: 9550division: Përmetreference: <a href=\"http://www.world-gazetteer.com/wg.php?men=gpro&amp;des=gamelan&amp;geo=468884035\">World Gazetteer</a>","id":"aengibwau61d"},"type":"Feature","geometry":{"type":"Point","coordinates":[20.35,40.24]}},{"properties":{"name":"Çorovodë","description":"population: 9259division: Skraparreference: <a href=\"http://www.world-gazetteer.com/wg.php?men=gpro&amp;des=gamelan&amp;geo=469820021\">World Gazetteer</a>","id":"aengibw50afu"},"type":"Feature","geometry":{"type":"Point","coordinates":[20.21,40.5]}},{"properties":{"name":"Tepelenë","description":"population: 9249division: Tepelenëreference: <a href=\"http://www.world-gazetteer.com/wg.php?men=gpro&amp;des=gamelan&amp;geo=469100001\">World Gazetteer</a>","id":"aengibtjb51e"},"type":"Feature","geometry":{"type":"Point","coordinates":[20.01,40.3]}},{"properties":{"name":"Gramsh","description":"population: 9113division: Gramshreference: <a href=\"http://www.world-gazetteer.com/wg.php?men=gpro&amp;des=gamelan&amp;geo=471152018\">World Gazetteer</a>","id":"aengiburcw78"},"type":"Feature","geometry":{"type":"Point","coordinates":[20.18,40.87]}},{"properties":{"name":"Mamurras","description":"population: 8886division: Krujëreference: <a href=\"http://www.world-gazetteer.com/wg.php?men=gpro&amp;des=gamelan&amp;geo=473671968\">World Gazetteer</a>","id":"aengibstjhib"},"type":"Feature","geometry":{"type":"Point","coordinates":[19.68,41.57]}},{"properties":{"name":"Bilisht","description":"population: 8421division: Devollreference: <a href=\"http://www.world-gazetteer.com/wg.php?men=gpro&amp;des=gamelan&amp;geo=470252098\">World Gazetteer</a>","id":"aengibp44t8u"},"type":"Feature","geometry":{"type":"Point","coordinates":[20.98,40.62]}},{"properties":{"name":"Ballsh","description":"population: 8157division: Mallakastërreference: <a href=\"http://www.world-gazetteer.com/wg.php?men=gpro&amp;des=gamelan&amp;geo=470179973\">World Gazetteer</a>","id":"aengibrak2bo"},"type":"Feature","geometry":{"type":"Point","coordinates":[19.73,40.6]}},{"properties":{"name":"Ersekë","description":"population: 6956division: Kolonjëreference: <a href=\"http://www.world-gazetteer.com/wg.php?men=gpro&amp;des=gamelan&amp;geo=469244068\">World Gazetteer</a>","id":"aengibvq8lqy"},"type":"Feature","geometry":{"type":"Point","coordinates":[20.68,40.34]}},{"properties":{"name":"Divjakë","description":"population: 6895division: Lushnjëreference: <a href=\"http://www.world-gazetteer.com/wg.php?men=gpro&amp;des=gamelan&amp;geo=471583953\">World Gazetteer</a>","id":"aengibv3zkab"},"type":"Feature","geometry":{"type":"Point","coordinates":[19.53,40.99]}},{"properties":{"name":"Peqin","description":"population: 6730division: Peqinreference: <a href=\"http://www.world-gazetteer.com/wg.php?men=gpro&amp;des=gamelan&amp;geo=471835976\">World Gazetteer</a>","id":"aengibjacudu"},"type":"Feature","geometry":{"type":"Point","coordinates":[19.76,41.06]}},{"properties":{"name":"Roskovec","description":"population: 6422division: Fierreference: <a href=\"http://www.world-gazetteer.com/wg.php?men=gpro&amp;des=gamelan&amp;geo=470683971\">World Gazetteer</a>","id":"aengibtmujcm"},"type":"Feature","geometry":{"type":"Point","coordinates":[19.71,40.74]}},{"properties":{"name":"Rrëshen","description":"population: 6350division: Mirditëreference: <a href=\"http://www.world-gazetteer.com/wg.php?men=gpro&amp;des=gamelan&amp;geo=474391988\">World Gazetteer</a>","id":"aengibv1ag0y"},"type":"Feature","geometry":{"type":"Point","coordinates":[19.88,41.77]}},{"properties":{"name":"Pukë","description":"population: 6100division: Pukëreference: <a href=\"http://www.world-gazetteer.com/wg.php?men=gpro&amp;des=gamelan&amp;geo=475471990\">World Gazetteer</a>","id":"aengibv2csst"},"type":"Feature","geometry":{"type":"Point","coordinates":[19.9,42.07]}},{"properties":{"name":"Selenicë","description":"population: 6032division: Vlorëreference: <a href=\"http://www.world-gazetteer.com/wg.php?men=gpro&amp;des=gamelan&amp;geo=469999965\">World Gazetteer</a>","id":"aengibnqipr9"},"type":"Feature","geometry":{"type":"Point","coordinates":[19.65,40.55]}},{"properties":{"name":"Rrogozhinë","description":"population: 5874division: Lushnjëreference: <a href=\"http://www.world-gazetteer.com/wg.php?men=gpro&amp;des=gamelan&amp;geo=471943966\">World Gazetteer</a>","id":"aengibwfe61o"},"type":"Feature","geometry":{"type":"Point","coordinates":[19.66,41.09]}},{"properties":{"name":"Vorë","description":"population: 5762division: Tiranareference: <a href=\"http://www.world-gazetteer.com/wg.php?men=gpro&amp;des=gamelan&amp;geo=473023966\">World Gazetteer</a>","id":"aengibtettp9"},"type":"Feature","geometry":{"type":"Point","coordinates":[19.66,41.39]}},{"properties":{"name":"Urë Vajgurore","description":"population: 4683division: Beratreference: <a href=\"http://www.world-gazetteer.com/wg.php?men=gpro&amp;des=gamelan&amp;geo=470827988\">World Gazetteer</a>","id":"aengibyuq0t4"},"type":"Feature","geometry":{"type":"Point","coordinates":[19.88,40.78]}},{"properties":{"name":"Delvinë","description":"population: 4234division: Delvinëreference: <a href=\"http://www.world-gazetteer.com/wg.php?men=gpro&amp;des=gamelan&amp;geo=467876009\">World Gazetteer</a>","id":"aengibmdh8el"},"type":"Feature","geometry":{"type":"Point","coordinates":[20.09,39.96]}},{"properties":{"name":"Bajram Curri","description":"population: 4052division: Tropojëreference: <a href=\"http://www.world-gazetteer.com/wg.php?men=gpro&amp;des=gamelan&amp;geo=476516008\">World Gazetteer</a>","id":"aengiblv9n9o"},"type":"Feature","geometry":{"type":"Point","coordinates":[20.08,42.36]}},{"properties":{"name":"Memaliaj","description":"population: 4048division: Tepelenëreference: <a href=\"http://www.world-gazetteer.com/wg.php?men=gpro&amp;des=gamelan&amp;geo=469279997\">World Gazetteer</a>","id":"aengibuyvzqa"},"type":"Feature","geometry":{"type":"Point","coordinates":[19.97,40.35]}},{"properties":{"name":"Përrenjas","description":"population: 4046division: Librazhdreference: <a href=\"http://www.world-gazetteer.com/wg.php?men=gpro&amp;des=gamelan&amp;geo=471872053\">World Gazetteer</a>","id":"aengibt2lzdn"},"type":"Feature","geometry":{"type":"Point","coordinates":[20.53,41.07]}},{"properties":{"name":"Himarë","description":"population: 3874division: Vlorëreference: <a href=\"http://www.world-gazetteer.com/wg.php?men=gpro&amp;des=gamelan&amp;geo=468487974\">World Gazetteer</a>","id":"aengiboohthd"},"type":"Feature","geometry":{"type":"Point","coordinates":[19.74,40.13]}},{"properties":{"name":"Koplik","description":"population: 3500division: Malsi e Madhereference: <a href=\"http://www.world-gazetteer.com/wg.php?men=gpro&amp;des=gamelan&amp;geo=475939943\">World Gazetteer</a>","id":"aengibzguetb"},"type":"Feature","geometry":{"type":"Point","coordinates":[19.43,42.2]}},{"properties":{"name":"Maliq","description":"population: 3287division: Korçëreference: <a href=\"http://www.world-gazetteer.com/wg.php?men=gpro&amp;des=gamelan&amp;geo=470612068\">World Gazetteer</a>","id":"aengibr6qh7g"},"type":"Feature","geometry":{"type":"Point","coordinates":[20.68,40.72]}},{"properties":{"name":"Krumë","description":"population: 3194division: Hasreference: <a href=\"http://www.world-gazetteer.com/wg.php?men=gpro&amp;des=gamelan&amp;geo=475939990\">World Gazetteer</a>","id":"aengibvseivo"},"type":"Feature","geometry":{"type":"Point","coordinates":[19.9,42.2]}},{"properties":{"name":"Libohovë","description":"population: 3055division: Gjirokastërreference: <a href=\"http://www.world-gazetteer.com/wg.php?men=gpro&amp;des=gamelan&amp;geo=468164026\">World Gazetteer</a>","id":"aengibs24uky"},"type":"Feature","geometry":{"type":"Point","coordinates":[20.26,40.04]}},{"properties":{"name":"Shëngjin","description":"population: 2781division: Lezhëreference: <a href=\"http://www.world-gazetteer.com/wg.php?men=gpro&amp;des=gamelan&amp;geo=474571958\">World Gazetteer</a>","id":"aengiby7gt1p"},"type":"Feature","geometry":{"type":"Point","coordinates":[19.58,41.82]}},{"properties":{"name":"Konispol","description":"population: 2592division: Sarandëreference: <a href=\"http://www.world-gazetteer.com/wg.php?men=gpro&amp;des=gamelan&amp;geo=466796017\">World Gazetteer</a>","id":"aengibszp0f0"},"type":"Feature","geometry":{"type":"Point","coordinates":[20.17,39.66]}},{"properties":{"name":"Milot","description":"population: 2269division: Krujëreference: <a href=\"http://www.world-gazetteer.com/wg.php?men=gpro&amp;des=gamelan&amp;geo=474103973\">World Gazetteer</a>","id":"aengibte1oub"},"type":"Feature","geometry":{"type":"Point","coordinates":[19.73,41.69]}},{"properties":{"name":"Orikum","description":"population: 2253division: Vlorëreference: <a href=\"http://www.world-gazetteer.com/wg.php?men=gpro&amp;des=gamelan&amp;geo=469171947\">World Gazetteer</a>","id":"aengibyt6ocy"},"type":"Feature","geometry":{"type":"Point","coordinates":[19.47,40.32]}},{"properties":{"name":"Fushë-Arrëz","description":"population: 2061division: Pukëreference: <a href=\"http://www.world-gazetteer.com/wg.php?men=gpro&amp;des=gamelan&amp;geo=475400001\">World Gazetteer</a>","id":"aengibwlf36k"},"type":"Feature","geometry":{"type":"Point","coordinates":[20.01,42.05]}},{"properties":{"name":"Rubik","description":"population: 2058division: Mirditëreference: <a href=\"http://www.world-gazetteer.com/wg.php?men=gpro&amp;des=gamelan&amp;geo=474391978\">World Gazetteer</a>","id":"aengibuj2bck"},"type":"Feature","geometry":{"type":"Point","coordinates":[19.78,41.77]}},{"properties":{"name":"Bulqizë","description":"population: 1699division: Bulqizëreference: <a href=\"http://www.world-gazetteer.com/wg.php?men=gpro&amp;des=gamelan&amp;geo=473384023\">World Gazetteer</a>","id":"aengibx88opb"},"type":"Feature","geometry":{"type":"Point","coordinates":[20.23,41.49]}},{"properties":{"name":"Leskovik","description":"population: 1404division: Kolonjëreference: <a href=\"http://www.world-gazetteer.com/wg.php?men=gpro&amp;des=gamelan&amp;geo=468560058\">World Gazetteer</a>","id":"aengibwtxqs9"},"type":"Feature","geometry":{"type":"Point","coordinates":[20.58,40.15]}},{"properties":{"name":"Këlcyrë","description":"population: 1235division: Përmetreference: <a href=\"http://www.world-gazetteer.com/wg.php?men=gpro&amp;des=gamelan&amp;geo=469172018\">World Gazetteer</a>","id":"aengibkbn8dl"},"type":"Feature","geometry":{"type":"Point","coordinates":[20.18,40.32]}},{"properties":{"name":"Kërrabë","description":"population: 1227division: Elbasanreference: <a href=\"http://www.world-gazetteer.com/wg.php?men=gpro&amp;des=gamelan&amp;geo=472375998\">World Gazetteer</a>","id":"aengibymfij1"},"type":"Feature","geometry":{"type":"Point","coordinates":[19.98,41.21]}},{"properties":{"name":"Krastë","description":"population: 1077division: Matreference: <a href=\"http://www.world-gazetteer.com/wg.php?men=gpro&amp;des=gamelan&amp;geo=473204013\">World Gazetteer</a>","id":"aengibr0r8me"},"type":"Feature","geometry":{"type":"Point","coordinates":[20.13,41.44]}},{"properties":{"name":"Fierzë","description":"population: 634division: Pukëreference: <a href=\"http://www.world-gazetteer.com/wg.php?men=gpro&amp;des=gamelan&amp;geo=476120000\">World Gazetteer</a>","id":"aengibr6es59"},"type":"Feature","geometry":{"type":"Point","coordinates":[20.0,42.25]}},{"properties":{"name":"Klos","description":"population: 594division: Matreference: <a href=\"http://www.world-gazetteer.com/wg.php?men=gpro&amp;des=gamelan&amp;geo=473384010\">World Gazetteer</a>","id":"aengibv3tfks"},"type":"Feature","geometry":{"type":"Point","coordinates":[20.1,41.49]}},{"properties":{"name":"Kurbnesh","description":"population: 474division: Mirditëreference: <a href=\"http://www.world-gazetteer.com/wg.php?men=gpro&amp;des=gamelan&amp;geo=474428008\">World Gazetteer</a>","id":"aengibz087lq"},"type":"Feature","geometry":{"type":"Point","coordinates":[20.08,41.78]}},{"properties":{"name":"Ulzë","description":"population: 344division: Matreference: <a href=\"http://www.world-gazetteer.com/wg.php?men=gpro&amp;des=gamelan&amp;geo=474103990\">World Gazetteer</a>","id":"aengibxjgj1w"},"type":"Feature","geometry":{"type":"Point","coordinates":[19.9,41.69]}}],"is_temporal":false,"author":{"url":"","metadata":"","contact_name":"","contact_address":"","source":"","contact_phone":""},"source":"","pagination":{"sort":null,"start":0,"total":68,"limit":1000000},"state":"complete","tags":"","published":"2014-08-16T16:38:16-04:00","id":362367}