{"type":"FeatureCollection","data_type":"Dataset","url_type":null,"permissions":[{"permissions":{"download":true,"view":true},"group_id":"everyone"}],"classification":null,"title":"KAN_SVA","count":16,"stream_id":377105,"contributor":{"url":"http://geocommons.com/users/77557","name":"bill.hepburn"},"data_attributes":null,"calculation_params":null,"icon_link":null,"link":"http://geocommons.com/overlays/377105.json","extent":[-120.398,50.6874,-120.016,51.647],"geometry_types":["point"],"unique_name":null,"name":"KAN_SVA","feature_count":16,"description":"Special Voting Areas","next_feature":null,"is_raster":false,"short_classification":"Y","stats":{},"features":[{"properties":{"BLDING_NAM":"The Hamlets at Westsyde","id":"afqp5yv3h8l5","EDABBR":"KAN","ADDRESS":"3255 Overlander Dr, Kamloops","VAABBR":"048S"},"type":"Feature","geometry":{"type":"Point","coordinates":[-120.341426351187,50.771081415917]}},{"properties":{"BLDING_NAM":"Pine Grove Lodge","id":"afqp5yxghukp","EDABBR":"KAN","ADDRESS":"313 McGowan Ave, Kamloops","VAABBR":"132S"},"type":"Feature","geometry":{"type":"Point","coordinates":[-120.349770127086,50.6873884634365]}},{"properties":{"BLDING_NAM":"Forest View Place","id":"afqp5yyanbx8","EDABBR":"KAN","ADDRESS":"640 Park Dr, Clearwater","VAABBR":"007S"},"type":"Feature","geometry":{"type":"Point","coordinates":[-120.015971691292,51.6470000906484]}},{"properties":{"BLDING_NAM":"Barriere Assisted Living","id":"afqp5yr97zdj","EDABBR":"KAN","ADDRESS":"4557 Barriere Town Rd, Barriere","VAABBR":"023S"},"type":"Feature","geometry":{"type":"Point","coordinates":[-120.124623827725,51.1804942565583]}},{"properties":{"BLDING_NAM":"Renaissance Retirement Residence","id":"afqp5yvhpmrv","EDABBR":"KAN","ADDRESS":"628 Tranquille Rd, Kamloops","VAABBR":"110S"},"type":"Feature","geometry":{"type":"Point","coordinates":[-120.360224789678,50.6949000995509]}},{"properties":{"BLDING_NAM":"Westsyde Care Home","id":"afqp5z2njj49","EDABBR":"KAN","ADDRESS":"2980 Westsyde Rd, Kamloops","VAABBR":"056S"},"type":"Feature","geometry":{"type":"Point","coordinates":[-120.349065789968,50.7588759408782]}},{"properties":{"BLDING_NAM":"Cariboo Manor","id":"afqp5yss1wpw","EDABBR":"KAN","ADDRESS":"831 Serle Rd, Kamloops","VAABBR":"053S"},"type":"Feature","geometry":{"type":"Point","coordinates":[-120.34964880247,50.7636463307922]}},{"properties":{"BLDING_NAM":"Lejeune Manor Apts","id":"afqp5yvcr9n2","EDABBR":"KAN","ADDRESS":"289 Maple St, Kamloops","VAABBR":"126S"},"type":"Feature","geometry":{"type":"Point","coordinates":[-120.361386179218,50.6934634285788]}},{"properties":{"BLDING_NAM":"Greenfield Place","id":"afqp5yxjukx6","EDABBR":"KAN","ADDRESS":"1835 Greenfield Ave, Kamloops","VAABBR":"098S"},"type":"Feature","geometry":{"type":"Point","coordinates":[-120.395019987183,50.7045046120502]}},{"properties":{"BLDING_NAM":"Overlander Residential Care","id":"afqp5ypgb1hw","EDABBR":"KAN","ADDRESS":"953 Southill St, Kamloops","VAABBR":"096S"},"type":"Feature","geometry":{"type":"Point","coordinates":[-120.39749962916,50.7043878263943]}},{"properties":{"BLDING_NAM":"Active Care Senior Services Ltd","id":"afqp5z2k8rxa","EDABBR":"KAN","ADDRESS":"1607 Greenfield Ave, Kamloops","VAABBR":"143S"},"type":"Feature","geometry":{"type":"Point","coordinates":[-120.384645856529,50.7044615299062]}},{"properties":{"BLDING_NAM":"Evergreen Acres","id":"afqp5z069c30","EDABBR":"KAN","ADDRESS":"146 Evergreen Pl, Clearwater","VAABBR":"008S"},"type":"Feature","geometry":{"type":"Point","coordinates":[-120.021189334511,51.6465446992908]}},{"properties":{"BLDING_NAM":"Evergreen Acres","id":"afqp5z4zcnoh","EDABBR":"KAN","ADDRESS":"144 Evergreen Pl, Clearwater","VAABBR":"008S"},"type":"Feature","geometry":{"type":"Point","coordinates":[-120.021137527673,51.6463755745109]}},{"properties":{"BLDING_NAM":"The Shores Retirement Residence","id":"afqp5ywz07fc","EDABBR":"KAN","ADDRESS":"870 Westminster Ave, Kamloops","VAABBR":"105S"},"type":"Feature","geometry":{"type":"Point","coordinates":[-120.36537079641,50.7007753193683]}},{"properties":{"BLDING_NAM":"Ridgeview Lodge","id":"afqp5z34e8y9","EDABBR":"KAN","ADDRESS":"920 Desmond St, Kamloops","VAABBR":"099S"},"type":"Feature","geometry":{"type":"Point","coordinates":[-120.393054621943,50.7031274019564]}},{"properties":{"BLDING_NAM":"River Bend Manor","id":"afqp5yti3id2","EDABBR":"KAN","ADDRESS":"760 Mayfair St, Kamloops","VAABBR":"124S"},"type":"Feature","geometry":{"type":"Point","coordinates":[-120.397710213686,50.6990968887112]}}],"is_temporal":false,"author":{"url":"","metadata":null,"contact_name":null,"contact_address":null,"source":null,"contact_phone":null},"source":"","pagination":{"sort":null,"start":0,"total":16,"limit":1000000},"state":"complete","tags":"","published":"2014-08-16T23:21:25-04:00","id":377105}