{"type":"FeatureCollection","data_type":"Dataset","url_type":null,"permissions":[{"permissions":{"download":true,"view":true},"group_id":"everyone"}],"classification":null,"title":"\nbuggles's places\n","count":29,"stream_id":38377,"contributor":{"url":"http://geocommons.com/users/11444","name":"platial"},"data_attributes":null,"calculation_params":null,"icon_link":null,"link":"http://geocommons.com/overlays/38377.json","extent":[-121.29,-37.81,153.074,51.898],"geometry_types":["point"],"unique_name":null,"name":"\nbuggles's places\n","feature_count":29,"description":"\nA Map by Buggles\n\n\n","next_feature":null,"is_raster":false,"short_classification":"Y","stats":{},"features":[{"properties":{"name":"Amanda","description":"Posted by Buggles65622<a title=\"Built for Community Mapping\" href=\"http://www.platial.com\"><img src=\"http://media.geocommons.com/platial/images/logotype_small.jpg\"></a>","id":"a6ncmi6b3beq"},"type":"Feature","geometry":{"type":"Point","coordinates":[-93.107448,37.614374]}},{"properties":{"name":"Brandi","description":"Posted by BugglesSTOCKTON<a title=\"Built for Community Mapping\" href=\"http://www.platial.com\"><img src=\"http://media.geocommons.com/platial/images/logotype_small.jpg\"></a>","id":"a6ncmhtvwxpt"},"type":"Feature","geometry":{"type":"Point","coordinates":[-121.289722,37.957778]}},{"properties":{"name":"Caroline","description":"Posted by BugglesAustinhere during school and in Chicago the rest of the year!<a title=\"Built for Community Mapping\" href=\"http://www.platial.com\"><img src=\"http://media.geocommons.com/platial/images/logotype_small.jpg\"></a>","id":"a6ncmi5smhsx"},"type":"Feature","geometry":{"type":"Point","coordinates":[-97.742778,30.266944]}},{"properties":{"name":"Celie","description":"Posted by BugglesLille<a title=\"Built for Community Mapping\" href=\"http://www.platial.com\"><img src=\"http://media.geocommons.com/platial/images/logotype_small.jpg\"></a>","id":"a6ncmi55ycsn"},"type":"Feature","geometry":{"type":"Point","coordinates":[3.063017,50.637182]}},{"properties":{"name":"Cressida","description":"Posted by BugglesWeybridge<a title=\"Built for Community Mapping\" href=\"http://www.platial.com\"><img src=\"http://media.geocommons.com/platial/images/logotype_small.jpg\"></a>","id":"a6ncmi0l00ps"},"type":"Feature","geometry":{"type":"Point","coordinates":[-0.449652,51.381505]}},{"properties":{"name":"Cressida","description":"Posted by BugglesWeybridge<a title=\"Built for Community Mapping\" href=\"http://www.platial.com\"><img src=\"http://media.geocommons.com/platial/images/logotype_small.jpg\"></a>","id":"a6ncmht1i1g0"},"type":"Feature","geometry":{"type":"Point","coordinates":[-0.449652,51.381505]}},{"properties":{"name":"Dani","description":"Posted by BugglesToronto<a title=\"Built for Community Mapping\" href=\"http://www.platial.com\"><img src=\"http://media.geocommons.com/platial/images/logotype_small.jpg\"></a>","id":"a6ncmi0opd46"},"type":"Feature","geometry":{"type":"Point","coordinates":[-79.392486,43.723057]}},{"properties":{"name":"Donna","description":"Posted by BugglesSt.  John\\'s, Newfoundland<a title=\"Built for Community Mapping\" href=\"http://www.platial.com\"><img src=\"http://media.geocommons.com/platial/images/logotype_small.jpg\"></a>","id":"a6ncmi3n7so6"},"type":"Feature","geometry":{"type":"Point","coordinates":[-52.746072,47.550575]}},{"properties":{"name":"Drea","description":"Posted by BugglesDetroit<a title=\"Built for Community Mapping\" href=\"http://www.platial.com\"><img src=\"http://media.geocommons.com/platial/images/logotype_small.jpg\"></a>","id":"a6ncmi42yc0e"},"type":"Feature","geometry":{"type":"Point","coordinates":[-83.045833,42.331389]}},{"properties":{"name":"Emily","description":"Posted by Bugglessaint louis<a title=\"Built for Community Mapping\" href=\"http://www.platial.com\"><img src=\"http://media.geocommons.com/platial/images/logotype_small.jpg\"></a>","id":"a6ncmhthmk4g"},"type":"Feature","geometry":{"type":"Point","coordinates":[-90.197778,38.627222]}},{"properties":{"name":"Gemma","description":"Posted by Bugglesbarnet, london<a title=\"Built for Community Mapping\" href=\"http://www.platial.com\"><img src=\"http://media.geocommons.com/platial/images/logotype_small.jpg\"></a>","id":"a6ncmi02qcwu"},"type":"Feature","geometry":{"type":"Point","coordinates":[-0.178877,51.664921]}},{"properties":{"name":"Helen","description":"Posted by BugglesVIENNA. austria.<a title=\"Built for Community Mapping\" href=\"http://www.platial.com\"><img src=\"http://media.geocommons.com/platial/images/logotype_small.jpg\"></a>","id":"a6ncmhw7zdzy"},"type":"Feature","geometry":{"type":"Point","coordinates":[16.37,48.220001]}},{"properties":{"name":"Irma","description":"Posted by Buggles<img src=\"http://media.geocommons.com/platial/img/2009/09/2/avatar.jpg\">pottsboro texas<a title=\"Built for Community Mapping\" href=\"http://www.platial.com\"><img src=\"http://media.geocommons.com/platial/images/logotype_small.jpg\"></a>","id":"a6ncmhs9h4h5"},"type":"Feature","geometry":{"type":"Point","coordinates":[-96.676544,33.770365]}},{"properties":{"name":"Ivana","description":"Posted by Bugglessale7<a title=\"Built for Community Mapping\" href=\"http://www.platial.com\"><img src=\"http://media.geocommons.com/platial/images/logotype_small.jpg\"></a>","id":"a6ncmhrn1dqc"},"type":"Feature","geometry":{"type":"Point","coordinates":[17.8768323,48.1536621]}},{"properties":{"name":"Keely","description":"Posted by Buggles06804<a title=\"Built for Community Mapping\" href=\"http://www.platial.com\"><img src=\"http://media.geocommons.com/platial/images/logotype_small.jpg\"></a>","id":"a6ncmhy2heog"},"type":"Feature","geometry":{"type":"Point","coordinates":[-73.387889,41.467689]}},{"properties":{"name":"Keira","description":"Posted by Buggles<img src=\"http://media.geocommons.com/platial/img/2009/09/2/camera_002.JPG\">Mount Gravatt East, Brisbane<a title=\"Built for Community Mapping\" href=\"http://www.platial.com\"><img src=\"http://media.geocommons.com/platial/images/logotype_small.jpg\"></a>","id":"a6ncmi1b88jn"},"type":"Feature","geometry":{"type":"Point","coordinates":[153.07386,-27.542262]}},{"properties":{"name":"Kenzarooo","description":"Posted by Bugglesmaryland<a title=\"Built for Community Mapping\" href=\"http://www.platial.com\"><img src=\"http://media.geocommons.com/platial/images/logotype_small.jpg\"></a>","id":"a6ncmhsc9ogy"},"type":"Feature","geometry":{"type":"Point","coordinates":[-77.0,39.3]}},{"properties":{"name":"Lacey","description":"Posted by BugglesBalls Creek, NS<a title=\"Built for Community Mapping\" href=\"http://www.platial.com\"><img src=\"http://media.geocommons.com/platial/images/logotype_small.jpg\"></a>","id":"a6ncmi5p9yot"},"type":"Feature","geometry":{"type":"Point","coordinates":[-60.311183,46.149999]}},{"properties":{"name":"Lauren","description":"Posted by BugglesMelbourne, Australia<a title=\"Built for Community Mapping\" href=\"http://www.platial.com\"><img src=\"http://media.geocommons.com/platial/images/logotype_small.jpg\"></a>","id":"a6ncmhxq9j17"},"type":"Feature","geometry":{"type":"Point","coordinates":[144.960006,-37.810001]}},{"properties":{"name":"Lauren (Sunflowers16)","description":"Posted by BugglesSOUTH CITY!<a title=\"Built for Community Mapping\" href=\"http://www.platial.com\"><img src=\"http://media.geocommons.com/platial/images/logotype_small.jpg\"></a>","id":"a6ncmhsavf8e"},"type":"Feature","geometry":{"type":"Point","coordinates":[-74.378318,40.442653]}},{"properties":{"name":"Lauren (sunflowers16)","description":"Posted by Buggles<img src=\"http://media.geocommons.com/platial/img/2009/09/2/Photo_255.jpg\">SOUTH CITY!New Jersey<a title=\"Built for Community Mapping\" href=\"http://www.platial.com\"><img src=\"http://media.geocommons.com/platial/images/logotype_small.jpg\"></a>","id":"a6ncmhxjnqg7"},"type":"Feature","geometry":{"type":"Point","coordinates":[-74.378318,40.442653]}},{"properties":{"name":"LeAnn","description":"Posted by Buggleshutto texasHowdy from TX!!<a title=\"Built for Community Mapping\" href=\"http://www.platial.com\"><img src=\"http://media.geocommons.com/platial/images/logotype_small.jpg\"></a>","id":"a6ncmhxck45d"},"type":"Feature","geometry":{"type":"Point","coordinates":[-97.543851,30.543409]}},{"properties":{"name":"Marie","description":"Posted by Bugglesbrisbane<a title=\"Built for Community Mapping\" href=\"http://www.platial.com\"><img src=\"http://media.geocommons.com/platial/images/logotype_small.jpg\"></a>","id":"a6ncmi3po8i8"},"type":"Feature","geometry":{"type":"Point","coordinates":[153.020004,-27.459999]}},{"properties":{"name":"Sara","description":"Posted by BugglesExeterHello ^_^<a title=\"Built for Community Mapping\" href=\"http://www.platial.com\"><img src=\"http://media.geocommons.com/platial/images/logotype_small.jpg\"></a>","id":"a6ncmhv8znoh"},"type":"Feature","geometry":{"type":"Point","coordinates":[-3.533451,50.72192]}},{"properties":{"name":"Shelby (Ilithyia)","description":"Posted by BugglesClarksville, TN<a title=\"Built for Community Mapping\" href=\"http://www.platial.com\"><img src=\"http://media.geocommons.com/platial/images/logotype_small.jpg\"></a>","id":"a6ncmhscf8zq"},"type":"Feature","geometry":{"type":"Point","coordinates":[-87.359444,36.529722]}},{"properties":{"name":"Silvia","description":"Posted by Buggleslisbon<a title=\"Built for Community Mapping\" href=\"http://www.platial.com\"><img src=\"http://media.geocommons.com/platial/images/logotype_small.jpg\"></a>","id":"a6ncmi1e6dno"},"type":"Feature","geometry":{"type":"Point","coordinates":[-9.14,38.720001]}},{"properties":{"name":"Stacey","description":"Posted by BugglesKawartha Lakes, ON, Canada<a title=\"Built for Community Mapping\" href=\"http://www.platial.com\"><img src=\"http://media.geocommons.com/platial/images/logotype_small.jpg\"></a>","id":"a6ncmi2qd7ls"},"type":"Feature","geometry":{"type":"Point","coordinates":[-78.9006484,44.5337469]}},{"properties":{"name":"Zoe","description":"Posted by BugglesCheltenham, United Kingdom<a title=\"Built for Community Mapping\" href=\"http://www.platial.com\"><img src=\"http://media.geocommons.com/platial/images/logotype_small.jpg\"></a>","id":"a6ncmhr55nnn"},"type":"Feature","geometry":{"type":"Point","coordinates":[-2.071308,51.897991]}},{"properties":{"name":"soaringsoul1973","description":"Posted by Bugglesbristol,tn<a title=\"Built for Community Mapping\" href=\"http://www.platial.com\"><img src=\"http://media.geocommons.com/platial/images/logotype_small.jpg\"></a>","id":"a6ncmhrwj44o"},"type":"Feature","geometry":{"type":"Point","coordinates":[-82.22127,36.59193]}}],"is_temporal":false,"author":{"url":"http://www.platial.com/map/751899","metadata":null,"contact_name":"buggles","contact_address":null,"source":"platial:buggles","contact_phone":null},"source":"http://www.platial.com/map/751899","pagination":{"sort":null,"start":0,"total":29,"limit":1000000},"state":"complete","tags":"platial,platial:id=751899,platial:user=buggles","published":"2010-04-23T16:00:00Z","id":38377}