{"type":"FeatureCollection","data_type":"Dataset","url_type":null,"permissions":[{"permissions":{"download":true,"view":true},"group_id":"everyone"}],"classification":null,"title":"Region8-EasternSamar","count":199,"stream_id":388577,"contributor":{"url":"http://geocommons.com/users/80412","name":"Jun Payod"},"data_attributes":null,"calculation_params":null,"icon_link":null,"link":"http://geocommons.com/overlays/388577.json","extent":[125.178,10.72,125.951,12.2944],"geometry_types":["point"],"unique_name":null,"name":"Region8-EasternSamar","feature_count":199,"description":"","next_feature":null,"is_raster":false,"short_classification":"Y","stats":{},"features":[{"properties":{"name":"122731*San Julian CES","description":"","id":"agnt8zd4w8bo"},"type":"Feature","geometry":{"type":"Point","coordinates":[125.455544,11.753849]}},{"properties":{"name":"122726*Libas ES","description":"","id":"agnt8zdehk7y"},"type":"Feature","geometry":{"type":"Point","coordinates":[125.428848,11.74679]}},{"properties":{"name":"122727*Nena ES","description":"","id":"agnt8za2s1hz"},"type":"Feature","geometry":{"type":"Point","coordinates":[125.420006,11.766537]}},{"properties":{"name":"404707*East Visayan Institute","description":"","id":"agnt8z8hkdhj"},"type":"Feature","geometry":{"type":"Point","coordinates":[125.453354,11.75326]}},{"properties":{"name":"192507*Lunang PS","description":"","id":"agnt8zbbvm1l"},"type":"Feature","geometry":{"type":"Point","coordinates":[125.460648,11.742252]}},{"properties":{"name":"122413*Can-avid CES","description":"","id":"agnt8z4mafmo"},"type":"Feature","geometry":{"type":"Point","coordinates":[125.449684,11.997955]}},{"properties":{"name":"122416*Canteros ES","description":"","id":"agnt8zbmf4uq"},"type":"Feature","geometry":{"type":"Point","coordinates":[125.433609,11.981814]}},{"properties":{"name":"313521*Dapdap NTVHS","description":"","id":"agnt8z65cd74"},"type":"Feature","geometry":{"type":"Point","coordinates":[125.480171,12.068489]}},{"properties":{"name":"303499*Dolores NHS","description":"","id":"agnt8zdha6hj"},"type":"Feature","geometry":{"type":"Point","coordinates":[125.48098,12.039142]}},{"properties":{"name":"313501*Can-avid NHS","description":"","id":"agnt8zjvcxq5"},"type":"Feature","geometry":{"type":"Point","coordinates":[125.453911,12.002887]}},{"properties":{"name":"122775*Taft CES","description":"","id":"agnt8z7c4q14"},"type":"Feature","geometry":{"type":"Point","coordinates":[125.419098,11.900958]}},{"properties":{"name":"313511*Malinao IS*122768","description":"","id":"agnt8z8dmfc9"},"type":"Feature","geometry":{"type":"Point","coordinates":[125.342155,11.862647]}},{"properties":{"name":"122768*Malinao IS*313511","description":"","id":"agnt8zcfljd6"},"type":"Feature","geometry":{"type":"Point","coordinates":[125.343018,11.862143]}},{"properties":{"name":"122759*Batiawan ES","description":"","id":"agnt8zcorvec"},"type":"Feature","geometry":{"type":"Point","coordinates":[125.423866,11.944448]}},{"properties":{"name":"303506*Hilabaan NHS","description":"","id":"agnt8z4x0abb"},"type":"Feature","geometry":{"type":"Point","coordinates":[125.563774,12.053423]}},{"properties":{"name":"122636*Dalid ES","description":"","id":"agnt8z9k1c59"},"type":"Feature","geometry":{"type":"Point","coordinates":[125.469528,12.081624]}},{"properties":{"name":"303520*Oras NHS","description":"","id":"agnt8z7aynn7"},"type":"Feature","geometry":{"type":"Point","coordinates":[125.429359,12.130299]}},{"properties":{"name":"313506*Oras NAIS","description":"","id":"agnt8zbyksnt"},"type":"Feature","geometry":{"type":"Point","coordinates":[125.378036,12.163024]}},{"properties":{"name":"313517*Dao IS*122637","description":"","id":"agnt8zj4ntds"},"type":"Feature","geometry":{"type":"Point","coordinates":[125.429878,12.108313]}},{"properties":{"name":"122637*Dao ES*313517","description":"","id":"agnt8z7tjcjv"},"type":"Feature","geometry":{"type":"Point","coordinates":[125.430565,12.108648]}},{"properties":{"name":"303493*Alugan NSCHI","description":"","id":"agnt8zcnnj40"},"type":"Feature","geometry":{"type":"Point","coordinates":[125.480217,12.221456]}},{"properties":{"name":"303523*Samar NPOSA","description":"","id":"agnt8zhde5sd"},"type":"Feature","geometry":{"type":"Point","coordinates":[125.481133,12.220271]}},{"properties":{"name":"122325*Arteche CES","description":"","id":"agnt8zjic6sx"},"type":"Feature","geometry":{"type":"Point","coordinates":[125.37014,12.266876]}},{"properties":{"name":"303494*Arteche NHS","description":"","id":"agnt8z4bcvyr"},"type":"Feature","geometry":{"type":"Point","coordinates":[125.382843,12.261844]}},{"properties":{"name":"313520*Carapdapan NHS","description":"","id":"agnt8zijsfck"},"type":"Feature","geometry":{"type":"Point","coordinates":[125.410995,12.254128]}},{"properties":{"name":"303529*Taft NHS","description":"","id":"agnt8z56k796"},"type":"Feature","geometry":{"type":"Point","coordinates":[125.414558,11.905]}},{"properties":{"name":"303527*Sulat NHS","description":"","id":"agnt8zheuk6d"},"type":"Feature","geometry":{"type":"Point","coordinates":[125.452881,11.81258]}},{"properties":{"name":"122758*Sulat CES","description":"","id":"agnt8zg2amal"},"type":"Feature","geometry":{"type":"Point","coordinates":[125.454079,11.81405]}},{"properties":{"name":"122769*Mantang ES","description":"","id":"agnt8zd98pfc"},"type":"Feature","geometry":{"type":"Point","coordinates":[125.433998,11.867015]}},{"properties":{"name":"122751*San Francisco ES","description":"","id":"agnt8zi77umv"},"type":"Feature","geometry":{"type":"Point","coordinates":[125.464554,11.805019]}},{"properties":{"name":"122731*San Julian CES","description":"","id":"agnt8z6xwdy9"},"type":"Feature","geometry":{"type":"Point","coordinates":[125.455582,11.754017]}},{"properties":{"name":"303524*San Julian NHS","description":"","id":"agnt8z4bu07s"},"type":"Feature","geometry":{"type":"Point","coordinates":[125.451164,11.749731]}},{"properties":{"name":"313507*Nena NHS","description":"","id":"agnt8z6f70ib"},"type":"Feature","geometry":{"type":"Point","coordinates":[125.423744,11.773805]}},{"properties":{"name":"122722*Campidhan ES","description":"","id":"agnt8z7clabd"},"type":"Feature","geometry":{"type":"Point","coordinates":[125.412193,11.757378]}},{"properties":{"name":"122729*Putong ES","description":"","id":"agnt8zcdmftp"},"type":"Feature","geometry":{"type":"Point","coordinates":[125.344734,11.746202]}},{"properties":{"name":"122724*Casoroy ES","description":"","id":"agnt8zcludvq"},"type":"Feature","geometry":{"type":"Point","coordinates":[125.430862,11.779897]}},{"properties":{"name":"122725*Layog PS","description":"","id":"agnt8z8ozf68"},"type":"Feature","geometry":{"type":"Point","coordinates":[125.425156,11.786031]}},{"properties":{"name":"313518*Hinolaso NHS (Caglao-an Annex)","description":"","id":"agnt8z5cayoa"},"type":"Feature","geometry":{"type":"Point","coordinates":[125.268127,12.07235]}},{"properties":{"name":"303507*Hinolaso NHS","description":"","id":"agnt8z96nb02"},"type":"Feature","geometry":{"type":"Point","coordinates":[125.262505,12.069706]}},{"properties":{"name":"303515*Maslog NHS","description":"","id":"agnt8z9mpig0"},"type":"Feature","geometry":{"type":"Point","coordinates":[125.177536,12.090353]}},{"properties":{"name":"303519*Nicasio Alvarez MNHS","description":"","id":"agnt8zi1bh0z"},"type":"Feature","geometry":{"type":"Point","coordinates":[125.451851,12.147753]}},{"properties":{"name":"122775*San Vicente ES*313505","description":"","id":"agnt8zioaf3k"},"type":"Feature","geometry":{"type":"Point","coordinates":[125.466698,11.857355]}},{"properties":{"name":"313505*San Vicente IS*122755","description":"","id":"agnt8zi6d6je"},"type":"Feature","geometry":{"type":"Point","coordinates":[125.466103,11.856935]}},{"properties":{"name":"313519*Sta. Monica IS*122650","description":"","id":"agnt8z5u629t"},"type":"Feature","geometry":{"type":"Point","coordinates":[125.522057,12.165541]}},{"properties":{"name":"122650*Sta. Monica ES*313519","description":"","id":"agnt8zfewlpe"},"type":"Feature","geometry":{"type":"Point","coordinates":[125.390396,12.198429]}},{"properties":{"name":"122434*Hilabaan ES","description":"","id":"agnt8z6lnf3p"},"type":"Feature","geometry":{"type":"Point","coordinates":[125.565834,12.051744]}},{"properties":{"name":"313514*Maydolong NHS","description":"","id":"agnt8zdcc2u2"},"type":"Feature","geometry":{"type":"Point","coordinates":[125.497337,11.503912]}},{"properties":{"name":"122625*Maydolong CES","description":"","id":"agnt8zeucpw8"},"type":"Feature","geometry":{"type":"Point","coordinates":[125.501289,11.500464]}},{"properties":{"name":"122624*Maybocog ES","description":"","id":"agnt8zbhv6sk"},"type":"Feature","geometry":{"type":"Point","coordinates":[125.49099,11.513163]}},{"properties":{"name":"122623*Maramag ES","description":"","id":"agnt8z5lpdev"},"type":"Feature","geometry":{"type":"Point","coordinates":[125.526695,11.442003]}},{"properties":{"name":"303495*Balangkayan NHS","description":"","id":"agnt8zfypxy4"},"type":"Feature","geometry":{"type":"Point","coordinates":[125.493286,11.446998]}},{"properties":{"name":"122597*Minaanod ES","description":"","id":"agnt8zf5js1d"},"type":"Feature","geometry":{"type":"Point","coordinates":[125.550255,11.433338]}},{"properties":{"name":"303513*Llorente NHS","description":"","id":"agnt8z9ezjku"},"type":"Feature","geometry":{"type":"Point","coordinates":[125.541702,11.411274]}},{"properties":{"name":"122586*Banika ES","description":"","id":"agnt8zjvcs0w"},"type":"Feature","geometry":{"type":"Point","coordinates":[125.541451,11.411727]}},{"properties":{"name":"122594*Llorente CES","description":"","id":"agnt8zfcc7mx"},"type":"Feature","geometry":{"type":"Point","coordinates":[125.547775,11.410486]}},{"properties":{"name":"303505*Pedro E. Candido MNHS","description":"","id":"agnt8z7k2noa"},"type":"Feature","geometry":{"type":"Point","coordinates":[125.609436,11.331946]}},{"properties":{"name":"313523*Maydolong NHS (Lapgap Annex)","description":"","id":"agnt8z5pound"},"type":"Feature","geometry":{"type":"Point","coordinates":[125.420265,11.483389]}},{"properties":{"name":"122485*Hernani CES","description":"","id":"agnt8ziqm0nq"},"type":"Feature","geometry":{"type":"Point","coordinates":[125.606689,11.318481]}},{"properties":{"name":"303501*Gen. MacArthur NAS","description":"","id":"agnt8zaivtmd"},"type":"Feature","geometry":{"type":"Point","coordinates":[125.530472,11.221089]}},{"properties":{"name":"303528*Sto. Niño NHS","description":"","id":"agnt8zhoe91r"},"type":"Feature","geometry":{"type":"Point","coordinates":[125.433144,11.827534]}},{"properties":{"name":"192507*Lunang PS","description":"","id":"agnt8z640yhw"},"type":"Feature","geometry":{"type":"Point","coordinates":[125.458031,11.749227]}},{"properties":{"name":"122728*Pagbabangnan ES","description":"","id":"agnt8z727a9f"},"type":"Feature","geometry":{"type":"Point","coordinates":[125.458374,11.742504]}},{"properties":{"name":"122730*San Isidro ES","description":"","id":"agnt8ziwd9cd"},"type":"Feature","geometry":{"type":"Point","coordinates":[125.454941,11.725697]}},{"properties":{"name":"122732*San Miguel ES","description":"","id":"agnt8z8hxggb"},"type":"Feature","geometry":{"type":"Point","coordinates":[125.454079,11.735109]}},{"properties":{"name":"303516*Matarinao SOF","description":"","id":"agnt8zcqzzfr"},"type":"Feature","geometry":{"type":"Point","coordinates":[125.593384,11.225804]}},{"properties":{"name":"122701*Seguinon ES","description":"","id":"agnt8z9x8rkv"},"type":"Feature","geometry":{"type":"Point","coordinates":[125.584801,11.172087]}},{"properties":{"name":"313513*Barobo NHS","description":"","id":"agnt8zb3ez31"},"type":"Feature","geometry":{"type":"Point","coordinates":[125.513649,11.374863]}},{"properties":{"name":"122348*Guinob-an ES","description":"","id":"agnt8zh9ztrl"},"type":"Feature","geometry":{"type":"Point","coordinates":[125.281136,11.182359]}},{"properties":{"name":"303512*Lawaan NSCHI","description":"","id":"agnt8zgv23lw"},"type":"Feature","geometry":{"type":"Point","coordinates":[125.299248,11.141182]}},{"properties":{"name":"303497*Bolusao NHS","description":"","id":"agnt8zd4r7dz"},"type":"Feature","geometry":{"type":"Point","coordinates":[125.26062,11.130234]}},{"properties":{"name":"303496*Bobon NHS","description":"","id":"agnt8zhk0npu"},"type":"Feature","geometry":{"type":"Point","coordinates":[125.677757,11.089344]}},{"properties":{"name":"303518*Mercedes NHS","description":"","id":"agnt8zge8tw6"},"type":"Feature","geometry":{"type":"Point","coordinates":[125.712746,11.098988]}},{"properties":{"name":"303521*Quinapondan NHS","description":"","id":"agnt8z5l6thu"},"type":"Feature","geometry":{"type":"Point","coordinates":[125.518967,11.160971]}},{"properties":{"name":"122685*Quinapondan CES","description":"","id":"agnt8zf9b525"},"type":"Feature","geometry":{"type":"Point","coordinates":[125.521973,11.156677]}},{"properties":{"name":"122689*Sto. Niño ES","description":"","id":"agnt8z8foeat"},"type":"Feature","geometry":{"type":"Point","coordinates":[125.516479,11.12855]}},{"properties":{"name":"122514*Paya ES","description":"","id":"agnt8zbhpexz"},"type":"Feature","geometry":{"type":"Point","coordinates":[125.478951,11.12136]}},{"properties":{"name":"122674*Buenavista ES","description":"","id":"agnt8zaruguh"},"type":"Feature","geometry":{"type":"Point","coordinates":[125.537552,11.187496]}},{"properties":{"name":"122695*Karapdapan ES","description":"","id":"agnt8z7sbyy8"},"type":"Feature","geometry":{"type":"Point","coordinates":[125.644539,11.14135]}},{"properties":{"name":"303522*Salcedo NHS","description":"","id":"agnt8zgifl9q"},"type":"Feature","geometry":{"type":"Point","coordinates":[125.663979,11.149056]}},{"properties":{"name":"122349*Lawaan CES","description":"","id":"agnt8zgx421v"},"type":"Feature","geometry":{"type":"Point","coordinates":[125.303368,11.137814]}},{"properties":{"name":"122341*Balangiga CES","description":"","id":"agnt8zda89cw"},"type":"Feature","geometry":{"type":"Point","coordinates":[125.388123,11.109537]}},{"properties":{"name":"122510*Giporlos CES","description":"","id":"agnt8z6xt4zk"},"type":"Feature","geometry":{"type":"Point","coordinates":[125.448631,11.119833]}},{"properties":{"name":"303502*Giporlos NTS","description":"","id":"agnt8zghb224"},"type":"Feature","geometry":{"type":"Point","coordinates":[125.445137,11.120339]}},{"properties":{"name":"303514*Malabag NHS","description":"","id":"agnt8z7f7gvp"},"type":"Feature","geometry":{"type":"Point","coordinates":[125.448029,11.117501]}},{"properties":{"name":"122551*Sung-an ES","description":"","id":"agnt8ze2ryn1"},"type":"Feature","geometry":{"type":"Point","coordinates":[125.69149,11.043984]}},{"properties":{"name":"122555*Baras ES","description":"","id":"agnt8zdb86jz"},"type":"Feature","geometry":{"type":"Point","coordinates":[125.796051,10.986584]}},{"properties":{"name":"122524*Guiuan CES","description":"","id":"agnt8zk42seo"},"type":"Feature","geometry":{"type":"Point","coordinates":[125.724274,11.032085]}},{"properties":{"name":"313516*Manicani NHS","description":"","id":"agnt8zjf1c4f"},"type":"Feature","geometry":{"type":"Point","coordinates":[125.639694,10.98838]}},{"properties":{"name":"122561*Casuguran ES","description":"","id":"agnt8ze7a6a3"},"type":"Feature","geometry":{"type":"Point","coordinates":[125.722221,10.742416]}},{"properties":{"name":"122564*Inapulangan ES","description":"","id":"agnt8za50s2i"},"type":"Feature","geometry":{"type":"Point","coordinates":[125.662636,10.771581]}},{"properties":{"name":"303508*Homonhon NHS","description":"","id":"agnt8z78b42w"},"type":"Feature","geometry":{"type":"Point","coordinates":[125.776291,10.719984]}},{"properties":{"name":"122705*Asgad ES","description":"","id":"agnt8z7vm4zd"},"type":"Feature","geometry":{"type":"Point","coordinates":[125.674751,11.178486]}},{"properties":{"name":"122696*Lusod ES","description":"","id":"agnt8z5jhijj"},"type":"Feature","geometry":{"type":"Point","coordinates":[125.649094,11.191706]}},{"properties":{"name":"122350*Maslog ES","description":"","id":"agnt8zcbd74i"},"type":"Feature","geometry":{"type":"Point","coordinates":[125.334045,11.12535]}},{"properties":{"name":"303498*Camantang NHS","description":"","id":"agnt8zby03i6"},"type":"Feature","geometry":{"type":"Point","coordinates":[125.396919,11.984584]}},{"properties":{"name":"122455*Jicontol ES","description":"","id":"agnt8z6fb2zb"},"type":"Feature","geometry":{"type":"Point","coordinates":[125.296326,12.067524]}},{"properties":{"name":"122411*Caghalong PS","description":"","id":"agnt8z68p95r"},"type":"Feature","geometry":{"type":"Point","coordinates":[125.310402,12.051744]}},{"properties":{"name":"122513*Parena ES","description":"","id":"agnt8zh8kgra"},"type":"Feature","geometry":{"type":"Point","coordinates":[125.436104,11.116422]}},{"properties":{"name":"122515*Pres. Roxas ES","description":"","id":"agnt8zcujrxw"},"type":"Feature","geometry":{"type":"Point","coordinates":[125.433357,11.123244]}},{"properties":{"name":"122567*Pagnamitan ES","description":"","id":"agnt8z7y0cvf"},"type":"Feature","geometry":{"type":"Point","coordinates":[125.770721,11.00879]}},{"properties":{"name":"122565*Ngolos ES","description":"","id":"agnt8zjh8re2"},"type":"Feature","geometry":{"type":"Point","coordinates":[125.829208,10.963691]}},{"properties":{"name":"303509*Homonhon NHS (Sulangan Annex)","description":"","id":"agnt8zgyss9u"},"type":"Feature","geometry":{"type":"Point","coordinates":[125.826889,10.940265]}},{"properties":{"name":"122568*Sulangan CES","description":"","id":"agnt8zcsfncr"},"type":"Feature","geometry":{"type":"Point","coordinates":[125.827271,10.935461]}},{"properties":{"name":"122563*Habag ES","description":"","id":"agnt8zbey8em"},"type":"Feature","geometry":{"type":"Point","coordinates":[125.644928,10.779981]}},{"properties":{"name":"122557*Bitaugan ES","description":"","id":"agnt8z65m6j4"},"type":"Feature","geometry":{"type":"Point","coordinates":[125.710373,10.760398]}},{"properties":{"name":"303503*Guiuan NHS","description":"","id":"agnt8z83fchq"},"type":"Feature","geometry":{"type":"Point","coordinates":[125.71595,11.038382]}},{"properties":{"name":"404737*St. Mary's Academy of Guiuan","description":"","id":"agnt8zhp1w5f"},"type":"Feature","geometry":{"type":"Point","coordinates":[125.722496,11.031777]}},{"properties":{"name":"313508*Sulu-an IS","description":"","id":"agnt8z6ohb9o"},"type":"Feature","geometry":{"type":"Point","coordinates":[125.9506,10.759549]}},{"properties":{"name":"122569*Sulu-an ES","description":"","id":"agnt8z4chd79"},"type":"Feature","geometry":{"type":"Point","coordinates":[125.950577,10.759591]}},{"properties":{"name":"122522*Dalaragan PS","description":"","id":"agnt8z69ip1f"},"type":"Feature","geometry":{"type":"Point","coordinates":[125.759552,11.032106]}},{"properties":{"name":"122526*Salug ES","description":"","id":"agnt8zggpmjc"},"type":"Feature","geometry":{"type":"Point","coordinates":[125.744621,11.031432]}},{"properties":{"name":"122556*Barbo ES","description":"","id":"agnt8z8990m4"},"type":"Feature","geometry":{"type":"Point","coordinates":[125.751915,11.042636]}},{"properties":{"name":"122528*Sapao ES","description":"","id":"agnt8zeos7wm"},"type":"Feature","geometry":{"type":"Point","coordinates":[125.752434,11.055356]}},{"properties":{"name":"122570*Taytay ES","description":"","id":"agnt8zhxuz8y"},"type":"Feature","geometry":{"type":"Point","coordinates":[125.743202,11.048238]}},{"properties":{"name":"192518*Tagporo ES","description":"","id":"agnt8zabh3d2"},"type":"Feature","geometry":{"type":"Point","coordinates":[125.742859,11.045669]}},{"properties":{"name":"122541*Cogon ES","description":"","id":"agnt8zicjtcb"},"type":"Feature","geometry":{"type":"Point","coordinates":[125.731056,11.043984]}},{"properties":{"name":"122521*Campoyong ES","description":"","id":"agnt8z79ff37"},"type":"Feature","geometry":{"type":"Point","coordinates":[125.735825,11.026672]}},{"properties":{"name":"122560*Cantahay ES","description":"","id":"agnt8z4ipocu"},"type":"Feature","geometry":{"type":"Point","coordinates":[125.729172,11.032485]}},{"properties":{"name":"122523*Gahoy ES","description":"","id":"agnt8zbbkfag"},"type":"Feature","geometry":{"type":"Point","coordinates":[125.730583,11.05862]}},{"properties":{"name":"122543*Mayana ES","description":"","id":"agnt8zw7n8f6"},"type":"Feature","geometry":{"type":"Point","coordinates":[125.73082,11.059989]}},{"properties":{"name":"122552*Timala ES","description":"","id":"agnt8zt87hxq"},"type":"Feature","geometry":{"type":"Point","coordinates":[125.729683,11.062179]}},{"properties":{"name":"192521*Hagna PS","description":"","id":"agnt8znj6i9b"},"type":"Feature","geometry":{"type":"Point","coordinates":[125.728912,11.064622]}},{"properties":{"name":"122533*Bagua ES","description":"","id":"agnt8zyiu72a"},"type":"Feature","geometry":{"type":"Point","coordinates":[125.726898,11.066096]}},{"properties":{"name":"122534*Banahao ES","description":"","id":"agnt8ztbyi6s"},"type":"Feature","geometry":{"type":"Point","coordinates":[125.726295,11.068623]}},{"properties":{"name":"122520*Bungtod ES","description":"","id":"agnt8zqlrcu9"},"type":"Feature","geometry":{"type":"Point","coordinates":[125.741959,11.016941]}},{"properties":{"name":"313522*Arteche NHS (Concepcion Annex)","description":"","id":"agnt8zllsewz"},"type":"Feature","geometry":{"type":"Point","coordinates":[125.270317,12.229971]}},{"properties":{"name":"313523*Jipapad NHS","description":"","id":"agnt8zkyvr38"},"type":"Feature","geometry":{"type":"Point","coordinates":[125.23793,12.2856]}},{"properties":{"name":"122575*Jipapad CES","description":"","id":"agnt8zp26n5t"},"type":"Feature","geometry":{"type":"Point","coordinates":[125.235962,12.285799]}},{"properties":{"name":"122576*Jiwaran ES","description":"","id":"agnt8zz3me15"},"type":"Feature","geometry":{"type":"Point","coordinates":[125.240067,12.289563]}},{"properties":{"name":"122574*Dorillo ES","description":"","id":"agnt8zwswnrd"},"type":"Feature","geometry":{"type":"Point","coordinates":[125.216675,12.253457]}},{"properties":{"name":"122334*Catumsan ES","description":"","id":"agnt8zuaz1w4"},"type":"Feature","geometry":{"type":"Point","coordinates":[125.325508,12.263102]}},{"properties":{"name":"122334*Aguinaldo ES","description":"","id":"agnt8zw4uyog"},"type":"Feature","geometry":{"type":"Point","coordinates":[125.336449,12.268302]}},{"properties":{"name":"122337*Tangbo ES","description":"","id":"agnt8zna7vs5"},"type":"Feature","geometry":{"type":"Point","coordinates":[125.353058,12.269141]}},{"properties":{"name":"122336*Bato ES","description":"","id":"agnt8zwigi5s"},"type":"Feature","geometry":{"type":"Point","coordinates":[125.361984,12.269896]}},{"properties":{"name":"122330*Cagsalay ES","description":"","id":"agnt8zsqupkc"},"type":"Feature","geometry":{"type":"Point","coordinates":[125.317101,12.240204]}},{"properties":{"name":"122331*Campacion ES","description":"","id":"agnt8zyave3t"},"type":"Feature","geometry":{"type":"Point","coordinates":[125.309196,12.244985]}},{"properties":{"name":"122333*Casidman ES","description":"","id":"agnt8zuwr7wa"},"type":"Feature","geometry":{"type":"Point","coordinates":[125.289162,12.223847]}},{"properties":{"name":"122339*Tibalawon ES","description":"","id":"agnt8zo10fpy"},"type":"Feature","geometry":{"type":"Point","coordinates":[125.300362,12.23492]}},{"properties":{"name":"192501*Inayawan ES","description":"","id":"agnt8zsa8awi"},"type":"Feature","geometry":{"type":"Point","coordinates":[125.330658,12.225105]}},{"properties":{"name":"122335*Concepcion ES","description":"","id":"agnt8zzoqw3g"},"type":"Feature","geometry":{"type":"Point","coordinates":[125.269035,12.230977]}},{"properties":{"name":"122338*Tawagan ES","description":"","id":"agnt8zrd3f5i"},"type":"Feature","geometry":{"type":"Point","coordinates":[125.334602,12.217723]}},{"properties":{"name":"122328*Bigo ES","description":"","id":"agnt8zyn2z3d"},"type":"Feature","geometry":{"type":"Point","coordinates":[125.257011,12.240393]}},{"properties":{"name":"122327*Beri ES","description":"","id":"agnt8zqjgejv"},"type":"Feature","geometry":{"type":"Point","coordinates":[125.376839,12.294385]}},{"properties":{"name":"122329*Buenavista ES","description":"","id":"agnt8zwpnfmz"},"type":"Feature","geometry":{"type":"Point","coordinates":[125.434853,12.262683]}},{"properties":{"name":"122336*MacArthur ES","description":"","id":"agnt8zphbqhp"},"type":"Feature","geometry":{"type":"Point","coordinates":[125.279503,12.196415]}},{"properties":{"name":"122332*Carapdapan ES","description":"","id":"agnt8zpcv58o"},"type":"Feature","geometry":{"type":"Point","coordinates":[125.409752,12.253247]}},{"properties":{"name":"122340*Bacjao ES","description":"","id":"agnt8zznom2w"},"type":"Feature","geometry":{"type":"Point","coordinates":[125.434044,11.100968]}},{"properties":{"name":"122346*Cansumangkay ES","description":"","id":"agnt8zql6t29"},"type":"Feature","geometry":{"type":"Point","coordinates":[125.416573,11.108169]}},{"properties":{"name":"122353*San Miguel ES","description":"","id":"agnt900n0tkv"},"type":"Feature","geometry":{"type":"Point","coordinates":[125.382286,11.109979]}},{"properties":{"name":"122354*Sta. Rosa ES","description":"","id":"agnt8zs2zny4"},"type":"Feature","geometry":{"type":"Point","coordinates":[125.378769,11.140677]}},{"properties":{"name":"122345*Cag-olango ES","description":"","id":"agnt8zmer4vb"},"type":"Feature","geometry":{"type":"Point","coordinates":[125.374649,11.151803]}},{"properties":{"name":"122351*Maybunga ES","description":"","id":"agnt8zx0ziym"},"type":"Feature","geometry":{"type":"Point","coordinates":[125.323624,11.252406]}},{"properties":{"name":"122342*Bangon ES","description":"","id":"agnt8zmzjge4"},"type":"Feature","geometry":{"type":"Point","coordinates":[125.359436,11.190022]}},{"properties":{"name":"122347*Guinmaayohan ES","description":"","id":"agnt900j2vzq"},"type":"Feature","geometry":{"type":"Point","coordinates":[125.363487,11.167876]}},{"properties":{"name":"122621*Magsaysay PS","description":"","id":"agnt8zs0m5fr"},"type":"Feature","geometry":{"type":"Point","coordinates":[125.457947,11.447807]}},{"properties":{"name":"122607*Balogo ES","description":"","id":"agnt8zqjypx4"},"type":"Feature","geometry":{"type":"Point","coordinates":[125.470222,11.457061]}},{"properties":{"name":"122619*Julag PS","description":"","id":"agnt8zrzrvys"},"type":"Feature","geometry":{"type":"Point","coordinates":[125.486359,11.419793]}},{"properties":{"name":"122608*Bangon ES","description":"","id":"agnt8zvu3kn9"},"type":"Feature","geometry":{"type":"Point","coordinates":[125.473824,11.411716]}},{"properties":{"name":"122610*Caisawan ES","description":"","id":"agnt8zu3jzy1"},"type":"Feature","geometry":{"type":"Point","coordinates":[125.444641,11.4346]}},{"properties":{"name":"122614*Cantubi ES","description":"","id":"agnt8zr5jni6"},"type":"Feature","geometry":{"type":"Point","coordinates":[125.305595,11.371666]}},{"properties":{"name":"122408*Balagon ES","description":"","id":"agnt8znckttu"},"type":"Feature","geometry":{"type":"Point","coordinates":[125.25032,11.932524]}},{"properties":{"name":"122410*Boco ES","description":"","id":"agnt8zqkb2mu"},"type":"Feature","geometry":{"type":"Point","coordinates":[125.236588,11.965441]}},{"properties":{"name":"122414*Can-ilay ES","description":"","id":"agnt8ztodwgz"},"type":"Feature","geometry":{"type":"Point","coordinates":[125.334946,11.999025]}},{"properties":{"name":"122425*Salvacion ES","description":"","id":"agnt8zw511su"},"type":"Feature","geometry":{"type":"Point","coordinates":[125.31778,11.997178]}},{"properties":{"name":"122409*Baruk ES","description":"","id":"agnt8zkxxmal"},"type":"Feature","geometry":{"type":"Point","coordinates":[125.36602,11.969807]}},{"properties":{"name":"122412*Camantang ES","description":"","id":"agnt8zo5aqph"},"type":"Feature","geometry":{"type":"Point","coordinates":[125.395203,11.983913]}},{"properties":{"name":"122415*Cansangaya ES","description":"","id":"agnt8zminrgh"},"type":"Feature","geometry":{"type":"Point","coordinates":[125.440353,11.967666]}},{"properties":{"name":"122417*Carolina ES","description":"","id":"agnt8zrxi42u"},"type":"Feature","geometry":{"type":"Point","coordinates":[125.457497,12.018271]}},{"properties":{"name":"122426*Solong ES","description":"","id":"agnt9005ktg5"},"type":"Feature","geometry":{"type":"Point","coordinates":[125.409966,12.04805]}},{"properties":{"name":"122444*Tikling ES","description":"","id":"agnt8zkp9apy"},"type":"Feature","geometry":{"type":"Point","coordinates":[125.452705,12.035123]}},{"properties":{"name":"122450*Dampigan ES","description":"","id":"agnt8zzrh9y5"},"type":"Feature","geometry":{"type":"Point","coordinates":[125.432281,12.054598]}},{"properties":{"name":"122448*Cagtabon ES","description":"","id":"agnt8zs3gp3m"},"type":"Feature","geometry":{"type":"Point","coordinates":[125.394173,12.05913]}},{"properties":{"name":"122456*Libertad ES","description":"","id":"agnt900kzrbf"},"type":"Feature","geometry":{"type":"Point","coordinates":[125.385933,12.049394]}},{"properties":{"name":"122445*Aroganga ES","description":"","id":"agnt8zqg3fn7"},"type":"Feature","geometry":{"type":"Point","coordinates":[125.374084,12.042175]}},{"properties":{"name":"122452*Gap-ang ES","description":"","id":"agnt8zx4uc6a"},"type":"Feature","geometry":{"type":"Point","coordinates":[125.304398,12.063663]}},{"properties":{"name":"122469*Tan-awan ES","description":"","id":"agnt8zolgqbu"},"type":"Feature","geometry":{"type":"Point","coordinates":[125.405418,12.060557]}},{"properties":{"name":"122772*San Luis ES","description":"","id":"agnt8zmmgigt"},"type":"Feature","geometry":{"type":"Point","coordinates":[125.422501,11.93454]}},{"properties":{"name":"122770*Nato ES","description":"","id":"agnt8zu5pmc5"},"type":"Feature","geometry":{"type":"Point","coordinates":[125.420265,11.922279]}},{"properties":{"name":"192509*Pangabutan","description":"","id":"agnt8zp2bgi4"},"type":"Feature","geometry":{"type":"Point","coordinates":[125.411163,11.943777]}},{"properties":{"name":"122762*Bongdo PS","description":"","id":"agnt8zv2u5ls"},"type":"Feature","geometry":{"type":"Point","coordinates":[125.39975,11.913713]}},{"properties":{"name":"122765*Del Remedios ES","description":"","id":"agnt8zyyyw8x"},"type":"Feature","geometry":{"type":"Point","coordinates":[125.383354,11.939074]}},{"properties":{"name":"122760*Beto ES","description":"","id":"agnt8zr8qx2b"},"type":"Feature","geometry":{"type":"Point","coordinates":[125.386787,11.933532]}},{"properties":{"name":"122764*Danao ES","description":"","id":"agnt8zkww9jq"},"type":"Feature","geometry":{"type":"Point","coordinates":[125.387306,11.928997]}},{"properties":{"name":"122767*Mabuhay ES","description":"","id":"agnt8zvkj2ah"},"type":"Feature","geometry":{"type":"Point","coordinates":[125.356583,11.890365]}},{"properties":{"name":"122766*Gayam ES","description":"","id":"agnt8zrze7dh"},"type":"Feature","geometry":{"type":"Point","coordinates":[125.3619,11.884486]}},{"properties":{"name":"122761*Binaloan ES","description":"","id":"agnt8zkspe3y"},"type":"Feature","geometry":{"type":"Point","coordinates":[125.324135,11.856431]}},{"properties":{"name":"122774*San Rafael ES","description":"","id":"agnt8zvz99v1"},"type":"Feature","geometry":{"type":"Point","coordinates":[125.300102,11.830054]}},{"properties":{"name":"122773*San Pablo ES","description":"","id":"agnt8zklpmgo"},"type":"Feature","geometry":{"type":"Point","coordinates":[125.358643,11.876758]}},{"properties":{"name":"122771*Polangi ES","description":"","id":"agnt8zz9j2or"},"type":"Feature","geometry":{"type":"Point","coordinates":[125.417023,11.895656]}},{"properties":{"name":"192508*Dacul ES","description":"","id":"agnt8zltro7w"},"type":"Feature","geometry":{"type":"Point","coordinates":[125.425591,11.872223]}},{"properties":{"name":"122752*San Isidro ES","description":"","id":"agnt8zvq1o87"},"type":"Feature","geometry":{"type":"Point","coordinates":[125.433739,11.857355]}},{"properties":{"name":"122756*Sto. Niño","description":"","id":"agnt8zxwz1vc"},"type":"Feature","geometry":{"type":"Point","coordinates":[125.437172,11.842319]}},{"properties":{"name":"122757*Sto. Tomas ES","description":"","id":"agnt8zqbsqvn"},"type":"Feature","geometry":{"type":"Point","coordinates":[125.425415,11.845763]}},{"properties":{"name":"122753*San Juan ES","description":"","id":"agnt8zqg3kkf"},"type":"Feature","geometry":{"type":"Point","coordinates":[125.416489,11.823165]}},{"properties":{"name":"122750*Maglipay ES","description":"","id":"agnt8zsy2yox"},"type":"Feature","geometry":{"type":"Point","coordinates":[125.446274,11.815268]}},{"properties":{"name":"122751*San Francisco ES","description":"","id":"agnt8zn83bv5"},"type":"Feature","geometry":{"type":"Point","coordinates":[125.444298,11.793844]}},{"properties":{"name":"122749*Mabini ES","description":"","id":"agnt8zl1m2qu"},"type":"Feature","geometry":{"type":"Point","coordinates":[125.425842,11.794433]}},{"properties":{"name":"122746*A-et ES","description":"","id":"agnt8zwyhbww"},"type":"Feature","geometry":{"type":"Point","coordinates":[125.339241,11.786031]}},{"properties":{"name":"122748*Kandalakit ES","description":"","id":"agnt8zxojs90"},"type":"Feature","geometry":{"type":"Point","coordinates":[125.385422,11.808715]}}],"is_temporal":false,"author":{"url":null,"metadata":null,"contact_name":null,"contact_address":null,"source":null,"contact_phone":null},"source":null,"pagination":{"sort":null,"start":0,"total":199,"limit":1000000},"state":"complete","tags":"","published":"2014-08-16T22:47:38-04:00","id":388577}