{"type":"FeatureCollection","data_type":"Dataset","url_type":null,"permissions":[{"permissions":{"download":true,"view":true},"group_id":"everyone"}],"classification":null,"title":"\ngameface's places\n","count":22,"stream_id":39682,"contributor":{"url":"http://geocommons.com/users/11444","name":"platial"},"data_attributes":null,"calculation_params":null,"icon_link":null,"link":"http://geocommons.com/overlays/39682.json","extent":[-122.348,27.7963,-71.4087,47.6207],"geometry_types":["point"],"unique_name":null,"name":"\ngameface's places\n","feature_count":22,"description":"\nA Map by Gameface\n\n\n","next_feature":null,"is_raster":false,"short_classification":"Y","stats":{},"features":[{"properties":{"name":"end of road trip aka home","description":"Posted by Gamefacemequon, wisconsin<a title=\"Built for Community Mapping\" href=\"http://www.platial.com\"><img src=\"http://media.geocommons.com/platial/images/logotype_small.jpg\"></a>","id":"a6cxw9yv7c4t"},"type":"Feature","geometry":{"type":"Point","coordinates":[-88.033444,43.235981]}},{"properties":{"name":"extension of fourth stop","description":"Posted by GamefaceLA, Santa Monica,it\\'s L.A. what do i have to say!<a title=\"Built for Community Mapping\" href=\"http://www.platial.com\"><img src=\"http://media.geocommons.com/platial/images/logotype_small.jpg\"></a>","id":"a6cxw9z3e2ba"},"type":"Feature","geometry":{"type":"Point","coordinates":[-118.243392,34.052219]}},{"properties":{"name":"extension of fourth stop","description":"Posted by Gamefaceedwards air force base californiafriends in the area work here<a title=\"Built for Community Mapping\" href=\"http://www.platial.com\"><img src=\"http://media.geocommons.com/platial/images/logotype_small.jpg\"></a>","id":"a6cxwa3ery2c"},"type":"Feature","geometry":{"type":"Point","coordinates":[-117.93016,34.90512]}},{"properties":{"name":"extension of fourth trip","description":"Posted by Gamefacelancaster californiathis is the closest city to where friends work exciting night life(not really)<a title=\"Built for Community Mapping\" href=\"http://www.platial.com\"><img src=\"http://media.geocommons.com/platial/images/logotype_small.jpg\"></a>","id":"a6cxw9tjvql8"},"type":"Feature","geometry":{"type":"Point","coordinates":[-118.14481,34.6989]}},{"properties":{"name":"extension of second stop","description":"Posted by Gamefacejackpot nevedalost my ass off here at the casino\\'s<a title=\"Built for Community Mapping\" href=\"http://www.platial.com\"><img src=\"http://media.geocommons.com/platial/images/logotype_small.jpg\"></a>","id":"a6cxw9qfbc22"},"type":"Feature","geometry":{"type":"Point","coordinates":[-114.673095,41.981999]}},{"properties":{"name":"extension of second stop","description":"Posted by GamefaceBoise<a title=\"Built for Community Mapping\" href=\"http://www.platial.com\"><img src=\"http://media.geocommons.com/platial/images/logotype_small.jpg\"></a>","id":"a6cxwa6p1tju"},"type":"Feature","geometry":{"type":"Point","coordinates":[-116.2025,43.613611]}},{"properties":{"name":"extension of third stop","description":"Posted by GamefaceCorpus Christi Texaswas during spring break time what else do i have to say<a title=\"Built for Community Mapping\" href=\"http://www.platial.com\"><img src=\"http://media.geocommons.com/platial/images/logotype_small.jpg\"></a>","id":"a6cxw9wjt89n"},"type":"Feature","geometry":{"type":"Point","coordinates":[-97.40355,27.79629]}},{"properties":{"name":"extension of third trip","description":"Posted by Gamefacenew orleans louisannadrove down here for weekend just to eat and drink<a title=\"Built for Community Mapping\" href=\"http://www.platial.com\"><img src=\"http://media.geocommons.com/platial/images/logotype_small.jpg\"></a>","id":"a6cxw9v9qqop"},"type":"Feature","geometry":{"type":"Point","coordinates":[-90.025126,30.042487]}},{"properties":{"name":"extension of thried stop","description":"Posted by Gamefaceaustingot bored with the night life in san antonio so drove up here to party with the college kids<a title=\"Built for Community Mapping\" href=\"http://www.platial.com\"><img src=\"http://media.geocommons.com/platial/images/logotype_small.jpg\"></a>","id":"a6cxwa20y0r6"},"type":"Feature","geometry":{"type":"Point","coordinates":[-97.742778,30.266944]}},{"properties":{"name":"first stop","description":"Posted by Gamefaceseatle washington<a title=\"Built for Community Mapping\" href=\"http://www.platial.com\"><img src=\"http://media.geocommons.com/platial/images/logotype_small.jpg\"></a>","id":"a6cxw9s0o8j5"},"type":"Feature","geometry":{"type":"Point","coordinates":[-122.347533,47.620716]}},{"properties":{"name":"fourth stop","description":"Posted by GamefaceLas Vegas, NVthe weather in wisconsin sucked so i escaped after four days. plus helped friend take care of wedding stuff<a title=\"Built for Community Mapping\" href=\"http://www.platial.com\"><img src=\"http://media.geocommons.com/platial/images/logotype_small.jpg\"></a>","id":"a6cxw9t1loy9"},"type":"Feature","geometry":{"type":"Point","coordinates":[-115.136389,36.175]}},{"properties":{"name":"july 4","description":"Posted by GamefaceBrooklyni love New York<a title=\"Built for Community Mapping\" href=\"http://www.platial.com\"><img src=\"http://media.geocommons.com/platial/images/logotype_small.jpg\"></a>","id":"a6cxw9qa23qk"},"type":"Feature","geometry":{"type":"Point","coordinates":[-73.95,40.65]}},{"properties":{"name":"july 4","description":"Posted by GamefaceAtlantic City, NJ<a title=\"Built for Community Mapping\" href=\"http://www.platial.com\"><img src=\"http://media.geocommons.com/platial/images/logotype_small.jpg\"></a>","id":"a6cxwa36q1tl"},"type":"Feature","geometry":{"type":"Point","coordinates":[-74.423333,39.364167]}},{"properties":{"name":"lost stop on road trip to wisconsin","description":"Posted by Gamefacechicagovisted more cousins<a title=\"Built for Community Mapping\" href=\"http://www.platial.com\"><img src=\"http://media.geocommons.com/platial/images/logotype_small.jpg\"></a>","id":"a6cxwa5tuxdc"},"type":"Feature","geometry":{"type":"Point","coordinates":[-87.65,41.85]}},{"properties":{"name":"mothers day trip","description":"Posted by Gamefacenew buffalo, mifour winds casino pretty nice thanks for the money<a title=\"Built for Community Mapping\" href=\"http://www.platial.com\"><img src=\"http://media.geocommons.com/platial/images/logotype_small.jpg\"></a>","id":"a6cxwa647ma1"},"type":"Feature","geometry":{"type":"Point","coordinates":[-86.743889,41.793889]}},{"properties":{"name":"mothers day weekend","description":"Posted by GamefaceDetroit, MI<a title=\"Built for Community Mapping\" href=\"http://www.platial.com\"><img src=\"http://media.geocommons.com/platial/images/logotype_small.jpg\"></a>","id":"a6cxwa5p7o4p"},"type":"Feature","geometry":{"type":"Point","coordinates":[-83.045833,42.331389]}},{"properties":{"name":"road trip back to wisconsin","description":"Posted by Gamefaceshreveport laonce again lost more money on the river boat casino\\'s<a title=\"Built for Community Mapping\" href=\"http://www.platial.com\"><img src=\"http://media.geocommons.com/platial/images/logotype_small.jpg\"></a>","id":"a6cxw9tdevcu"},"type":"Feature","geometry":{"type":"Point","coordinates":[-93.74728,32.51461]}},{"properties":{"name":"road trip home","description":"Posted by Gamefacewalnut grove, MS, USAstopped to see moms sisters and my cousins<a title=\"Built for Community Mapping\" href=\"http://www.platial.com\"><img src=\"http://media.geocommons.com/platial/images/logotype_small.jpg\"></a>","id":"a6cxwa3o7cwp"},"type":"Feature","geometry":{"type":"Point","coordinates":[-89.46205,32.598808]}},{"properties":{"name":"road trip home","description":"Posted by GamefaceLittle Rock, United Statesstopped here explored and dipped didn\\'t want to get lynched by the locals or shot by gang members<a title=\"Built for Community Mapping\" href=\"http://www.platial.com\"><img src=\"http://media.geocommons.com/platial/images/logotype_small.jpg\"></a>","id":"a6cxw9xkm9i4"},"type":"Feature","geometry":{"type":"Point","coordinates":[-92.27448,34.74865]}},{"properties":{"name":"second stop","description":"Posted by Gamefacemt. home idaho<a title=\"Built for Community Mapping\" href=\"http://www.platial.com\"><img src=\"http://media.geocommons.com/platial/images/logotype_small.jpg\"></a>","id":"a6cxw9yr7ov8"},"type":"Feature","geometry":{"type":"Point","coordinates":[-115.686086,43.137338]}},{"properties":{"name":"suwoo","description":"Posted by Gamefaceprovidence R.I.<a title=\"Built for Community Mapping\" href=\"http://www.platial.com\"><img src=\"http://media.geocommons.com/platial/images/logotype_small.jpg\"></a>","id":"a6cxwa02crps"},"type":"Feature","geometry":{"type":"Point","coordinates":[-71.408718,41.826956]}},{"properties":{"name":"third stop","description":"Posted by Gamefacesan antoniovisited family<a title=\"Built for Community Mapping\" href=\"http://www.platial.com\"><img src=\"http://media.geocommons.com/platial/images/logotype_small.jpg\"></a>","id":"a6cxwa21dwp0"},"type":"Feature","geometry":{"type":"Point","coordinates":[-98.493333,29.423889]}}],"is_temporal":false,"author":{"url":"http://www.platial.com/map/292766","metadata":null,"contact_name":"gameface","contact_address":null,"source":"platial:gameface","contact_phone":null},"source":"http://www.platial.com/map/292766","pagination":{"sort":null,"start":0,"total":22,"limit":1000000},"state":"complete","tags":"platial,platial:id=292766,platial:user=gameface","published":"2010-04-24T16:00:00Z","id":39682}