{"type":"FeatureCollection","data_type":"Dataset","url_type":null,"permissions":[{"permissions":{"download":true,"view":true},"group_id":"everyone"}],"classification":null,"title":"\nSourced Map: it\n","count":145,"stream_id":40257,"contributor":{"url":"http://geocommons.com/users/11444","name":"platial"},"data_attributes":null,"calculation_params":null,"icon_link":null,"link":"http://geocommons.com/overlays/40257.json","extent":[-122.841,26.1265,-70.6152,47.9163],"geometry_types":["point"],"unique_name":null,"name":"\nSourced Map: it\n","feature_count":145,"description":"\nA Map by Yahoolocal\n\n\n","next_feature":null,"is_raster":false,"short_classification":"Y","stats":{},"features":[{"properties":{"name":"Bridgeman Incorporated","description":"Posted by Yahoolocal106 April Ave, Carmi, IL Bridgeman Incorporated (618) 382-5344<a title=\"Built for Community Mapping\" href=\"http://www.platial.com\"><img src=\"http://media.geocommons.com/platial/images/logotype_small.jpg\"></a>","id":"a6a22vspz2rp"},"type":"Feature","geometry":{"type":"Point","coordinates":[-88.174605,38.080211]}},{"properties":{"name":"Cleaning Services","description":"Posted by Yahoolocal10 N La Canada Dr, Green Valley, AZ Cleaning Services (520) 648-6377<a title=\"Built for Community Mapping\" href=\"http://www.platial.com\"><img src=\"http://media.geocommons.com/platial/images/logotype_small.jpg\"></a>","id":"a6a22viueecm"},"type":"Feature","geometry":{"type":"Point","coordinates":[-110.995128,31.870761]}},{"properties":{"name":"Louis Tussaud's Plaza Wax-Museum","description":"Posted by Yahoolocal301 Alamo Plz, San Antonio, TX Louis Tussaud\\'s Plaza Wax-Museum (210) 224-9299<a title=\"Built for Community Mapping\" href=\"http://www.platial.com\"><img src=\"http://media.geocommons.com/platial/images/logotype_small.jpg\"></a>","id":"a6a22vtzk9ey"},"type":"Feature","geometry":{"type":"Point","coordinates":[-98.487134,29.425354]}},{"properties":{"name":"R","description":"Posted by Yahoolocal7005 Calhoun Memorial Hwy, Easley, SC R (864) 859-3244<a title=\"Built for Community Mapping\" href=\"http://www.platial.com\"><img src=\"http://media.geocommons.com/platial/images/logotype_small.jpg\"></a>","id":"a6a22vpec2kj"},"type":"Feature","geometry":{"type":"Point","coordinates":[-82.593609,34.820319]}},{"properties":{"name":"R Block Tax Service","description":"Posted by Yahoolocal107 Anderson St, Belton, SC R Block Tax Service (864) 338-7844<a title=\"Built for Community Mapping\" href=\"http://www.platial.com\"><img src=\"http://media.geocommons.com/platial/images/logotype_small.jpg\"></a>","id":"a6a22vs2v4e8"},"type":"Feature","geometry":{"type":"Point","coordinates":[-82.49347,34.522007]}},{"properties":{"name":"S Kettle Corn","description":"Posted by Yahoolocal2771 E Iris Pl, Vail, AZ S Kettle Corn (520) 762-0223<a title=\"Built for Community Mapping\" href=\"http://www.platial.com\"><img src=\"http://media.geocommons.com/platial/images/logotype_small.jpg\"></a>","id":"a6a22vktm02a"},"type":"Feature","geometry":{"type":"Point","coordinates":[-110.713043,31.968802]}},{"properties":{"name":"Weed Control","description":"Posted by Yahoolocal7353 E Broadway Blvd, Tucson, AZ Weed Control (520) 886-6534<a title=\"Built for Community Mapping\" href=\"http://www.platial.com\"><img src=\"http://media.geocommons.com/platial/images/logotype_small.jpg\"></a>","id":"a6a22vs5zqf1"},"type":"Feature","geometry":{"type":"Point","coordinates":[-110.835787,32.22109]}},{"properties":{"name":"Weed Control","description":"Posted by Yahoolocal3809 N Oracle Rd, Tucson, AZ Weed Control (520) 888-3082<a title=\"Built for Community Mapping\" href=\"http://www.platial.com\"><img src=\"http://media.geocommons.com/platial/images/logotype_small.jpg\"></a>","id":"a6a22vpav1n6"},"type":"Feature","geometry":{"type":"Point","coordinates":[-110.978258,32.275915]}},{"properties":{"name":"Around to It Concierge Service","description":"Posted by Yahoolocal4528 W Sun Quest St, Tucson, AZAround to It Concierge Service (520) 490-2263<a title=\"Built for Community Mapping\" href=\"http://www.platial.com\"><img src=\"http://media.geocommons.com/platial/images/logotype_small.jpg\"></a>","id":"a6a22vfsr97z"},"type":"Feature","geometry":{"type":"Point","coordinates":[-111.061595,32.352946]}},{"properties":{"name":"Autozone","description":"Posted by Yahoolocal1605 W Main St, Carmi, ILAutozone (618) 382-5113<a title=\"Built for Community Mapping\" href=\"http://www.platial.com\"><img src=\"http://media.geocommons.com/platial/images/logotype_small.jpg\"></a>","id":"a6a22vtb52s2"},"type":"Feature","geometry":{"type":"Point","coordinates":[-88.183284,38.07675]}},{"properties":{"name":"Axiom IT Solutions","description":"Posted by Yahoolocal2000 S Russell St Ste 4, Missoula, MTAxiom IT Solutions (406) 880-6060<a title=\"Built for Community Mapping\" href=\"http://www.platial.com\"><img src=\"http://media.geocommons.com/platial/images/logotype_small.jpg\"></a>","id":"a6a22vkn3hdv"},"type":"Feature","geometry":{"type":"Point","coordinates":[-114.018326,46.852393]}},{"properties":{"name":"Bannister Music Center","description":"Posted by Yahoolocal<img src=\"http://media.geocommons.com/platial/images/categories/ICON_culture_verD.gif\"> 309 E Greer St, Honea Path, SCBannister Music Center (864) 369-6757<a title=\"Built for Community Mapping\" href=\"http://www.platial.com\"><img src=\"http://media.geocommons.com/platial/images/logotype_small.jpg\"></a>","id":"a6a22vnioubw"},"type":"Feature","geometry":{"type":"Point","coordinates":[-82.389079,34.445835]}},{"properties":{"name":"Baptist Upstate Physicians","description":"Posted by Yahoolocal104 Fleetwood Dr, Easley, SCBaptist Upstate Physicians (864) 859-6331<a title=\"Built for Community Mapping\" href=\"http://www.platial.com\"><img src=\"http://media.geocommons.com/platial/images/logotype_small.jpg\"></a>","id":"a6a22vrhh5do"},"type":"Feature","geometry":{"type":"Point","coordinates":[-82.603878,34.840398]}},{"properties":{"name":"Best Western Green Valley","description":"Posted by Yahoolocal111 S La Canada Dr, Green Valley, AZBest Western Green Valley (520) 625-2250<a title=\"Built for Community Mapping\" href=\"http://www.platial.com\"><img src=\"http://media.geocommons.com/platial/images/logotype_small.jpg\"></a>","id":"a6a22vqkjojg"},"type":"Feature","geometry":{"type":"Point","coordinates":[-110.995362,31.869389]}},{"properties":{"name":"Binary IT Solutions Incorporated","description":"Posted by Yahoolocal123 Nw 4th St, Evansville, INBinary IT Solutions Incorporated (812) 434-4880<a title=\"Built for Community Mapping\" href=\"http://www.platial.com\"><img src=\"http://media.geocommons.com/platial/images/logotype_small.jpg\"></a>","id":"a6a22vs551p4"},"type":"Feature","geometry":{"type":"Point","coordinates":[-87.571978,37.972604]}},{"properties":{"name":"Black Cow Coffee House","description":"Posted by Yahoolocal<img src=\"http://media.geocommons.com/platial/images/categories/ICON_coffee_verD.gif\"> 3 N Main St, Honea Path, SCBlack Cow Coffee House (864) 369-2269<a title=\"Built for Community Mapping\" href=\"http://www.platial.com\"><img src=\"http://media.geocommons.com/platial/images/logotype_small.jpg\"></a>","id":"a6a22vvui58b"},"type":"Feature","geometry":{"type":"Point","coordinates":[-82.392955,34.446508]}},{"properties":{"name":"Book-It Repertory Theater","description":"Posted by Yahoolocal<img src=\"http://media.geocommons.com/platial/images/categories/ICON_culture_verD.gif\"> 305 Harrison St, Seattle, WABook-It Repertory Theater (206) 216-0877<a title=\"Built for Community Mapping\" href=\"http://www.platial.com\"><img src=\"http://media.geocommons.com/platial/images/logotype_small.jpg\"></a>","id":"a6a22vmah7hy"},"type":"Feature","geometry":{"type":"Point","coordinates":[-122.360687,47.62232]}},{"properties":{"name":"Brook's Exxon Station","description":"Posted by Yahoolocal52 N Main St, Honea Path, SCBrook\\'s Exxon Station (864) 369-7361<a title=\"Built for Community Mapping\" href=\"http://www.platial.com\"><img src=\"http://media.geocommons.com/platial/images/logotype_small.jpg\"></a>","id":"a6a22vve04p7"},"type":"Feature","geometry":{"type":"Point","coordinates":[-82.39343,34.447458]}},{"properties":{"name":"Canoa Hills Golf Course","description":"Posted by Yahoolocal<img src=\"http://media.geocommons.com/platial/images/categories/ICON_recreation_verD.gif\"> 1401 W Calle Pueblo, Green Valley, AZCanoa Hills Golf Course (520) 648-1880<a title=\"Built for Community Mapping\" href=\"http://www.platial.com\"><img src=\"http://media.geocommons.com/platial/images/logotype_small.jpg\"></a>","id":"a6a22vmtx76b"},"type":"Feature","geometry":{"type":"Point","coordinates":[-111.014582,31.824063]}},{"properties":{"name":"Canoa Homes","description":"Posted by Yahoolocal16135 S Sycamore Ridge Trl, Vail, AZCanoa Homes (520) 762-3216<a title=\"Built for Community Mapping\" href=\"http://www.platial.com\"><img src=\"http://media.geocommons.com/platial/images/logotype_small.jpg\"></a>","id":"a6a22vk3yr9n"},"type":"Feature","geometry":{"type":"Point","coordinates":[-110.802576,31.962348]}},{"properties":{"name":"Church of Christ","description":"Posted by Yahoolocal1606 Kimberly Ave, Carmi, ILChurch of Christ (618) 382-2273<a title=\"Built for Community Mapping\" href=\"http://www.platial.com\"><img src=\"http://media.geocommons.com/platial/images/logotype_small.jpg\"></a>","id":"a6a22vqgj946"},"type":"Feature","geometry":{"type":"Point","coordinates":[-88.184517,38.071145]}},{"properties":{"name":"Cm It Solutions","description":"Posted by Yahoolocal2440 Michael Dr, West Linn, ORCm It Solutions (503) 655-9027<a title=\"Built for Community Mapping\" href=\"http://www.platial.com\"><img src=\"http://media.geocommons.com/platial/images/logotype_small.jpg\"></a>","id":"a6a22vpdosh7"},"type":"Feature","geometry":{"type":"Point","coordinates":[-122.666702,45.352527]}},{"properties":{"name":"DEVORE HARDWARE","description":"Posted by Yahoolocal, Honea Path, SCDEVORE HARDWARE (864) 369-0067<a title=\"Built for Community Mapping\" href=\"http://www.platial.com\"><img src=\"http://media.geocommons.com/platial/images/logotype_small.jpg\"></a>","id":"a6a22vk5bbkr"},"type":"Feature","geometry":{"type":"Point","coordinates":[-82.392944,34.446445]}},{"properties":{"name":"Desert Diamond Casino 1","description":"Posted by Yahoolocal1100 W Pima Mine Rd, Sahuarita, AZDesert Diamond Casino 1 (520) 294-7777<a title=\"Built for Community Mapping\" href=\"http://www.platial.com\"><img src=\"http://media.geocommons.com/platial/images/logotype_small.jpg\"></a>","id":"a6a22vrj0poc"},"type":"Feature","geometry":{"type":"Point","coordinates":[-110.993748,32.001356]}},{"properties":{"name":"Do It Right Transmissions","description":"Posted by Yahoolocal4024 Broadway Ave, Evansville, INDo It Right Transmissions (812) 401-4456<a title=\"Built for Community Mapping\" href=\"http://www.platial.com\"><img src=\"http://media.geocommons.com/platial/images/logotype_small.jpg\"></a>","id":"a6a22vk549dx"},"type":"Feature","geometry":{"type":"Point","coordinates":[-87.625399,37.960494]}},{"properties":{"name":"Do It With Icing","description":"Posted by Yahoolocal7240 Clairemont Mesa Blvd, San Diego, CADo It With Icing (858) 268-1234<a title=\"Built for Community Mapping\" href=\"http://www.platial.com\"><img src=\"http://media.geocommons.com/platial/images/logotype_small.jpg\"></a>","id":"a6a22vnl0ucm"},"type":"Feature","geometry":{"type":"Point","coordinates":[-117.161664,32.832722]}},{"properties":{"name":"Do It Yourself Documents, LLC","description":"Posted by Yahoolocal1819 S Commons, Federal Way, WADo It Yourself Documents, LLC (253) 946-0325<a title=\"Built for Community Mapping\" href=\"http://www.platial.com\"><img src=\"http://media.geocommons.com/platial/images/logotype_small.jpg\"></a>","id":"a6a22vq601k7"},"type":"Feature","geometry":{"type":"Point","coordinates":[-122.304567,47.313597]}},{"properties":{"name":"Emagyne IT Web Design","description":"Posted by Yahoolocal127 Howard Ln, Anderson, SCEmagyne IT Web Design (864) 642-4775<a title=\"Built for Community Mapping\" href=\"http://www.platial.com\"><img src=\"http://media.geocommons.com/platial/images/logotype_small.jpg\"></a>","id":"a6a22vtlzdpl"},"type":"Feature","geometry":{"type":"Point","coordinates":[-82.617742,34.488116]}},{"properties":{"name":"Expressway Chevrolet","description":"Posted by Yahoolocal4000 W In-62, Mt Vernon, INExpressway Chevrolet (812) 838-0876<a title=\"Built for Community Mapping\" href=\"http://www.platial.com\"><img src=\"http://media.geocommons.com/platial/images/logotype_small.jpg\"></a>","id":"a6a22vla9ymm"},"type":"Feature","geometry":{"type":"Point","coordinates":[-86.524334,38.235815]}},{"properties":{"name":"Fife You-Store-It","description":"Posted by Yahoolocal4509 20th St E, Fife, WAFife You-Store-It (253) 922-0141<a title=\"Built for Community Mapping\" href=\"http://www.platial.com\"><img src=\"http://media.geocommons.com/platial/images/logotype_small.jpg\"></a>","id":"a6a22vr4o31w"},"type":"Feature","geometry":{"type":"Point","coordinates":[-122.368497,47.239013]}},{"properties":{"name":"Fix-It Construction","description":"Posted by Yahoolocal1429 W Franklin St, Evansville, INFix-It Construction (812) 428-0050<a title=\"Built for Community Mapping\" href=\"http://www.platial.com\"><img src=\"http://media.geocommons.com/platial/images/logotype_small.jpg\"></a>","id":"a6a22vme2wma"},"type":"Feature","geometry":{"type":"Point","coordinates":[-87.584444,37.980355]}},{"properties":{"name":"Georges DO It Best","description":"Posted by Yahoolocal145 River St, Manistique, MIGeorges DO It Best (906) 341-5066<a title=\"Built for Community Mapping\" href=\"http://www.platial.com\"><img src=\"http://media.geocommons.com/platial/images/logotype_small.jpg\"></a>","id":"a6a22vngtk2a"},"type":"Feature","geometry":{"type":"Point","coordinates":[-86.247512,45.959556]}},{"properties":{"name":"Hav-It Industries","description":"Posted by Yahoolocal409 Brewster St W, Harvey, NDHav-It Industries (701) 324-4637<a title=\"Built for Community Mapping\" href=\"http://www.platial.com\"><img src=\"http://media.geocommons.com/platial/images/logotype_small.jpg\"></a>","id":"a6a22vnz0fun"},"type":"Feature","geometry":{"type":"Point","coordinates":[-99.938999,47.76769]}},{"properties":{"name":"Hensons Fix It","description":"Posted by Yahoolocal817 High St, Eldorado, ILHensons Fix It (618) 273-3960<a title=\"Built for Community Mapping\" href=\"http://www.platial.com\"><img src=\"http://media.geocommons.com/platial/images/logotype_small.jpg\"></a>","id":"a6a22vnp1j4k"},"type":"Feature","geometry":{"type":"Point","coordinates":[-88.433707,37.810931]}},{"properties":{"name":"Holiday Inn Express Green Valley","description":"Posted by Yahoolocal<img src=\"http://media.geocommons.com/platial/images/categories/ICON_lodging_verD.gif\"> 19200 S Frontage Rd, Green Valley, AZHoliday Inn Express Green Valley (520) 625-0900<a title=\"Built for Community Mapping\" href=\"http://www.platial.com\"><img src=\"http://media.geocommons.com/platial/images/logotype_small.jpg\"></a>","id":"a6a22vjtzcel"},"type":"Feature","geometry":{"type":"Point","coordinates":[-110.985197,31.909382]}},{"properties":{"name":"How Sweet It Was Vintage Clthg","description":"Posted by Yahoolocal419 N 4th Ave, Tucson, AZHow Sweet It Was Vintage Clthg (520) 623-9854<a title=\"Built for Community Mapping\" href=\"http://www.platial.com\"><img src=\"http://media.geocommons.com/platial/images/logotype_small.jpg\"></a>","id":"a6a22vsk0s3o"},"type":"Feature","geometry":{"type":"Point","coordinates":[-110.965572,32.226681]}},{"properties":{"name":"I Sold It","description":"Posted by Yahoolocal3419 N Green River Rd, Evansville, INI Sold It (812) 476-4763<a title=\"Built for Community Mapping\" href=\"http://www.platial.com\"><img src=\"http://media.geocommons.com/platial/images/logotype_small.jpg\"></a>","id":"a6a22vpw7loq"},"type":"Feature","geometry":{"type":"Point","coordinates":[-87.49226,38.009819]}},{"properties":{"name":"I Sold It on Ebay","description":"Posted by Yahoolocal7684 Sw Nyberg St, Tualatin, ORI Sold It on Ebay (503) 691-6209<a title=\"Built for Community Mapping\" href=\"http://www.platial.com\"><img src=\"http://media.geocommons.com/platial/images/logotype_small.jpg\"></a>","id":"a6a22vnzqsvj"},"type":"Feature","geometry":{"type":"Point","coordinates":[-122.755958,45.382592]}},{"properties":{"name":"If It's Paper","description":"Posted by Yahoolocal2116 Augusta St, Greenville, SCIf It\\'s Paper (864) 233-6438<a title=\"Built for Community Mapping\" href=\"http://www.platial.com\"><img src=\"http://media.geocommons.com/platial/images/logotype_small.jpg\"></a>","id":"a6a22vg49vu4"},"type":"Feature","geometry":{"type":"Point","coordinates":[-82.394368,34.824675]}},{"properties":{"name":"If Jesus Can't Fix It Neither Can We","description":"Posted by Yahoolocal2020 S Kentucky Ave, Evansville, INIf Jesus Can\\'t Fix It Neither Can We (812) 422-0406<a title=\"Built for Community Mapping\" href=\"http://www.platial.com\"><img src=\"http://media.geocommons.com/platial/images/logotype_small.jpg\"></a>","id":"a6a22vunsxjx"},"type":"Feature","geometry":{"type":"Point","coordinates":[-87.54807,37.949276]}},{"properties":{"name":"Imagine It! the Children's Museum of Atlanta","description":"Posted by Yahoolocal<img src=\"http://media.geocommons.com/platial/images/categories/ICON_culture_verD.gif\"> 275 Centennial Olympic Park Dr Nw, Atlanta, GAImagine It! the Children\\'s Museum of Atlanta (404) 659-5437<a title=\"Built for Community Mapping\" href=\"http://www.platial.com\"><img src=\"http://media.geocommons.com/platial/images/logotype_small.jpg\"></a>","id":"a6a22vqqpa8x"},"type":"Feature","geometry":{"type":"Point","coordinates":[-84.391434,33.761844]}},{"properties":{"name":"Inspect It First","description":"Posted by Yahoolocal6851 Sw Glenwood Ct, Wilsonville, ORInspect It First (503) 682-3033<a title=\"Built for Community Mapping\" href=\"http://www.platial.com\"><img src=\"http://media.geocommons.com/platial/images/logotype_small.jpg\"></a>","id":"a6a22vh0qmse"},"type":"Feature","geometry":{"type":"Point","coordinates":[-122.747898,45.312232]}},{"properties":{"name":"It","description":"Posted by Yahoolocal6491 Sunset Strip Ste 5, Sunrise, FLIt (954) 572-7411<a title=\"Built for Community Mapping\" href=\"http://www.platial.com\"><img src=\"http://media.geocommons.com/platial/images/logotype_small.jpg\"></a>","id":"a6a22vtwr5v0"},"type":"Feature","geometry":{"type":"Point","coordinates":[-80.235983,26.154778]}},{"properties":{"name":"It","description":"Posted by Yahoolocal400 Nw 73rd Ave, Plantation, FLIt (954) 797-2216<a title=\"Built for Community Mapping\" href=\"http://www.platial.com\"><img src=\"http://media.geocommons.com/platial/images/logotype_small.jpg\"></a>","id":"a6a22vv1qz91"},"type":"Feature","geometry":{"type":"Point","coordinates":[-80.245132,26.126525]}},{"properties":{"name":"It","description":"Posted by Yahoolocal971 Powersville Rd, Byron, GAIt (478) 956-6717<a title=\"Built for Community Mapping\" href=\"http://www.platial.com\"><img src=\"http://media.geocommons.com/platial/images/logotype_small.jpg\"></a>","id":"a6a22vk5wb1k"},"type":"Feature","geometry":{"type":"Point","coordinates":[-83.780158,32.626611]}},{"properties":{"name":"It Nexus Incorporated","description":"Posted by Yahoolocal4811 N Avenida De La Colina, Tucson, AZIt Nexus Incorporated (520) 760-2405<a title=\"Built for Community Mapping\" href=\"http://www.platial.com\"><img src=\"http://media.geocommons.com/platial/images/logotype_small.jpg\"></a>","id":"a6a22vqvn44b"},"type":"Feature","geometry":{"type":"Point","coordinates":[-110.770543,32.295099]}},{"properties":{"name":"It's A Grind","description":"Posted by Yahoolocal8260 N Cortaro Rd, Tucson, AZIt\\'s A Grind (520) 469-7400<a title=\"Built for Community Mapping\" href=\"http://www.platial.com\"><img src=\"http://media.geocommons.com/platial/images/logotype_small.jpg\"></a>","id":"a6a22vpx8g45"},"type":"Feature","geometry":{"type":"Point","coordinates":[-111.09279,32.35617]}},{"properties":{"name":"It's A Grind","description":"Posted by Yahoolocal2162 E Willow St, Signal Hill, CAIt\\'s A Grind (562) 997-0755<a title=\"Built for Community Mapping\" href=\"http://www.platial.com\"><img src=\"http://media.geocommons.com/platial/images/logotype_small.jpg\"></a>","id":"a6a22vshlx6u"},"type":"Feature","geometry":{"type":"Point","coordinates":[-118.165817,33.804341]}},{"properties":{"name":"It's All Arranged LLC","description":"Posted by Yahoolocal16125 Sw Railroad St, Sherwood, ORIt\\'s All Arranged LLC (503) 625-6754<a title=\"Built for Community Mapping\" href=\"http://www.platial.com\"><img src=\"http://media.geocommons.com/platial/images/logotype_small.jpg\"></a>","id":"a6a22vt14415"},"type":"Feature","geometry":{"type":"Point","coordinates":[-122.841222,45.355771]}},{"properties":{"name":"It's Greek to ME Restaurant","description":"Posted by Yahoolocal<img src=\"http://media.geocommons.com/platial/images/categories/ICON_food_verD.gif\"> 500 E Round Grove Rd, #310, Lewisville, TXIt\\'s Greek to ME Restaurant (972) 459-9798<a title=\"Built for Community Mapping\" href=\"http://www.platial.com\"><img src=\"http://media.geocommons.com/platial/images/logotype_small.jpg\"></a>","id":"a6a22vmi1uaf"},"type":"Feature","geometry":{"type":"Point","coordinates":[-96.977102,33.004615]}},{"properties":{"name":"It-Guardian Incorporated","description":"Posted by Yahoolocal1155 N Silverbell Rd, Tucson, AZIt-Guardian Incorporated (520) 740-1235<a title=\"Built for Community Mapping\" href=\"http://www.platial.com\"><img src=\"http://media.geocommons.com/platial/images/logotype_small.jpg\"></a>","id":"a6a22vm907cz"},"type":"Feature","geometry":{"type":"Point","coordinates":[-111.004697,32.236328]}},{"properties":{"name":"Juice It Up!","description":"Posted by Yahoolocal26921 Aliso Creek Rd, Aliso Viejo, CAJuice It Up! (949) 448-0486<a title=\"Built for Community Mapping\" href=\"http://www.platial.com\"><img src=\"http://media.geocommons.com/platial/images/logotype_small.jpg\"></a>","id":"a6a22vgfkrsb"},"type":"Feature","geometry":{"type":"Point","coordinates":[-117.723506,33.572018]}},{"properties":{"name":"Juice It Up!","description":"Posted by Yahoolocal7475 E Broadway Blvd, Tucson, AZJuice It Up! (520) 731-2234<a title=\"Built for Community Mapping\" href=\"http://www.platial.com\"><img src=\"http://media.geocommons.com/platial/images/logotype_small.jpg\"></a>","id":"a6a22vte1l0b"},"type":"Feature","geometry":{"type":"Point","coordinates":[-110.832989,32.221076]}},{"properties":{"name":"Just Faux It","description":"Posted by Yahoolocal3400 Interstate Dr, Evansville, INJust Faux It (812) 473-3339<a title=\"Built for Community Mapping\" href=\"http://www.platial.com\"><img src=\"http://media.geocommons.com/platial/images/logotype_small.jpg\"></a>","id":"a6a22vfx69nj"},"type":"Feature","geometry":{"type":"Point","coordinates":[-87.472815,38.008956]}},{"properties":{"name":"Just Fix It Home Repairs","description":"Posted by Yahoolocal201 Tomassee Ave, Greenville, SCJust Fix It Home Repairs (864) 271-2553<a title=\"Built for Community Mapping\" href=\"http://www.platial.com\"><img src=\"http://media.geocommons.com/platial/images/logotype_small.jpg\"></a>","id":"a6a22vpyv64i"},"type":"Feature","geometry":{"type":"Point","coordinates":[-82.395421,34.820215]}},{"properties":{"name":"Kids Wear It Again","description":"Posted by Yahoolocal1519 Whitehall Rd, Anderson, SCKids Wear It Again (864) 222-0246<a title=\"Built for Community Mapping\" href=\"http://www.platial.com\"><img src=\"http://media.geocommons.com/platial/images/logotype_small.jpg\"></a>","id":"a6a22vswig0h"},"type":"Feature","geometry":{"type":"Point","coordinates":[-82.706682,34.52938]}},{"properties":{"name":"Let It Bead","description":"Posted by Yahoolocal733 Sw Alder St, Portland, ORLet It Bead (503) 228-1882<a title=\"Built for Community Mapping\" href=\"http://www.platial.com\"><img src=\"http://media.geocommons.com/platial/images/logotype_small.jpg\"></a>","id":"a6a22vgzn0ij"},"type":"Feature","geometry":{"type":"Point","coordinates":[-122.67958,45.520103]}},{"properties":{"name":"Let It Roll Bike Shop","description":"Posted by Yahoolocal<img src=\"http://media.geocommons.com/platial/images/categories/ICON_shopping_verD.gif\"> 3130 W Balboa Blvd, Newport Beach, CALet It Roll Bike Shop (949) 675-3136<a title=\"Built for Community Mapping\" href=\"http://www.platial.com\"><img src=\"http://media.geocommons.com/platial/images/logotype_small.jpg\"></a>","id":"a6a22voz4m4u"},"type":"Feature","geometry":{"type":"Point","coordinates":[-117.932321,33.614535]}},{"properties":{"name":"Let's Face It Skin Care","description":"Posted by Yahoolocal15 W Lewis Plz, Greenville, SCLet\\'s Face It Skin Care (864) 233-4090<a title=\"Built for Community Mapping\" href=\"http://www.platial.com\"><img src=\"http://media.geocommons.com/platial/images/logotype_small.jpg\"></a>","id":"a6a22vg71i3d"},"type":"Feature","geometry":{"type":"Point","coordinates":[-82.398887,34.82796]}},{"properties":{"name":"Mailbox It","description":"Posted by Yahoolocal15943 Sw Hall Blvd, Portland, ORMailbox It (503) 624-4806<a title=\"Built for Community Mapping\" href=\"http://www.platial.com\"><img src=\"http://media.geocommons.com/platial/images/logotype_small.jpg\"></a>","id":"a6a22vhi7604"},"type":"Feature","geometry":{"type":"Point","coordinates":[-122.764567,45.404966]}},{"properties":{"name":"Mr Fix It","description":"Posted by Yahoolocal4 Fulton St, Greenville, SCMr Fix It (864) 567-7444<a title=\"Built for Community Mapping\" href=\"http://www.platial.com\"><img src=\"http://media.geocommons.com/platial/images/logotype_small.jpg\"></a>","id":"a6a22vs3ersr"},"type":"Feature","geometry":{"type":"Point","coordinates":[-82.423521,34.85031]}},{"properties":{"name":"Mr Fix It","description":"Posted by Yahoolocal, Anderson, SCMr Fix It (864) 934-5225<a title=\"Built for Community Mapping\" href=\"http://www.platial.com\"><img src=\"http://media.geocommons.com/platial/images/logotype_small.jpg\"></a>","id":"a6a22vpo12l6"},"type":"Feature","geometry":{"type":"Point","coordinates":[-82.645012,34.521158]}},{"properties":{"name":"Mr Fix It","description":"Posted by Yahoolocal, Sarasota, FLMr Fix It (941) 922-0608<a title=\"Built for Community Mapping\" href=\"http://www.platial.com\"><img src=\"http://media.geocommons.com/platial/images/logotype_small.jpg\"></a>","id":"a6a22vmgbmxu"},"type":"Feature","geometry":{"type":"Point","coordinates":[-82.527888,27.338536]}},{"properties":{"name":"Mr Fix-It Drywall Repair","description":"Posted by Yahoolocal6903 Montauk Cir, Lake Oswego, ORMr Fix-It Drywall Repair (503) 697-9395<a title=\"Built for Community Mapping\" href=\"http://www.platial.com\"><img src=\"http://media.geocommons.com/platial/images/logotype_small.jpg\"></a>","id":"a6a22vq8h8c1"},"type":"Feature","geometry":{"type":"Point","coordinates":[-122.745785,45.388288]}},{"properties":{"name":"Murphy's DO It Center","description":"Posted by Yahoolocal600 N Commercial St, Harrisburg, ILMurphy\\'s DO It Center (618) 252-1111<a title=\"Built for Community Mapping\" href=\"http://www.platial.com\"><img src=\"http://media.geocommons.com/platial/images/logotype_small.jpg\"></a>","id":"a6a22vp1zpwu"},"type":"Feature","geometry":{"type":"Point","coordinates":[-88.526653,37.743268]}},{"properties":{"name":"Nail Trix","description":"Posted by Yahoolocal1325 W Duval Mine Rd, Green Valley, AZNail Trix (520) 399-0100<a title=\"Built for Community Mapping\" href=\"http://www.platial.com\"><img src=\"http://media.geocommons.com/platial/images/logotype_small.jpg\"></a>","id":"a6a22vou7osw"},"type":"Feature","geometry":{"type":"Point","coordinates":[-110.994217,31.90173]}},{"properties":{"name":"No Mistaking It","description":"Posted by Yahoolocal10909 Parker Ln, Evansville, INNo Mistaking It (812) 985-9797<a title=\"Built for Community Mapping\" href=\"http://www.platial.com\"><img src=\"http://media.geocommons.com/platial/images/logotype_small.jpg\"></a>","id":"a6a22vlwthpk"},"type":"Feature","geometry":{"type":"Point","coordinates":[-87.717603,38.039712]}},{"properties":{"name":"Northwest It Service","description":"Posted by Yahoolocal15115 Sw Sequoia Pkwy, Tigard, ORNorthwest It Service (503) 603-0932<a title=\"Built for Community Mapping\" href=\"http://www.platial.com\"><img src=\"http://media.geocommons.com/platial/images/logotype_small.jpg\"></a>","id":"a6a22vofzobj"},"type":"Feature","geometry":{"type":"Point","coordinates":[-122.746845,45.40966]}},{"properties":{"name":"Pack It Up","description":"Posted by Yahoolocal, Anderson, SCPack It Up (864) 224-4889<a title=\"Built for Community Mapping\" href=\"http://www.platial.com\"><img src=\"http://media.geocommons.com/platial/images/logotype_small.jpg\"></a>","id":"a6a22vh2oxq5"},"type":"Feature","geometry":{"type":"Point","coordinates":[-82.645012,34.521158]}},{"properties":{"name":"Pack-It-Up","description":"Posted by Yahoolocal, Greenville, SCPack-It-Up (864) 888-8325<a title=\"Built for Community Mapping\" href=\"http://www.platial.com\"><img src=\"http://media.geocommons.com/platial/images/logotype_small.jpg\"></a>","id":"a6a22vpmml0l"},"type":"Feature","geometry":{"type":"Point","coordinates":[-82.391246,34.854967]}},{"properties":{"name":"Pagoda II Chinese Restaurant","description":"Posted by Yahoolocal<img src=\"http://media.geocommons.com/platial/images/categories/ICON_food_verD.gif\"> 125 W Main St, Pickens, SCPagoda II Chinese Restaurant (864) 878-1010<a title=\"Built for Community Mapping\" href=\"http://www.platial.com\"><img src=\"http://media.geocommons.com/platial/images/logotype_small.jpg\"></a>","id":"a6a22vl2i2e7"},"type":"Feature","geometry":{"type":"Point","coordinates":[-82.709113,34.883304]}},{"properties":{"name":"Park-It-Market","description":"Posted by Yahoolocal6504 Martin Way E, Olympia, WAPark-It-Market (360) 459-7275<a title=\"Built for Community Mapping\" href=\"http://www.platial.com\"><img src=\"http://media.geocommons.com/platial/images/logotype_small.jpg\"></a>","id":"a6a22vphzyx7"},"type":"Feature","geometry":{"type":"Point","coordinates":[-122.795206,47.050639]}},{"properties":{"name":"Pickens County-Its","description":"Posted by Yahoolocal415 Ann St, Pickens, SCPickens County-Its (864) 878-8700<a title=\"Built for Community Mapping\" href=\"http://www.platial.com\"><img src=\"http://media.geocommons.com/platial/images/logotype_small.jpg\"></a>","id":"a6a22vmlh64j"},"type":"Feature","geometry":{"type":"Point","coordinates":[-82.710524,34.889927]}},{"properties":{"name":"Plan-It Travel Incorporated","description":"Posted by Yahoolocal522 E Howard St, Hibbing, MNPlan-It Travel Incorporated (218) 263-8313<a title=\"Built for Community Mapping\" href=\"http://www.platial.com\"><img src=\"http://media.geocommons.com/platial/images/logotype_small.jpg\"></a>","id":"a6a22vnv5xih"},"type":"Feature","geometry":{"type":"Point","coordinates":[-92.936218,47.42751]}},{"properties":{"name":"Plant on It Landscape","description":"Posted by Yahoolocal1217 W County Road 250 N, Rockport, INPlant on It Landscape (812) 437-5268<a title=\"Built for Community Mapping\" href=\"http://www.platial.com\"><img src=\"http://media.geocommons.com/platial/images/logotype_small.jpg\"></a>","id":"a6a22vrch2wh"},"type":"Feature","geometry":{"type":"Point","coordinates":[-87.077799,37.923163]}},{"properties":{"name":"Plant-It Nursery","description":"Posted by Yahoolocal1433 Pearman Dairy Rd, Anderson, SCPlant-It Nursery (864) 231-0910<a title=\"Built for Community Mapping\" href=\"http://www.platial.com\"><img src=\"http://media.geocommons.com/platial/images/logotype_small.jpg\"></a>","id":"a6a22vfx8qic"},"type":"Feature","geometry":{"type":"Point","coordinates":[-82.694276,34.526006]}},{"properties":{"name":"Play It Again Sports","description":"Posted by Yahoolocal<img src=\"http://media.geocommons.com/platial/images/categories/ICON_recreation_verD.gif\"> 2219 Paul Bunyan Dr Nw, Bemidji, MNPlay It Again Sports (218) 759-9225<a title=\"Built for Community Mapping\" href=\"http://www.platial.com\"><img src=\"http://media.geocommons.com/platial/images/logotype_small.jpg\"></a>","id":"a6a22vuj8n60"},"type":"Feature","geometry":{"type":"Point","coordinates":[-94.912023,47.495839]}},{"properties":{"name":"Play It Again Sports","description":"Posted by Yahoolocal<img src=\"http://media.geocommons.com/platial/images/categories/ICON_recreation_verD.gif\"> 7280 E Broadway Blvd, Tucson, AZPlay It Again Sports (520) 296-6888<a title=\"Built for Community Mapping\" href=\"http://www.platial.com\"><img src=\"http://media.geocommons.com/platial/images/logotype_small.jpg\"></a>","id":"a6a22vsdzaz3"},"type":"Feature","geometry":{"type":"Point","coordinates":[-110.837357,32.220918]}},{"properties":{"name":"Play It Again Sports","description":"Posted by Yahoolocal<img src=\"http://media.geocommons.com/platial/images/categories/ICON_recreation_verD.gif\"> 1234 N Pleasantburg Dr, Greenville, SCPlay It Again Sports (864) 242-2424<a title=\"Built for Community Mapping\" href=\"http://www.platial.com\"><img src=\"http://media.geocommons.com/platial/images/logotype_small.jpg\"></a>","id":"a6a22vnrg7cz"},"type":"Feature","geometry":{"type":"Point","coordinates":[-82.35915,34.873262]}},{"properties":{"name":"Play It Again Sports","description":"Posted by Yahoolocal<img src=\"http://media.geocommons.com/platial/images/categories/ICON_recreation_verD.gif\"> 86 E Francis Ave, Spokane, WAPlay It Again Sports (509) 484-1551<a title=\"Built for Community Mapping\" href=\"http://www.platial.com\"><img src=\"http://media.geocommons.com/platial/images/logotype_small.jpg\"></a>","id":"a6a22vr3wg6d"},"type":"Feature","geometry":{"type":"Point","coordinates":[-117.408913,47.715066]}},{"properties":{"name":"Play It Again Sports","description":"Posted by Yahoolocal<img src=\"http://media.geocommons.com/platial/images/categories/ICON_recreation_verD.gif\"> 1803 S Washington St, Grand Forks, NDPlay It Again Sports (701) 795-1424<a title=\"Built for Community Mapping\" href=\"http://www.platial.com\"><img src=\"http://media.geocommons.com/platial/images/logotype_small.jpg\"></a>","id":"a6a22vft7kq9"},"type":"Feature","geometry":{"type":"Point","coordinates":[-97.044618,47.902918]}},{"properties":{"name":"Play It Again Sports","description":"Posted by Yahoolocal<img src=\"http://media.geocommons.com/platial/images/categories/ICON_recreation_verD.gif\"> 3640 E Colorado Blvd, Pasadena, CAPlay It Again Sports (626) 405-9988<a title=\"Built for Community Mapping\" href=\"http://www.platial.com\"><img src=\"http://media.geocommons.com/platial/images/logotype_small.jpg\"></a>","id":"a6a22vhms7ru"},"type":"Feature","geometry":{"type":"Point","coordinates":[-118.075026,34.14627]}},{"properties":{"name":"Play It Again Sports","description":"Posted by Yahoolocal<img src=\"http://media.geocommons.com/platial/images/categories/ICON_recreation_verD.gif\"> 833 N Green River Rd, Evansville, INPlay It Again Sports (812) 473-2445<a title=\"Built for Community Mapping\" href=\"http://www.platial.com\"><img src=\"http://media.geocommons.com/platial/images/logotype_small.jpg\"></a>","id":"a6a22vn41xa0"},"type":"Feature","geometry":{"type":"Point","coordinates":[-87.492605,37.984353]}},{"properties":{"name":"Play It Again Sports","description":"Posted by Yahoolocal<img src=\"http://media.geocommons.com/platial/images/categories/ICON_recreation_verD.gif\"> 10355 Ne Halsey St, #A, Portland, ORPlay It Again Sports (503) 254-4993<a title=\"Built for Community Mapping\" href=\"http://www.platial.com\"><img src=\"http://media.geocommons.com/platial/images/logotype_small.jpg\"></a>","id":"a6a22vh6pm6k"},"type":"Feature","geometry":{"type":"Point","coordinates":[-122.555959,45.533536]}},{"properties":{"name":"Play It Again Sports","description":"Posted by Yahoolocal<img src=\"http://media.geocommons.com/platial/images/categories/ICON_recreation_verD.gif\"> 4128 N Oracle Rd, Tucson, AZPlay It Again Sports (520) 293-2010<a title=\"Built for Community Mapping\" href=\"http://www.platial.com\"><img src=\"http://media.geocommons.com/platial/images/logotype_small.jpg\"></a>","id":"a6a22vuyey43"},"type":"Feature","geometry":{"type":"Point","coordinates":[-110.977937,32.281488]}},{"properties":{"name":"Play It Again Sports","description":"Posted by Yahoolocal<img src=\"http://media.geocommons.com/platial/images/categories/ICON_recreation_verD.gif\"> 1256 W Arrowhead Rd, Duluth, MNPlay It Again Sports (218) 724-1700<a title=\"Built for Community Mapping\" href=\"http://www.platial.com\"><img src=\"http://media.geocommons.com/platial/images/logotype_small.jpg\"></a>","id":"a6a22vgwhgy9"},"type":"Feature","geometry":{"type":"Point","coordinates":[-92.09662,46.822279]}},{"properties":{"name":"Play It Again Sports","description":"Posted by Yahoolocal<img src=\"http://media.geocommons.com/platial/images/categories/ICON_recreation_verD.gif\"> 126 Belknap St, Superior, WIPlay It Again Sports (715) 392-3700<a title=\"Built for Community Mapping\" href=\"http://www.platial.com\"><img src=\"http://media.geocommons.com/platial/images/logotype_small.jpg\"></a>","id":"a6a22vjcx8i7"},"type":"Feature","geometry":{"type":"Point","coordinates":[-92.080282,46.72056]}},{"properties":{"name":"Play It Again Sports","description":"Posted by Yahoolocal<img src=\"http://media.geocommons.com/platial/images/categories/ICON_recreation_verD.gif\"> 3501 Clemson Blvd, Anderson, SCPlay It Again Sports (864) 231-9268<a title=\"Built for Community Mapping\" href=\"http://www.platial.com\"><img src=\"http://media.geocommons.com/platial/images/logotype_small.jpg\"></a>","id":"a6a22vqwhtyq"},"type":"Feature","geometry":{"type":"Point","coordinates":[-82.68002,34.552912]}},{"properties":{"name":"Play It Again Sports","description":"Posted by Yahoolocal<img src=\"http://media.geocommons.com/platial/images/categories/ICON_recreation_verD.gif\"> 2501 45th St S, Fargo, NDPlay It Again Sports (701) 293-1721<a title=\"Built for Community Mapping\" href=\"http://www.platial.com\"><img src=\"http://media.geocommons.com/platial/images/logotype_small.jpg\"></a>","id":"a6a22vfvq9mt"},"type":"Feature","geometry":{"type":"Point","coordinates":[-96.86207,46.838943]}},{"properties":{"name":"Play It Again Sports","description":"Posted by Yahoolocal<img src=\"http://media.geocommons.com/platial/images/categories/ICON_recreation_verD.gif\"> 2111 N Pleasantburg Dr, Greenville, SCPlay It Again Sports (864) 242-2424<a title=\"Built for Community Mapping\" href=\"http://www.platial.com\"><img src=\"http://media.geocommons.com/platial/images/logotype_small.jpg\"></a>","id":"a6a22vtpo2nb"},"type":"Feature","geometry":{"type":"Point","coordinates":[-82.376154,34.89028]}},{"properties":{"name":"Play It Again Sports","description":"Posted by Yahoolocal<img src=\"http://media.geocommons.com/platial/images/categories/ICON_recreation_verD.gif\"> 30 Orchard Park Dr, Greenville, SCPlay It Again Sports (864) 676-0522<a title=\"Built for Community Mapping\" href=\"http://www.platial.com\"><img src=\"http://media.geocommons.com/platial/images/logotype_small.jpg\"></a>","id":"a6a22vpcwsm1"},"type":"Feature","geometry":{"type":"Point","coordinates":[-82.333912,34.856932]}},{"properties":{"name":"Pump It Up","description":"Posted by Yahoolocal6600 Frito Lay Dr, Evansville, INPump It Up (812) 471-7867<a title=\"Built for Community Mapping\" href=\"http://www.platial.com\"><img src=\"http://media.geocommons.com/platial/images/logotype_small.jpg\"></a>","id":"a6a22vfqs7f6"},"type":"Feature","geometry":{"type":"Point","coordinates":[-87.472082,38.007743]}},{"properties":{"name":"Pump It Up of Tacoma","description":"Posted by Yahoolocal3610 S Pine St Ste A, Tacoma, WAPump It Up of Tacoma (253) 752-5867<a title=\"Built for Community Mapping\" href=\"http://www.platial.com\"><img src=\"http://media.geocommons.com/platial/images/logotype_small.jpg\"></a>","id":"a6a22vvexrun"},"type":"Feature","geometry":{"type":"Point","coordinates":[-122.473564,47.226051]}},{"properties":{"name":"Pump It Up of Tucson","description":"Posted by Yahoolocal3248 N Freeway Industrial Loop, Tucson, AZPump It Up of Tucson (520) 888-9198<a title=\"Built for Community Mapping\" href=\"http://www.platial.com\"><img src=\"http://media.geocommons.com/platial/images/logotype_small.jpg\"></a>","id":"a6a22vgp1w28"},"type":"Feature","geometry":{"type":"Point","coordinates":[-111.005628,32.265636]}},{"properties":{"name":"Ragazzi Italian Restaurant","description":"Posted by Yahoolocal<img src=\"http://media.geocommons.com/platial/images/categories/ICON_food_verD.gif\"> 101 S La Canada Dr, Green Valley, AZRagazzi Italian Restaurant (520) 399-2040<a title=\"Built for Community Mapping\" href=\"http://www.platial.com\"><img src=\"http://media.geocommons.com/platial/images/logotype_small.jpg\"></a>","id":"a6a22vjnqgrf"},"type":"Feature","geometry":{"type":"Point","coordinates":[-110.995334,31.869568]}},{"properties":{"name":"Read It Again","description":"Posted by Yahoolocal3630 Peachtree Pky, Suwanee, GARead It Again (770) 232-9331<a title=\"Built for Community Mapping\" href=\"http://www.platial.com\"><img src=\"http://media.geocommons.com/platial/images/logotype_small.jpg\"></a>","id":"a6a22vprqvst"},"type":"Feature","geometry":{"type":"Point","coordinates":[-84.16706,34.07095]}},{"properties":{"name":"Redneck Engineering","description":"Posted by Yahoolocal107 Nix Rd, Liberty, SCRedneck Engineering (864) 843-3001<a title=\"Built for Community Mapping\" href=\"http://www.platial.com\"><img src=\"http://media.geocommons.com/platial/images/logotype_small.jpg\"></a>","id":"a6a22vw1ee5i"},"type":"Feature","geometry":{"type":"Point","coordinates":[-82.746888,34.802259]}},{"properties":{"name":"Rent It Here","description":"Posted by Yahoolocal1557 Laurens Rd, Greenville, SCRent It Here (864) 242-7368<a title=\"Built for Community Mapping\" href=\"http://www.platial.com\"><img src=\"http://media.geocommons.com/platial/images/logotype_small.jpg\"></a>","id":"a6a22vgc5m3h"},"type":"Feature","geometry":{"type":"Point","coordinates":[-82.360352,34.842158]}},{"properties":{"name":"Rent It Here","description":"Posted by Yahoolocal218 College St, Greenville, SCRent It Here (864) 242-7368<a title=\"Built for Community Mapping\" href=\"http://www.platial.com\"><img src=\"http://media.geocommons.com/platial/images/logotype_small.jpg\"></a>","id":"a6a22vmn8wyx"},"type":"Feature","geometry":{"type":"Point","coordinates":[-82.39957,34.854845]}},{"properties":{"name":"Rent It Here","description":"Posted by Yahoolocal1092 S Pendleton St, Easley, SCRent It Here (864) 306-7368<a title=\"Built for Community Mapping\" href=\"http://www.platial.com\"><img src=\"http://media.geocommons.com/platial/images/logotype_small.jpg\"></a>","id":"a6a22vp21nnq"},"type":"Feature","geometry":{"type":"Point","coordinates":[-82.602365,34.81194]}},{"properties":{"name":"Results IT","description":"Posted by Yahoolocal, Lake Oswego, ORResults IT (503) 620-3221<a title=\"Built for Community Mapping\" href=\"http://www.platial.com\"><img src=\"http://media.geocommons.com/platial/images/logotype_small.jpg\"></a>","id":"a6a22vi8irap"},"type":"Feature","geometry":{"type":"Point","coordinates":[-122.70777,45.424491]}},{"properties":{"name":"Rev-It-Up Sport Shop","description":"Posted by Yahoolocal<img src=\"http://media.geocommons.com/platial/images/categories/ICON_shopping_verD.gif\"> 1 Ferguson Ln, Sandy River Plt, MERev-It-Up Sport Shop (207) 864-2452<a title=\"Built for Community Mapping\" href=\"http://www.platial.com\"><img src=\"http://media.geocommons.com/platial/images/logotype_small.jpg\"></a>","id":"a6a22vmg4jp1"},"type":"Feature","geometry":{"type":"Point","coordinates":[-70.615222,44.926543]}},{"properties":{"name":"Ripley's Believe It or Not","description":"Posted by Yahoolocal8201 International Dr, Orlando, FLRipley\\'s Believe It or Not (407) 363-4418<a title=\"Built for Community Mapping\" href=\"http://www.platial.com\"><img src=\"http://media.geocommons.com/platial/images/logotype_small.jpg\"></a>","id":"a6a22vvz62rs"},"type":"Feature","geometry":{"type":"Point","coordinates":[-81.47093,28.447462]}},{"properties":{"name":"Ripley's Believe It or Not! Tennessee","description":"Posted by Yahoolocal800 Parkway, Gatlinburg, TNRipley\\'s Believe It or Not! Tennessee (865) 436-5096<a title=\"Built for Community Mapping\" href=\"http://www.platial.com\"><img src=\"http://media.geocommons.com/platial/images/logotype_small.jpg\"></a>","id":"a6a22vmozpbx"},"type":"Feature","geometry":{"type":"Point","coordinates":[-83.518336,35.711525]}},{"properties":{"name":"Roger's Fix-It Shop","description":"Posted by Yahoolocal<img src=\"http://media.geocommons.com/platial/images/categories/ICON_shopping_verD.gif\"> 5108 Rhoads Ave, Santa Barbara, CARoger\\'s Fix-It Shop (805) 964-8784<a title=\"Built for Community Mapping\" href=\"http://www.platial.com\"><img src=\"http://media.geocommons.com/platial/images/logotype_small.jpg\"></a>","id":"a6a22vivb2j3"},"type":"Feature","geometry":{"type":"Point","coordinates":[-119.802651,34.426789]}},{"properties":{"name":"Roomer Has It","description":"Posted by Yahoolocal1030 Salem Church Rd, Anderson, SCRoomer Has It (864) 224-5678<a title=\"Built for Community Mapping\" href=\"http://www.platial.com\"><img src=\"http://media.geocommons.com/platial/images/logotype_small.jpg\"></a>","id":"a6a22vrajett"},"type":"Feature","geometry":{"type":"Point","coordinates":[-82.684956,34.554797]}},{"properties":{"name":"Ruffin' It Doggy Day Care","description":"Posted by Yahoolocal1521 Demers Ave, Grand Forks, NDRuffin\\' It Doggy Day Care (701) 780-0700<a title=\"Built for Community Mapping\" href=\"http://www.platial.com\"><img src=\"http://media.geocommons.com/platial/images/logotype_small.jpg\"></a>","id":"a6a22vh3xo5j"},"type":"Feature","geometry":{"type":"Point","coordinates":[-97.04836,47.916345]}},{"properties":{"name":"Sam's Country Club","description":"Posted by Yahoolocal1440 Walhalla Hwy, Pickens, SCSam\\'s Country Club (864) 878-5898<a title=\"Built for Community Mapping\" href=\"http://www.platial.com\"><img src=\"http://media.geocommons.com/platial/images/logotype_small.jpg\"></a>","id":"a6a22viu1ed6"},"type":"Feature","geometry":{"type":"Point","coordinates":[-82.742819,34.875635]}},{"properties":{"name":"Santa Rita Abbey","description":"Posted by Yahoolocal14200 E Fish Canyon Rd, Sonoita, AZSanta Rita Abbey (520) 624-1817<a title=\"Built for Community Mapping\" href=\"http://www.platial.com\"><img src=\"http://media.geocommons.com/platial/images/logotype_small.jpg\"></a>","id":"a6a22vv1g5qf"},"type":"Feature","geometry":{"type":"Point","coordinates":[-110.70103,31.742339]}},{"properties":{"name":"Santa Rita Golf Club","description":"Posted by Yahoolocal<img src=\"http://media.geocommons.com/platial/images/categories/ICON_recreation_verD.gif\"> 16461 S Houghton Rd, Vail, AZSanta Rita Golf Club (520) 762-5620<a title=\"Built for Community Mapping\" href=\"http://www.platial.com\"><img src=\"http://media.geocommons.com/platial/images/logotype_small.jpg\"></a>","id":"a6a22vrih3zi"},"type":"Feature","geometry":{"type":"Point","coordinates":[-110.772449,31.957421]}},{"properties":{"name":"Say It With Music","description":"Posted by Yahoolocal<img src=\"http://media.geocommons.com/platial/images/categories/ICON_culture_verD.gif\"> 1208 Read St, Evansville, INSay It With Music (800) 475-4482<a title=\"Built for Community Mapping\" href=\"http://www.platial.com\"><img src=\"http://media.geocommons.com/platial/images/logotype_small.jpg\"></a>","id":"a6a22vgxw8wb"},"type":"Feature","geometry":{"type":"Point","coordinates":[-87.567975,37.98851]}},{"properties":{"name":"Shred It","description":"Posted by Yahoolocal2209 W Wetmore Rd, Tucson, AZShred It (520) 882-9939<a title=\"Built for Community Mapping\" href=\"http://www.platial.com\"><img src=\"http://media.geocommons.com/platial/images/logotype_small.jpg\"></a>","id":"a6a22vtar8bn"},"type":"Feature","geometry":{"type":"Point","coordinates":[-111.01438,32.287081]}},{"properties":{"name":"Shred-It","description":"Posted by Yahoolocal19670 Sw 118th Ave, Tualatin, ORShred-It (503) 443-3830<a title=\"Built for Community Mapping\" href=\"http://www.platial.com\"><img src=\"http://media.geocommons.com/platial/images/logotype_small.jpg\"></a>","id":"a6a22vsp5njz"},"type":"Feature","geometry":{"type":"Point","coordinates":[-122.799002,45.377705]}},{"properties":{"name":"Smoketree Resort Lodge","description":"Posted by YahoolocalU S 105, Banner Elk, NCSmoketree Resort Lodge (828) 963-6515<a title=\"Built for Community Mapping\" href=\"http://www.platial.com\"><img src=\"http://media.geocommons.com/platial/images/logotype_small.jpg\"></a>","id":"a6a22vnaficn"},"type":"Feature","geometry":{"type":"Point","coordinates":[-81.748083,36.18082]}},{"properties":{"name":"Solarforrent","description":"Posted by Yahoolocal, Corona de Tucson, AZSolarforrent (520) 762-9683<a title=\"Built for Community Mapping\" href=\"http://www.platial.com\"><img src=\"http://media.geocommons.com/platial/images/logotype_small.jpg\"></a>","id":"a6a22vkmopow"},"type":"Feature","geometry":{"type":"Point","coordinates":[-110.772453,31.948307]}},{"properties":{"name":"Sonoran Bowhunting Products","description":"Posted by Yahoolocal1699 E Camino Aurelia, Vail, AZSonoran Bowhunting Products (520) 885-9314<a title=\"Built for Community Mapping\" href=\"http://www.platial.com\"><img src=\"http://media.geocommons.com/platial/images/logotype_small.jpg\"></a>","id":"a6a22vn8gxhs"},"type":"Feature","geometry":{"type":"Point","coordinates":[-110.758741,31.930732]}},{"properties":{"name":"Steak Out Restaurant","description":"Posted by Yahoolocal<img src=\"http://media.geocommons.com/platial/images/categories/ICON_food_verD.gif\"> 3235 Hwy 82, Sonoita, AZSteak Out Restaurant (520) 455-5205<a title=\"Built for Community Mapping\" href=\"http://www.platial.com\"><img src=\"http://media.geocommons.com/platial/images/logotype_small.jpg\"></a>","id":"a6a22vfpd49j"},"type":"Feature","geometry":{"type":"Point","coordinates":[-110.655749,31.683588]}},{"properties":{"name":"Tammy's Pet Shack","description":"Posted by Yahoolocal400 N Shirley Ave, Honea Path, SCTammy\\'s Pet Shack (864) 369-1992<a title=\"Built for Community Mapping\" href=\"http://www.platial.com\"><img src=\"http://media.geocommons.com/platial/images/logotype_small.jpg\"></a>","id":"a6a22vmd3uvt"},"type":"Feature","geometry":{"type":"Point","coordinates":[-82.395751,34.449829]}},{"properties":{"name":"Tee It Up","description":"Posted by Yahoolocal7777 E Tanque Verde Rd, Tucson, AZTee It Up (520) 886-1434<a title=\"Built for Community Mapping\" href=\"http://www.platial.com\"><img src=\"http://media.geocommons.com/platial/images/logotype_small.jpg\"></a>","id":"a6a22vk6vc2e"},"type":"Feature","geometry":{"type":"Point","coordinates":[-110.825739,32.251537]}},{"properties":{"name":"The Butler Did It","description":"Posted by Yahoolocal225 S Boulevard, Anderson, SCThe Butler Did It (864) 225-6914<a title=\"Built for Community Mapping\" href=\"http://www.platial.com\"><img src=\"http://media.geocommons.com/platial/images/logotype_small.jpg\"></a>","id":"a6a22vvfygy0"},"type":"Feature","geometry":{"type":"Point","coordinates":[-82.634054,34.510679]}},{"properties":{"name":"The Decorators Inn","description":"Posted by Yahoolocal<img src=\"http://media.geocommons.com/platial/images/categories/ICON_lodging_verD.gif\"> 339 W Main St, Easley, SCThe Decorators Inn (864) 855-3933<a title=\"Built for Community Mapping\" href=\"http://www.platial.com\"><img src=\"http://media.geocommons.com/platial/images/logotype_small.jpg\"></a>","id":"a6a22vhtzdqq"},"type":"Feature","geometry":{"type":"Point","coordinates":[-82.616713,34.832026]}},{"properties":{"name":"This Is It Restaurants","description":"Posted by Yahoolocal4065 Memorial Dr, Decatur, GAThis Is It Restaurants (404) 292-5616<a title=\"Built for Community Mapping\" href=\"http://www.platial.com\"><img src=\"http://media.geocommons.com/platial/images/logotype_small.jpg\"></a>","id":"a6a22vstdjp9"},"type":"Feature","geometry":{"type":"Point","coordinates":[-84.2529,33.767136]}},{"properties":{"name":"This Is It Soul Food","description":"Posted by System<img src=\"http://media.geocommons.com/platial/images/categories/ICON_food_verD.gif\"> 207 Gray St, Houston, TXThis Is It Soul Food (713) 659-1608<a title=\"Built for Community Mapping\" href=\"http://www.platial.com\"><img src=\"http://media.geocommons.com/platial/images/logotype_small.jpg\"></a>","id":"a6a22voh2zp7"},"type":"Feature","geometry":{"type":"Point","coordinates":[-95.37794,29.752808]}},{"properties":{"name":"Titan Missile Museum","description":"Posted by Yahoolocal<img src=\"http://media.geocommons.com/platial/images/categories/ICON_culture_verD.gif\"> 1580 W Duval Mine Rd, Green Valley, AZTitan Missile Museum (520) 625-7736<a title=\"Built for Community Mapping\" href=\"http://www.platial.com\"><img src=\"http://media.geocommons.com/platial/images/logotype_small.jpg\"></a>","id":"a6a22vrhptu6"},"type":"Feature","geometry":{"type":"Point","coordinates":[-110.997226,31.899782]}},{"properties":{"name":"U Build It","description":"Posted by Yahoolocal700 S Green River Rd, Evansville, INU Build It (812) 402-4121<a title=\"Built for Community Mapping\" href=\"http://www.platial.com\"><img src=\"http://media.geocommons.com/platial/images/logotype_small.jpg\"></a>","id":"a6a22vggb2p4"},"type":"Feature","geometry":{"type":"Point","coordinates":[-87.492579,37.967947]}},{"properties":{"name":"U-Frame It","description":"Posted by Yahoolocal3900 Factoria Blvd Se, Bellevue, WAU-Frame It (425) 644-2262<a title=\"Built for Community Mapping\" href=\"http://www.platial.com\"><img src=\"http://media.geocommons.com/platial/images/logotype_small.jpg\"></a>","id":"a6a22vlbz42m"},"type":"Feature","geometry":{"type":"Point","coordinates":[-122.169426,47.57552]}},{"properties":{"name":"U-Store-It","description":"Posted by Yahoolocal975 S Prudence Rd, Tucson, AZU-Store-It (520) 885-8031<a title=\"Built for Community Mapping\" href=\"http://www.platial.com\"><img src=\"http://media.geocommons.com/platial/images/logotype_small.jpg\"></a>","id":"a6a22vg9cfj8"},"type":"Feature","geometry":{"type":"Point","coordinates":[-110.832388,32.208957]}},{"properties":{"name":"U-Store-It","description":"Posted by Yahoolocal6560 E Tanque Verde Rd, Tucson, AZU-Store-It (520) 886-7100<a title=\"Built for Community Mapping\" href=\"http://www.platial.com\"><img src=\"http://media.geocommons.com/platial/images/logotype_small.jpg\"></a>","id":"a6a22vsr43ab"},"type":"Feature","geometry":{"type":"Point","coordinates":[-110.852987,32.246022]}},{"properties":{"name":"U-Store-It","description":"Posted by Yahoolocal3680 W Orange Grove Rd, Tucson, AZU-Store-It (520) 297-7932<a title=\"Built for Community Mapping\" href=\"http://www.platial.com\"><img src=\"http://media.geocommons.com/platial/images/logotype_small.jpg\"></a>","id":"a6a22vt4g20n"},"type":"Feature","geometry":{"type":"Point","coordinates":[-111.042938,32.32334]}},{"properties":{"name":"U-Store-It","description":"Posted by Yahoolocal1910 W Prince Rd, Tucson, AZU-Store-It (520) 888-0692<a title=\"Built for Community Mapping\" href=\"http://www.platial.com\"><img src=\"http://media.geocommons.com/platial/images/logotype_small.jpg\"></a>","id":"a6a22vi8siam"},"type":"Feature","geometry":{"type":"Point","coordinates":[-111.006947,32.272425]}},{"properties":{"name":"U-Store-It","description":"Posted by Yahoolocal8361 E Broadway Blvd, Tucson, AZU-Store-It (520) 721-0640<a title=\"Built for Community Mapping\" href=\"http://www.platial.com\"><img src=\"http://media.geocommons.com/platial/images/logotype_small.jpg\"></a>","id":"a6a22vpgx7ee"},"type":"Feature","geometry":{"type":"Point","coordinates":[-110.814018,32.221052]}},{"properties":{"name":"U-Store-It","description":"Posted by Yahoolocal280 Ustorit Dr, Seneca, SCU-Store-It (864) 882-7172<a title=\"Built for Community Mapping\" href=\"http://www.platial.com\"><img src=\"http://media.geocommons.com/platial/images/logotype_small.jpg\"></a>","id":"a6a22vpn8bpz"},"type":"Feature","geometry":{"type":"Point","coordinates":[-82.887794,34.708057]}},{"properties":{"name":"U-Store-It","description":"Posted by Yahoolocal2855 S Pantano Rd, Tucson, AZU-Store-It (520) 886-8365<a title=\"Built for Community Mapping\" href=\"http://www.platial.com\"><img src=\"http://media.geocommons.com/platial/images/logotype_small.jpg\"></a>","id":"a6a22vhu9g3r"},"type":"Feature","geometry":{"type":"Point","coordinates":[-110.823791,32.189112]}},{"properties":{"name":"US Post Office","description":"Posted by Yahoolocal100 E Continental Rd, Green Valley, AZUS Post Office (520) 625-4221<a title=\"Built for Community Mapping\" href=\"http://www.platial.com\"><img src=\"http://media.geocommons.com/platial/images/logotype_small.jpg\"></a>","id":"a6a22vfnhv7f"},"type":"Feature","geometry":{"type":"Point","coordinates":[-110.986092,31.852301]}},{"properties":{"name":"US Post Office","description":"Posted by Yahoolocal526 Vine St, New Haven, ILUS Post Office (618) 265-3293<a title=\"Built for Community Mapping\" href=\"http://www.platial.com\"><img src=\"http://media.geocommons.com/platial/images/logotype_small.jpg\"></a>","id":"a6a22viusz6s"},"type":"Feature","geometry":{"type":"Point","coordinates":[-88.129395,37.908538]}},{"properties":{"name":"US Post Office","description":"Posted by Yahoolocal312 N Shirley Ave, Honea Path, SCUS Post Office (864) 369-7743<a title=\"Built for Community Mapping\" href=\"http://www.platial.com\"><img src=\"http://media.geocommons.com/platial/images/logotype_small.jpg\"></a>","id":"a6a22vq2paff"},"type":"Feature","geometry":{"type":"Point","coordinates":[-82.393726,34.448973]}},{"properties":{"name":"Un-Lock-It","description":"Posted by Yahoolocal13275 E Camino La Cebadilla, Tucson, AZUn-Lock-It (520) 548-9252<a title=\"Built for Community Mapping\" href=\"http://www.platial.com\"><img src=\"http://media.geocommons.com/platial/images/logotype_small.jpg\"></a>","id":"a6a22vu5jhjy"},"type":"Feature","geometry":{"type":"Point","coordinates":[-110.706992,32.247452]}},{"properties":{"name":"United States Postal Service","description":"Posted by Yahoolocal312 N Shirley Ave, Honea Path, SCUnited States Postal Service (864) 369-7743<a title=\"Built for Community Mapping\" href=\"http://www.platial.com\"><img src=\"http://media.geocommons.com/platial/images/logotype_small.jpg\"></a>","id":"a6a22vfpkj5v"},"type":"Feature","geometry":{"type":"Point","coordinates":[-82.393726,34.448973]}},{"properties":{"name":"Upstate Federal Credit Union","description":"Posted by Yahoolocal430 N Main St, Honea Path, SCUpstate Federal Credit Union (864) 369-0095<a title=\"Built for Community Mapping\" href=\"http://www.platial.com\"><img src=\"http://media.geocommons.com/platial/images/logotype_small.jpg\"></a>","id":"a6a22vgyoirt"},"type":"Feature","geometry":{"type":"Point","coordinates":[-82.400905,34.451787]}},{"properties":{"name":"Vail Flowers","description":"Posted by Yahoolocal2581 E Skywatchers Dr, Vail, AZVail Flowers (520) 762-8781<a title=\"Built for Community Mapping\" href=\"http://www.platial.com\"><img src=\"http://media.geocommons.com/platial/images/logotype_small.jpg\"></a>","id":"a6a22vsm0qbl"},"type":"Feature","geometry":{"type":"Point","coordinates":[-110.717707,31.975707]}},{"properties":{"name":"Wine Emporium","description":"Posted by Yahoolocal1229 Stamp Creek Rd, Salem, SCWine Emporium (864) 944-1015<a title=\"Built for Community Mapping\" href=\"http://www.platial.com\"><img src=\"http://media.geocommons.com/platial/images/logotype_small.jpg\"></a>","id":"a6a22vn5ezzw"},"type":"Feature","geometry":{"type":"Point","coordinates":[-82.971251,34.878575]}},{"properties":{"name":"Write When You Need It","description":"Posted by Yahoolocal, Rivergrove, ORWrite When You Need It (503) 620-4505<a title=\"Built for Community Mapping\" href=\"http://www.platial.com\"><img src=\"http://media.geocommons.com/platial/images/logotype_small.jpg\"></a>","id":"a6a22vjlt5f5"},"type":"Feature","geometry":{"type":"Point","coordinates":[-122.733382,45.386178]}},{"properties":{"name":"You'Ve Got It Maid Pro Clnng","description":"Posted by Yahoolocal, Anderson, SCYou\\'Ve Got It Maid Pro Clnng (864) 222-0479<a title=\"Built for Community Mapping\" href=\"http://www.platial.com\"><img src=\"http://media.geocommons.com/platial/images/logotype_small.jpg\"></a>","id":"a6a22vh64fmx"},"type":"Feature","geometry":{"type":"Point","coordinates":[-82.645012,34.521158]}},{"properties":{"name":"You-Store-It","description":"Posted by Yahoolocal630 W Camino Casa Verde, Green Valley, AZYou-Store-It (520) 625-1212<a title=\"Built for Community Mapping\" href=\"http://www.platial.com\"><img src=\"http://media.geocommons.com/platial/images/logotype_small.jpg\"></a>","id":"a6a22vk8njfk"},"type":"Feature","geometry":{"type":"Point","coordinates":[-111.002626,31.884964]}},{"properties":{"name":"Zinger DO It Best Hardware","description":"Posted by Yahoolocal2438 W Anderson Ln, Austin, TXZinger DO It Best Hardware (512) 533-9001<a title=\"Built for Community Mapping\" href=\"http://www.platial.com\"><img src=\"http://media.geocommons.com/platial/images/logotype_small.jpg\"></a>","id":"a6a22vt4jsw7"},"type":"Feature","geometry":{"type":"Point","coordinates":[-97.731682,30.356557]}}],"is_temporal":false,"author":{"url":"http://www.platial.com/map/93925","metadata":null,"contact_name":"yahoolocal","contact_address":null,"source":"platial:yahoolocal","contact_phone":null},"source":"http://www.platial.com/map/93925","pagination":{"sort":null,"start":0,"total":145,"limit":1000000},"state":"complete","tags":"platial,platial:id=93925,platial:user=yahoolocal","published":"2010-04-24T16:00:00Z","id":40257}