{"type":"FeatureCollection","data_type":"Dataset","url_type":null,"permissions":[{"permissions":{"download":true,"view":true},"group_id":"everyone"}],"classification":null,"title":"\nstygian's places\n","count":17,"stream_id":41929,"contributor":{"url":"http://geocommons.com/users/11444","name":"platial"},"data_attributes":null,"calculation_params":null,"icon_link":null,"link":"http://geocommons.com/overlays/41929.json","extent":[-120.846,29.3772,-77.1967,46.2114],"geometry_types":["point"],"unique_name":null,"name":"\nstygian's places\n","feature_count":17,"description":"\nA Map by Stygian\n\n\n","next_feature":null,"is_raster":false,"short_classification":"Y","stats":{},"features":[{"properties":{"name":"Berkeley (aka Zamora)","description":"Posted by StygianVancleave, Mississippi<a title=\"Built for Community Mapping\" href=\"http://www.platial.com\"><img src=\"http://media.geocommons.com/platial/images/logotype_small.jpg\"></a>","id":"a6mmfzb24beq"},"type":"Feature","geometry":{"type":"Point","coordinates":[-88.666344,30.547359]}},{"properties":{"name":"Cian Cornelius","description":"Posted by StygianSanta Fe, Texas<a title=\"Built for Community Mapping\" href=\"http://www.platial.com\"><img src=\"http://media.geocommons.com/platial/images/logotype_small.jpg\"></a>","id":"a6mmfz75mno5"},"type":"Feature","geometry":{"type":"Point","coordinates":[-95.102301,29.377181]}},{"properties":{"name":"DIRTY SHOOTER","description":"Posted by Stygian<img src=\"http://media.geocommons.com/platial/img/2009/03/0/dirtySIG1.jpg\">Kennewick, WAPrince of Dirtydom<a title=\"Built for Community Mapping\" href=\"http://www.platial.com\"><img src=\"http://media.geocommons.com/platial/images/logotype_small.jpg\"></a>","id":"a6mmfyxy6ziq"},"type":"Feature","geometry":{"type":"Point","coordinates":[-119.136111,46.211389]}},{"properties":{"name":"Joley (jhsulliv)","description":"Posted by StygianAnnandale, VA<a title=\"Built for Community Mapping\" href=\"http://www.platial.com\"><img src=\"http://media.geocommons.com/platial/images/logotype_small.jpg\"></a>","id":"a6mmfz9w6isl"},"type":"Feature","geometry":{"type":"Point","coordinates":[-77.196667,38.830278]}},{"properties":{"name":"Mbraun3","description":"Posted by Stygianbaton rougethis is where i live!<a title=\"Built for Community Mapping\" href=\"http://www.platial.com\"><img src=\"http://media.geocommons.com/platial/images/logotype_small.jpg\"></a>","id":"a6mmfz5f91og"},"type":"Feature","geometry":{"type":"Point","coordinates":[-91.154444,30.450556]}},{"properties":{"name":"Pandorasdad","description":"Posted by Stygian<img src=\"http://media.geocommons.com/platial/img/2009/03/0/1_27_09_071_1.jpg\">oakdale, ca<a title=\"Built for Community Mapping\" href=\"http://www.platial.com\"><img src=\"http://media.geocommons.com/platial/images/logotype_small.jpg\"></a>","id":"a6mmfz2oxz78"},"type":"Feature","geometry":{"type":"Point","coordinates":[-120.846111,37.766667]}},{"properties":{"name":"Robbin Lara","description":"Posted by Stygian<img src=\"http://media.geocommons.com/platial/img/2009/03/0/7503re2.jpg\">warsaw, moI love RTB\\'s.Com!<a title=\"Built for Community Mapping\" href=\"http://www.platial.com\"><img src=\"http://media.geocommons.com/platial/images/logotype_small.jpg\"></a>","id":"a6mmfz9bydzl"},"type":"Feature","geometry":{"type":"Point","coordinates":[-93.378202,38.24979]}},{"properties":{"name":"Samara","description":"Posted by StygianCary NCJust because you\\'re paranoid doesn\\'t mean they aren\\'t watching<a title=\"Built for Community Mapping\" href=\"http://www.platial.com\"><img src=\"http://media.geocommons.com/platial/images/logotype_small.jpg\"></a>","id":"a6mmfzd6ccb4"},"type":"Feature","geometry":{"type":"Point","coordinates":[-78.781389,35.791389]}},{"properties":{"name":"Sidviciouser","description":"Posted by Stygian<img src=\"http://media.geocommons.com/platial/img/2009/03/0/IMG_0202.jpg\">Park City, UT<a title=\"Built for Community Mapping\" href=\"http://www.platial.com\"><img src=\"http://media.geocommons.com/platial/images/logotype_small.jpg\"></a>","id":"a6mmfz7d0a2x"},"type":"Feature","geometry":{"type":"Point","coordinates":[-111.497222,40.646111]}},{"properties":{"name":"Stygian","description":"Posted by Stygian<img src=\"http://media.geocommons.com/platial/img/2009/03/0/IMG_0417_2.JPG\">Greensboro, GeorgiaJ.R. Carver\rOoo... look at all the trees<a title=\"Built for Community Mapping\" href=\"http://www.platial.com\"><img src=\"http://media.geocommons.com/platial/images/logotype_small.jpg\"></a>","id":"a6mmfz00k4w1"},"type":"Feature","geometry":{"type":"Point","coordinates":[-83.18334,33.57598]}},{"properties":{"name":"Vidikron","description":"Posted by Stygian84044<a title=\"Built for Community Mapping\" href=\"http://www.platial.com\"><img src=\"http://media.geocommons.com/platial/images/logotype_small.jpg\"></a>","id":"a6mmfyxqukcw"},"type":"Feature","geometry":{"type":"Point","coordinates":[-112.190712,40.866679]}},{"properties":{"name":"Vidikron","description":"Posted by StygianMagna<a title=\"Built for Community Mapping\" href=\"http://www.platial.com\"><img src=\"http://media.geocommons.com/platial/images/logotype_small.jpg\"></a>","id":"a6mmfz01sm6g"},"type":"Feature","geometry":{"type":"Point","coordinates":[-112.091792,40.696491]}},{"properties":{"name":"bciaddict","description":"Posted by Stygianspartanburg<a title=\"Built for Community Mapping\" href=\"http://www.platial.com\"><img src=\"http://media.geocommons.com/platial/images/logotype_small.jpg\"></a>","id":"a6mmfz3l586r"},"type":"Feature","geometry":{"type":"Point","coordinates":[-81.932222,34.949444]}},{"properties":{"name":"dangles","description":"Posted by StygianCedarville, Ohio<a title=\"Built for Community Mapping\" href=\"http://www.platial.com\"><img src=\"http://media.geocommons.com/platial/images/logotype_small.jpg\"></a>","id":"a6mmfz1cd1d3"},"type":"Feature","geometry":{"type":"Point","coordinates":[-83.808611,39.744167]}},{"properties":{"name":"davenkelly","description":"Posted by Stygianwarner robins,Ga.<a title=\"Built for Community Mapping\" href=\"http://www.platial.com\"><img src=\"http://media.geocommons.com/platial/images/logotype_small.jpg\"></a>","id":"a6mmfz0cnxb0"},"type":"Feature","geometry":{"type":"Point","coordinates":[-83.631724,32.618258]}},{"properties":{"name":"jvarner","description":"Posted by Stygian<img src=\"http://media.geocommons.com/platial/img/2009/03/1/Picture_149.jpg\">48133Here I am<a title=\"Built for Community Mapping\" href=\"http://www.platial.com\"><img src=\"http://media.geocommons.com/platial/images/logotype_small.jpg\"></a>","id":"a6mmfyy5tutk"},"type":"Feature","geometry":{"type":"Point","coordinates":[-83.487384,41.786094]}},{"properties":{"name":"slo boas","description":"Posted by Stygian<img src=\"http://media.geocommons.com/platial/img/2009/03/0/snake_062.jpg\">San Luis Obispo<a title=\"Built for Community Mapping\" href=\"http://www.platial.com\"><img src=\"http://media.geocommons.com/platial/images/logotype_small.jpg\"></a>","id":"a6mmfyxynom8"},"type":"Feature","geometry":{"type":"Point","coordinates":[-120.658611,35.282778]}}],"is_temporal":false,"author":{"url":"http://www.platial.com/map/615498","metadata":null,"contact_name":"stygian","contact_address":null,"source":"platial:stygian","contact_phone":null},"source":"http://www.platial.com/map/615498","pagination":{"sort":null,"start":0,"total":17,"limit":1000000},"state":"complete","tags":"platial,platial:id=615498,platial:user=stygian","published":"2010-04-25T16:00:00Z","id":41929}