{"type":"FeatureCollection","data_type":"Dataset","url_type":null,"permissions":[{"permissions":{"download":true,"view":true},"group_id":"everyone"}],"classification":null,"title":"\nkohei's places\n","count":17,"stream_id":42145,"contributor":{"url":"http://geocommons.com/users/11444","name":"platial"},"data_attributes":null,"calculation_params":null,"icon_link":null,"link":"http://geocommons.com/overlays/42145.json","extent":[-111.988,33.3243,139.484,42.0397],"geometry_types":["point"],"unique_name":null,"name":"\nkohei's places\n","feature_count":17,"description":"\nA Map by Koheiyamamoto\n\n\n","next_feature":null,"is_raster":false,"short_classification":"Y","stats":{},"features":[{"properties":{"name":"ASU College of Law","description":"Posted by KoheiyamamotoMy law school.<a title=\"Built for Community Mapping\" href=\"http://www.platial.com\"><img src=\"http://media.geocommons.com/platial/images/logotype_small.jpg\"></a>","id":"a6fwciyw9g8j"},"type":"Feature","geometry":{"type":"Point","coordinates":[-111.92914,33.41869]}},{"properties":{"name":"Ahwatukee apartment","description":"Posted by KoheiyamamotoI lived here for the first 2 years of law school.<a title=\"Built for Community Mapping\" href=\"http://www.platial.com\"><img src=\"http://media.geocommons.com/platial/images/logotype_small.jpg\"></a>","id":"a6fwcitt7jxn"},"type":"Feature","geometry":{"type":"Point","coordinates":[-111.987741,33.324325]}},{"properties":{"name":"Branscomb","description":"Posted by KoheiyamamotoFreshman year dorm.  Lupton 1512.<a title=\"Built for Community Mapping\" href=\"http://www.platial.com\"><img src=\"http://media.geocommons.com/platial/images/logotype_small.jpg\"></a>","id":"a6fwcivnaifm"},"type":"Feature","geometry":{"type":"Point","coordinates":[-86.805038,36.143628]}},{"properties":{"name":"Casey Moore's","description":"Posted by KoheiyamamotoMy favorite bar in all the world.<a title=\"Built for Community Mapping\" href=\"http://www.platial.com\"><img src=\"http://media.geocommons.com/platial/images/logotype_small.jpg\"></a>","id":"a6fwcj5fnw4m"},"type":"Feature","geometry":{"type":"Point","coordinates":[-111.942637,33.420714]}},{"properties":{"name":"Essex Elementary School","description":"Posted by Koheiyamamoto<img src=\"http://media.geocommons.com/platial/images/categories/ICON_family_verD.gif\">Â des plaines, il2nd thru 5th grade<a title=\"Built for Community Mapping\" href=\"http://www.platial.com\"><img src=\"http://media.geocommons.com/platial/images/logotype_small.jpg\"></a>","id":"a6fwciyu5ykc"},"type":"Feature","geometry":{"type":"Point","coordinates":[-81.553144,41.121715]}},{"properties":{"name":"Franklin Road Academy","description":"Posted by KoheiyamamotoMy alma mater, unfortunately.<a title=\"Built for Community Mapping\" href=\"http://www.platial.com\"><img src=\"http://media.geocommons.com/platial/images/logotype_small.jpg\"></a>","id":"a6fwcizrdneh"},"type":"Feature","geometry":{"type":"Point","coordinates":[-86.770706,36.083095]}},{"properties":{"name":"Higashihagiyama Shougakkou","description":"Posted by Koheiyamamotodes plaines, ilMy elementary school in Japan<a title=\"Built for Community Mapping\" href=\"http://www.platial.com\"><img src=\"http://media.geocommons.com/platial/images/logotype_small.jpg\"></a>","id":"a6fwcis1ytuv"},"type":"Feature","geometry":{"type":"Point","coordinates":[139.477701,35.746303]}},{"properties":{"name":"House in Akron","description":"Posted by Koheiyamamotodes plaines, ilLived here, 88 - 92<a title=\"Built for Community Mapping\" href=\"http://www.platial.com\"><img src=\"http://media.geocommons.com/platial/images/logotype_small.jpg\"></a>","id":"a6fwcitd4oir"},"type":"Feature","geometry":{"type":"Point","coordinates":[-81.556739,41.128472]}},{"properties":{"name":"Junior Year House","description":"Posted by KoheiyamamotoLived here with V, Amir, and Peyton junior year of college.<a title=\"Built for Community Mapping\" href=\"http://www.platial.com\"><img src=\"http://media.geocommons.com/platial/images/logotype_small.jpg\"></a>","id":"a6fwcj0a7g1d"},"type":"Feature","geometry":{"type":"Point","coordinates":[-86.804523,36.131151]}},{"properties":{"name":"LawyerEdge","description":"Posted by KoheiyamamotoPart time job, 3rd year of law school.<a title=\"Built for Community Mapping\" href=\"http://www.platial.com\"><img src=\"http://media.geocommons.com/platial/images/logotype_small.jpg\"></a>","id":"a6fwciyk2bye"},"type":"Feature","geometry":{"type":"Point","coordinates":[-111.905644,33.615316]}},{"properties":{"name":"My Apartment","description":"Posted by KoheiyamamotoLived here since August 2005.<a title=\"Built for Community Mapping\" href=\"http://www.platial.com\"><img src=\"http://media.geocommons.com/platial/images/logotype_small.jpg\"></a>","id":"a6fwciv6kfqa"},"type":"Feature","geometry":{"type":"Point","coordinates":[-111.943924,33.420087]}},{"properties":{"name":"Parents' House","description":"Posted by Koheiyamamoto9420 chesapeake dr. brentwood, tnI lived here from 7th grade through 12th grade, then some summers during college and law school<a title=\"Built for Community Mapping\" href=\"http://www.platial.com\"><img src=\"http://media.geocommons.com/platial/images/logotype_small.jpg\"></a>","id":"a6fwciqutpjk"},"type":"Feature","geometry":{"type":"Point","coordinates":[-86.751311,35.993079]}},{"properties":{"name":"Parents' condo","description":"Posted by Koheiyamamotodes plaines, ilDowntown Des Plaines.<a title=\"Built for Community Mapping\" href=\"http://www.platial.com\"><img src=\"http://media.geocommons.com/platial/images/logotype_small.jpg\"></a>","id":"a6fwcism1l3w"},"type":"Feature","geometry":{"type":"Point","coordinates":[-87.886913,42.039716]}},{"properties":{"name":"Rose Immigration Law Firm","description":"Posted by KoheiyamamotoClerked here in the summer of 2005.<a title=\"Built for Community Mapping\" href=\"http://www.platial.com\"><img src=\"http://media.geocommons.com/platial/images/logotype_small.jpg\"></a>","id":"a6fwcj3wz6s0"},"type":"Feature","geometry":{"type":"Point","coordinates":[-86.802549,36.15042]}},{"properties":{"name":"Senior Year townhouse","description":"Posted by KoheiyamamotoLived here with Scott senior year of college.<a title=\"Built for Community Mapping\" href=\"http://www.platial.com\"><img src=\"http://media.geocommons.com/platial/images/logotype_small.jpg\"></a>","id":"a6fwciw21x7e"},"type":"Feature","geometry":{"type":"Point","coordinates":[-86.809587,36.137875]}},{"properties":{"name":"Tokyo house","description":"Posted by Koheiyamamotodes plaines, ilLived here until I moved to the States in 1988.<a title=\"Built for Community Mapping\" href=\"http://www.platial.com\"><img src=\"http://media.geocommons.com/platial/images/logotype_small.jpg\"></a>","id":"a6fwcivvv07e"},"type":"Feature","geometry":{"type":"Point","coordinates":[139.483731,35.747897]}},{"properties":{"name":"Towers","description":"Posted by KoheiyamamotoSophomore year suite.  <a title=\"Built for Community Mapping\" href=\"http://www.platial.com\"><img src=\"http://media.geocommons.com/platial/images/logotype_small.jpg\"></a>","id":"a6fwcj4opyjd"},"type":"Feature","geometry":{"type":"Point","coordinates":[-86.805296,36.147578]}}],"is_temporal":false,"author":{"url":"http://www.platial.com/map/2012","metadata":null,"contact_name":"koheiyamamoto","contact_address":null,"source":"platial:koheiyamamoto","contact_phone":null},"source":"http://www.platial.com/map/2012","pagination":{"sort":null,"start":0,"total":17,"limit":1000000},"state":"complete","tags":"platial,platial:id=2012,platial:user=koheiyamamoto","published":"2010-04-25T16:00:00Z","id":42145}