{"type":"FeatureCollection","data_type":"Dataset","url_type":null,"permissions":[{"permissions":{"download":true,"view":true},"group_id":"everyone"}],"classification":null,"title":"\nThailand 2008\n","count":17,"stream_id":42194,"contributor":{"url":"http://geocommons.com/users/11444","name":"platial"},"data_attributes":null,"calculation_params":null,"icon_link":null,"link":"http://geocommons.com/overlays/42194.json","extent":[98.4426,9.67268,104.898,20.0895],"geometry_types":["point"],"unique_name":null,"name":"\nThailand 2008\n","feature_count":17,"description":"\nA Map by Danontour\n\n\n","next_feature":null,"is_raster":false,"short_classification":"Y","stats":{},"features":[{"properties":{"name":"1.Tag Bangkok - New My House Guesthouse","description":"Posted by Danontour<img src=\"http://media.geocommons.com/platial/images/categories/ICON_lodging_verD.gif\"> <a title=\"Built for Community Mapping\" href=\"http://www.platial.com\"><img src=\"http://media.geocommons.com/platial/images/logotype_small.jpg\"></a>","id":"a6bshxvdk8wa"},"type":"Feature","geometry":{"type":"Point","coordinates":[100.495215654,13.7609052015]}},{"properties":{"name":"Ayutthaya - P.S. Guesthouse","description":"Posted by Danontour<img src=\"http://media.geocommons.com/platial/images/categories/ICON_lodging_verD.gif\"> <a title=\"Built for Community Mapping\" href=\"http://www.platial.com\"><img src=\"http://media.geocommons.com/platial/images/logotype_small.jpg\"></a>","id":"a6bshxsce369"},"type":"Feature","geometry":{"type":"Point","coordinates":[100.572087765,14.3636833879]}},{"properties":{"name":"Chiang Mai","description":"Posted by Danontour<img src=\"http://media.geocommons.com/platial/images/categories/ICON_lodging_verD.gif\"> <a title=\"Built for Community Mapping\" href=\"http://www.platial.com\"><img src=\"http://media.geocommons.com/platial/images/logotype_small.jpg\"></a>","id":"a6bshxtqi1pg"},"type":"Feature","geometry":{"type":"Point","coordinates":[98.9903140068,18.7829387767]}},{"properties":{"name":"Full Moon Party 16. August 2008","description":"Posted by Danontour<img src=\"http://media.geocommons.com/platial/images/categories/ICON_activism_verD.gif\"> <a title=\"Built for Community Mapping\" href=\"http://www.platial.com\"><img src=\"http://media.geocommons.com/platial/images/logotype_small.jpg\"></a>","id":"a6bshxtxbvlg"},"type":"Feature","geometry":{"type":"Point","coordinates":[100.067253113,9.6726765273]}},{"properties":{"name":"Grenzuebergang Haoui Xai","description":"Posted by Danontour<img src=\"http://media.geocommons.com/platial/images/categories/ICON_plain_pink_verD.gif\"> <a title=\"Built for Community Mapping\" href=\"http://www.platial.com\"><img src=\"http://media.geocommons.com/platial/images/logotype_small.jpg\"></a>","id":"a6bshxpow931"},"type":"Feature","geometry":{"type":"Point","coordinates":[100.57434082,20.0894679997]}},{"properties":{"name":"Grenzuebergang nach Kambotscha","description":"Posted by Danontour<img src=\"http://media.geocommons.com/platial/images/categories/ICON_plain_pink_verD.gif\"> <a title=\"Built for Community Mapping\" href=\"http://www.platial.com\"><img src=\"http://media.geocommons.com/platial/images/logotype_small.jpg\"></a>","id":"a6bshxwuenzb"},"type":"Feature","geometry":{"type":"Point","coordinates":[102.551193237,13.6609997513]}},{"properties":{"name":"Kanchanaburi - Jelly Frog Guesthouse","description":"Posted by Danontour<img src=\"http://media.geocommons.com/platial/images/categories/ICON_lodging_verD.gif\"> <a title=\"Built for Community Mapping\" href=\"http://www.platial.com\"><img src=\"http://media.geocommons.com/platial/images/logotype_small.jpg\"></a>","id":"a6bshxv5nf79"},"type":"Feature","geometry":{"type":"Point","coordinates":[99.511885643,14.0385495909]}},{"properties":{"name":"Koh Chang - Sunset Hut Guesthouse","description":"Posted by Danontour<img src=\"http://media.geocommons.com/platial/images/categories/ICON_lodging_verD.gif\"> <a title=\"Built for Community Mapping\" href=\"http://www.platial.com\"><img src=\"http://media.geocommons.com/platial/images/logotype_small.jpg\"></a>","id":"a6bshxv2kq5k"},"type":"Feature","geometry":{"type":"Point","coordinates":[102.294881344,11.9999275065]}},{"properties":{"name":"Koh Tao - Big Blue Diving Resort","description":"Posted by Danontour<img src=\"http://media.geocommons.com/platial/images/categories/ICON_lodging_verD.gif\"> <a title=\"Built for Community Mapping\" href=\"http://www.platial.com\"><img src=\"http://media.geocommons.com/platial/images/logotype_small.jpg\"></a>","id":"a6bshy1r655q"},"type":"Feature","geometry":{"type":"Point","coordinates":[99.828042984,10.0968955961]}},{"properties":{"name":"Luang Prabang","description":"Posted by Danontour<img src=\"http://media.geocommons.com/platial/images/categories/ICON_lodging_verD.gif\"> <a title=\"Built for Community Mapping\" href=\"http://www.platial.com\"><img src=\"http://media.geocommons.com/platial/images/logotype_small.jpg\"></a>","id":"a6bshxoziiza"},"type":"Feature","geometry":{"type":"Point","coordinates":[102.137145996,19.8836203578]}},{"properties":{"name":"Pai","description":"Posted by Danontour<img src=\"http://media.geocommons.com/platial/images/categories/ICON_lodging_verD.gif\"> <a title=\"Built for Community Mapping\" href=\"http://www.platial.com\"><img src=\"http://media.geocommons.com/platial/images/logotype_small.jpg\"></a>","id":"a6bshxta1fnh"},"type":"Feature","geometry":{"type":"Point","coordinates":[98.4425532818,19.3601115873]}},{"properties":{"name":"Pakbeng","description":"Posted by Danontour<img src=\"http://media.geocommons.com/platial/images/categories/ICON_lodging_verD.gif\"> <a title=\"Built for Community Mapping\" href=\"http://www.platial.com\"><img src=\"http://media.geocommons.com/platial/images/logotype_small.jpg\"></a>","id":"a6bshxp5bvjd"},"type":"Feature","geometry":{"type":"Point","coordinates":[101.098937988,19.8945970713]}},{"properties":{"name":"Phnom Penh","description":"Posted by Danontour<img src=\"http://media.geocommons.com/platial/images/categories/ICON_lodging_verD.gif\"> <a title=\"Built for Community Mapping\" href=\"http://www.platial.com\"><img src=\"http://media.geocommons.com/platial/images/logotype_small.jpg\"></a>","id":"a6bshy0on496"},"type":"Feature","geometry":{"type":"Point","coordinates":[104.898394346,11.5433550467]}},{"properties":{"name":"Ratchaburi","description":"Posted by Danontour<img src=\"http://media.geocommons.com/platial/images/categories/ICON_lodging_verD.gif\"> <a title=\"Built for Community Mapping\" href=\"http://www.platial.com\"><img src=\"http://media.geocommons.com/platial/images/logotype_small.jpg\"></a>","id":"a6bshxpkcadi"},"type":"Feature","geometry":{"type":"Point","coordinates":[99.8121643066,13.5345276778]}},{"properties":{"name":"Siem Reab und Angkor Wat","description":"Posted by Danontour<img src=\"http://media.geocommons.com/platial/images/categories/ICON_lodging_verD.gif\"> <a title=\"Built for Community Mapping\" href=\"http://www.platial.com\"><img src=\"http://media.geocommons.com/platial/images/logotype_small.jpg\"></a>","id":"a6bshxv5ffiz"},"type":"Feature","geometry":{"type":"Point","coordinates":[103.862857819,13.3608946958]}},{"properties":{"name":"Vang Vieng","description":"Posted by Danontour<img src=\"http://media.geocommons.com/platial/images/categories/ICON_lodging_verD.gif\"> <a title=\"Built for Community Mapping\" href=\"http://www.platial.com\"><img src=\"http://media.geocommons.com/platial/images/logotype_small.jpg\"></a>","id":"a6bshy1aqcfl"},"type":"Feature","geometry":{"type":"Point","coordinates":[102.216796875,19.2074285268]}},{"properties":{"name":"Vientiane","description":"Posted by Danontour<img src=\"http://media.geocommons.com/platial/images/categories/ICON_lodging_verD.gif\"> <a title=\"Built for Community Mapping\" href=\"http://www.platial.com\"><img src=\"http://media.geocommons.com/platial/images/logotype_small.jpg\"></a>","id":"a6bshxr1k51i"},"type":"Feature","geometry":{"type":"Point","coordinates":[102.606811523,17.968282908]}}],"is_temporal":false,"author":{"url":"http://www.platial.com/map/205981","metadata":null,"contact_name":"danontour","contact_address":null,"source":"platial:danontour","contact_phone":null},"source":"http://www.platial.com/map/205981","pagination":{"sort":null,"start":0,"total":17,"limit":1000000},"state":"complete","tags":"platial,platial:id=205981,platial:user=danontour","published":"2010-04-25T16:00:00Z","id":42194}