{"type":"FeatureCollection","data_type":"Dataset","url_type":null,"permissions":[{"permissions":{"download":true,"view":true},"group_id":"everyone"}],"classification":null,"title":"\noldenburg's places\n","count":15,"stream_id":43570,"contributor":{"url":"http://geocommons.com/users/11444","name":"platial"},"data_attributes":null,"calculation_params":null,"icon_link":null,"link":"http://geocommons.com/overlays/43570.json","extent":[8.16761,53.0501,8.25651,53.1916],"geometry_types":["point"],"unique_name":null,"name":"\noldenburg's places\n","feature_count":15,"description":"\nA Map by Oldenburg\n\n\n","next_feature":null,"is_raster":false,"short_classification":"Y","stats":{},"features":[{"properties":{"name":"Blau-Weiß Bümmerstede","description":"Posted by Oldenburg<img src=\"http://media.geocommons.com/platial/img/2006/06/2/bwb.jpg\">26133 oldenburg, germany, <a title=\"Built for Community Mapping\" href=\"http://www.platial.com\"><img src=\"http://media.geocommons.com/platial/images/logotype_small.jpg\"></a>","id":"a6om66g4eaps"},"type":"Feature","geometry":{"type":"Point","coordinates":[8.241377,53.08923]}},{"properties":{"name":"Eintracht Oldenburg","description":"Posted by OldenburgHellmskamp 65, 26135 Oldenburg<a title=\"Built for Community Mapping\" href=\"http://www.platial.com\"><img src=\"http://media.geocommons.com/platial/images/logotype_small.jpg\"></a>","id":"a6om66cxt2w1"},"type":"Feature","geometry":{"type":"Point","coordinates":[8.251471,53.184338]}},{"properties":{"name":"FC Medya","description":"Posted by Oldenburg<img src=\"http://media.geocommons.com/platial/img/2006/06/2/medya.gif\">Klingenbergstraße, Oldenburg, germany<a title=\"Built for Community Mapping\" href=\"http://www.platial.com\"><img src=\"http://media.geocommons.com/platial/images/logotype_small.jpg\"></a>","id":"a6om66dtb8ty"},"type":"Feature","geometry":{"type":"Point","coordinates":[8.220638,53.108859]}},{"properties":{"name":"FC-Ohmstede","description":"Posted by Oldenburg<img src=\"http://media.geocommons.com/platial/img/2006/06/2/logo.jpeg\">Flötenteich, Oldenburg<a title=\"Built for Community Mapping\" href=\"http://www.platial.com\"><img src=\"http://media.geocommons.com/platial/images/logotype_small.jpg\"></a>","id":"a6om66ci1rzm"},"type":"Feature","geometry":{"type":"Point","coordinates":[8.232322,53.167665]}},{"properties":{"name":"GVO-Oldenburg, Sportpark","description":"Posted by Oldenburg<img src=\"http://media.geocommons.com/platial/img/2006/06/2/gvo100.gif\">26135 Oldenburg, germany<a title=\"Built for Community Mapping\" href=\"http://www.platial.com\"><img src=\"http://media.geocommons.com/platial/images/logotype_small.jpg\"></a>","id":"a6om66hlnply"},"type":"Feature","geometry":{"type":"Point","coordinates":[8.25129,53.11394]}},{"properties":{"name":"Krusenbuscher SV","description":"Posted by OldenburgOldenburg, Brahmweg, <a title=\"Built for Community Mapping\" href=\"http://www.platial.com\"><img src=\"http://media.geocommons.com/platial/images/logotype_small.jpg\"></a>","id":"a6om665jgfon"},"type":"Feature","geometry":{"type":"Point","coordinates":[8.252631,53.100437]}},{"properties":{"name":"Polizei SV Oldenburg","description":"Posted by Oldenburg<img src=\"http://media.geocommons.com/platial/img/2006/06/2/logopsv.jpeg\">Oldenburg, Posthalterweg, Germany<a title=\"Built for Community Mapping\" href=\"http://www.platial.com\"><img src=\"http://media.geocommons.com/platial/images/logotype_small.jpg\"></a>","id":"a6om66k4xc29"},"type":"Feature","geometry":{"type":"Point","coordinates":[8.173699,53.162636]}},{"properties":{"name":"Post SV Oldenburg","description":"Posted by Oldenburg<img src=\"http://media.geocommons.com/platial/img/2006/06/2/logo.gif\">Oldenburg, Alexandersfeld, Germany<a title=\"Built for Community Mapping\" href=\"http://www.platial.com\"><img src=\"http://media.geocommons.com/platial/images/logotype_small.jpg\"></a>","id":"a6om665z7azl"},"type":"Feature","geometry":{"type":"Point","coordinates":[8.184031,53.181176]}},{"properties":{"name":"SV Ofenerdiek","description":"Posted by Oldenburg<img src=\"http://media.geocommons.com/platial/img/2006/06/2/svo.jpg\">Lagersttraße, Oldenburg<a title=\"Built for Community Mapping\" href=\"http://www.platial.com\"><img src=\"http://media.geocommons.com/platial/images/logotype_small.jpg\"></a>","id":"a6om66b6fzbf"},"type":"Feature","geometry":{"type":"Point","coordinates":[8.208632,53.191598]}},{"properties":{"name":"Schwarz-Weiß Oldenburg","description":"Posted by Oldenburg<img src=\"http://media.geocommons.com/platial/img/2006/06/2/swo.gif\">Am Sportplatz, 26209 Sandkrug/Oldenburg<a title=\"Built for Community Mapping\" href=\"http://www.platial.com\"><img src=\"http://media.geocommons.com/platial/images/logotype_small.jpg\"></a>","id":"a6om66f6bv3s"},"type":"Feature","geometry":{"type":"Point","coordinates":[8.25394,53.05014]}},{"properties":{"name":"TURA 76 Oldenburg","description":"Posted by Oldenburg<img src=\"http://media.geocommons.com/platial/img/2006/06/2/emblemtura.jpeg\">Niedersachsendamm, Oldenburg<a title=\"Built for Community Mapping\" href=\"http://www.platial.com\"><img src=\"http://media.geocommons.com/platial/images/logotype_small.jpg\"></a>","id":"a6om66cz4un1"},"type":"Feature","geometry":{"type":"Point","coordinates":[8.216518,53.123029]}},{"properties":{"name":"TuS Bloherfelde Oldenburg","description":"Posted by Oldenburg<img src=\"http://media.geocommons.com/platial/img/2006/06/2/wappen.jpeg\">Kennedystraße, Oldenburg Bloherfelde<a title=\"Built for Community Mapping\" href=\"http://www.platial.com\"><img src=\"http://media.geocommons.com/platial/images/logotype_small.jpg\"></a>","id":"a6om668ewr49"},"type":"Feature","geometry":{"type":"Point","coordinates":[8.167605,53.136049]}},{"properties":{"name":"TuS Eversten","description":"Posted by Oldenburg<img src=\"http://media.geocommons.com/platial/img/2006/06/2/a_tus_k.gif\">Tegelkamp, Oldenburg<a title=\"Built for Community Mapping\" href=\"http://www.platial.com\"><img src=\"http://media.geocommons.com/platial/images/logotype_small.jpg\"></a>","id":"a6om66i3njyh"},"type":"Feature","geometry":{"type":"Point","coordinates":[8.196391,53.118454]}},{"properties":{"name":"VfB Oldenburg, Sportpark Dohmstede","description":"Posted by Oldenburg<img src=\"http://media.geocommons.com/platial/img/2006/06/2/vfb.jpg\">Elsflether Straße, Oldenburg<a title=\"Built for Community Mapping\" href=\"http://www.platial.com\"><img src=\"http://media.geocommons.com/platial/images/logotype_small.jpg\"></a>","id":"a6om66i207is"},"type":"Feature","geometry":{"type":"Point","coordinates":[8.256515,53.170084]}},{"properties":{"name":"VfL Oldenburg","description":"Posted by Oldenburg<img src=\"http://media.geocommons.com/platial/img/2006/06/2/vfl.jpg\">Oldenburg, Haareneschstraße<a title=\"Built for Community Mapping\" href=\"http://www.platial.com\"><img src=\"http://media.geocommons.com/platial/images/logotype_small.jpg\"></a>","id":"a6om666zjvhq"},"type":"Feature","geometry":{"type":"Point","coordinates":[8.201079,53.144479]}}],"is_temporal":false,"author":{"url":"http://www.platial.com/map/230613","metadata":null,"contact_name":"oldenburg","contact_address":null,"source":"platial:oldenburg","contact_phone":null},"source":"http://www.platial.com/map/230613","pagination":{"sort":null,"start":0,"total":15,"limit":1000000},"state":"complete","tags":"platial,platial:id=230613,platial:user=oldenburg","published":"2010-04-25T16:00:00Z","id":43570}