{"type":"FeatureCollection","data_type":"Dataset","url_type":null,"permissions":[{"permissions":{"download":true,"view":true},"group_id":"everyone"}],"classification":null,"title":"\npaulboland's places\n","count":15,"stream_id":44252,"contributor":{"url":"http://geocommons.com/users/11444","name":"platial"},"data_attributes":null,"calculation_params":null,"icon_link":null,"link":"http://geocommons.com/overlays/44252.json","extent":[-57.9762,41.8954,12.4942,52.1916],"geometry_types":["point"],"unique_name":null,"name":"\npaulboland's places\n","feature_count":15,"description":"\nA Map by Paulboland\n\n\n","next_feature":null,"is_raster":false,"short_classification":"Y","stats":{},"features":[{"properties":{"name":"Florence","description":"Posted by PaulbolandSecond stop in Italy trip 2006 with Joe. Very laid back with lots to do. David is here.<a title=\"Built for Community Mapping\" href=\"http://www.platial.com\"><img src=\"http://media.geocommons.com/platial/images/logotype_small.jpg\"></a>","id":"a6e4iknpnirq"},"type":"Feature","geometry":{"type":"Point","coordinates":[11.25412,43.76713]}},{"properties":{"name":"Home in NL","description":"Posted by PaulbolandThis is where I live. Curling, Newfoundland.<a title=\"Built for Community Mapping\" href=\"http://www.platial.com\"><img src=\"http://media.geocommons.com/platial/images/logotype_small.jpg\"></a>","id":"a6e4iknsa4ud"},"type":"Feature","geometry":{"type":"Point","coordinates":[-57.97615,48.95719]}},{"properties":{"name":"Home in Oxford","description":"Posted by PaulbolandAlan Bullock Close, my home away from home.<a title=\"Built for Community Mapping\" href=\"http://www.platial.com\"><img src=\"http://media.geocommons.com/platial/images/logotype_small.jpg\"></a>","id":"a6e4ikm8zpin"},"type":"Feature","geometry":{"type":"Point","coordinates":[-1.24103,51.751]}},{"properties":{"name":"Home in Oxford","description":"Posted by PaulbolandApartment 39, Alan Bullock Close. My home away from home.<a title=\"Built for Community Mapping\" href=\"http://www.platial.com\"><img src=\"http://media.geocommons.com/platial/images/logotype_small.jpg\"></a>","id":"a6e4iksovtdj"},"type":"Feature","geometry":{"type":"Point","coordinates":[-1.24103,51.751]}},{"properties":{"name":"John Radcliffe Hospital","description":"Posted by Paulboland<img src=\"http://media.geocommons.com/platial/images/categories/ICON_health_verD.gif\">Â This is the hospital where I study and go to class.<a title=\"Built for Community Mapping\" href=\"http://www.platial.com\"><img src=\"http://media.geocommons.com/platial/images/logotype_small.jpg\"></a>","id":"a6e4ikr8kgw7"},"type":"Feature","geometry":{"type":"Point","coordinates":[-1.21978,51.76417]}},{"properties":{"name":"London","description":"Posted by PaulbolandJolly old London. I try to get here as much as possible. Marker points to Victoria Station, where the main coach terminal is.<a title=\"Built for Community Mapping\" href=\"http://www.platial.com\"><img src=\"http://media.geocommons.com/platial/images/logotype_small.jpg\"></a>","id":"a6e4ikitb89y"},"type":"Feature","geometry":{"type":"Point","coordinates":[-0.14394,51.4971]}},{"properties":{"name":"Milan","description":"Posted by PaulbolandJoe and I flew in here on Italy trip 2006 when our we missed our Ryan Air flight and had to reschedule. What a mistake! We then went straight to Venice by train.<a title=\"Built for Community Mapping\" href=\"http://www.platial.com\"><img src=\"http://media.geocommons.com/platial/images/logotype_small.jpg\"></a>","id":"a6e4ikozgi1u"},"type":"Feature","geometry":{"type":"Point","coordinates":[9.27246,45.48324]}},{"properties":{"name":"My Home","description":"Posted by PaulbolandMy Home. Curling, Newfoundland<a title=\"Built for Community Mapping\" href=\"http://www.platial.com\"><img src=\"http://media.geocommons.com/platial/images/logotype_small.jpg\"></a>","id":"a6e4ikh15pzw"},"type":"Feature","geometry":{"type":"Point","coordinates":[-57.97615,48.95719]}},{"properties":{"name":"Radclife Infirmary, Birthplace of penicillin!","description":"Posted by PaulbolandFor all you medical geeks, penicillin was isolated here!<a title=\"Built for Community Mapping\" href=\"http://www.platial.com\"><img src=\"http://media.geocommons.com/platial/images/logotype_small.jpg\"></a>","id":"a6e4iko01lt3"},"type":"Feature","geometry":{"type":"Point","coordinates":[-1.26356,51.75992]}},{"properties":{"name":"Rome and the Vatican","description":"Posted by PaulbolandIncredible place. So much to do here. The Colosseum was incredible. The Vatican was breathtaking. Last stop on Italy Trip 2006.<a title=\"Built for Community Mapping\" href=\"http://www.platial.com\"><img src=\"http://media.geocommons.com/platial/images/logotype_small.jpg\"></a>","id":"a6e4iku1pz3z"},"type":"Feature","geometry":{"type":"Point","coordinates":[12.4942,41.89614]}},{"properties":{"name":"Rome, Italy","description":"Posted by PaulbolandRome, Italy<a title=\"Built for Community Mapping\" href=\"http://www.platial.com\"><img src=\"http://media.geocommons.com/platial/images/logotype_small.jpg\"></a>","id":"a6e4ikjngpod"},"type":"Feature","geometry":{"type":"Point","coordinates":[12.482181,41.895431]}},{"properties":{"name":"St. John's College","description":"Posted by PaulbolandSt. John\\'s College. 450 years old!<a title=\"Built for Community Mapping\" href=\"http://www.platial.com\"><img src=\"http://media.geocommons.com/platial/images/logotype_small.jpg\"></a>","id":"a6e4iko6y0pv"},"type":"Feature","geometry":{"type":"Point","coordinates":[-1.25888,51.75801]}},{"properties":{"name":"St. John's College","description":"Posted by PaulbolandThis is my college. This is where the bops happen. And it\\'s 450 years old or something.<a title=\"Built for Community Mapping\" href=\"http://www.platial.com\"><img src=\"http://media.geocommons.com/platial/images/logotype_small.jpg\"></a>","id":"a6e4ikmhmft7"},"type":"Feature","geometry":{"type":"Point","coordinates":[-1.25879,51.757]}},{"properties":{"name":"Stratford Upon Avon","description":"Posted by PaulbolandStratford-upon-Avon, EnglandBeautiful town. Birthplace of Shakespeare. Rikki and I went here to see a Henry V, which turned out to be in Italian!<a title=\"Built for Community Mapping\" href=\"http://www.platial.com\"><img src=\"http://media.geocommons.com/platial/images/logotype_small.jpg\"></a>","id":"a6e4ikscegiu"},"type":"Feature","geometry":{"type":"Point","coordinates":[-1.70704,52.191638]}},{"properties":{"name":"Venice","description":"Posted by PaulbolandAbsolutely beautiful, but expensive as hell. First stop on Italy Trip 2006 with Joe. Next stop, Florence.<a title=\"Built for Community Mapping\" href=\"http://www.platial.com\"><img src=\"http://media.geocommons.com/platial/images/logotype_small.jpg\"></a>","id":"a6e4ikv7onia"},"type":"Feature","geometry":{"type":"Point","coordinates":[12.33147,45.43701]}}],"is_temporal":false,"author":{"url":"http://www.platial.com/map/240086","metadata":null,"contact_name":"paulboland","contact_address":null,"source":"platial:paulboland","contact_phone":null},"source":"http://www.platial.com/map/240086","pagination":{"sort":null,"start":0,"total":15,"limit":1000000},"state":"complete","tags":"platial,platial:id=240086,platial:user=paulboland","published":"2010-04-26T16:00:00Z","id":44252}