{"type":"FeatureCollection","data_type":"Dataset","url_type":null,"permissions":[{"permissions":{"download":true,"view":true},"group_id":"everyone"}],"classification":null,"title":"\nderekf17's places\n","count":14,"stream_id":44490,"contributor":{"url":"http://geocommons.com/users/11444","name":"platial"},"data_attributes":null,"calculation_params":null,"icon_link":null,"link":"http://geocommons.com/overlays/44490.json","extent":[-122.404,23.22,-71.0603,45.3039],"geometry_types":["point"],"unique_name":null,"name":"\nderekf17's places\n","feature_count":14,"description":"\nA Map by Derekf17\n\n\n","next_feature":null,"is_raster":false,"short_classification":"Y","stats":{},"features":[{"properties":{"name":"BJ","description":"Posted by Derekf17200 Main Street, Huntington Beach, CA, 92648<a title=\"Built for Community Mapping\" href=\"http://www.platial.com\"><img src=\"http://media.geocommons.com/platial/images/logotype_small.jpg\"></a>","id":"a7jvzxhlk0e6"},"type":"Feature","geometry":{"type":"Point","coordinates":[-118.00109,33.658041]}},{"properties":{"name":"College Town","description":"Posted by Derekf17Mankato, MN<a title=\"Built for Community Mapping\" href=\"http://www.platial.com\"><img src=\"http://media.geocommons.com/platial/images/logotype_small.jpg\"></a>","id":"a7jvzxjp0qud"},"type":"Feature","geometry":{"type":"Point","coordinates":[-93.999167,44.163611]}},{"properties":{"name":"Fall 05","description":"Posted by Derekf17Nashville TN<a title=\"Built for Community Mapping\" href=\"http://www.platial.com\"><img src=\"http://media.geocommons.com/platial/images/logotype_small.jpg\"></a>","id":"a7jvzxhrnupo"},"type":"Feature","geometry":{"type":"Point","coordinates":[-86.784444,36.165833]}},{"properties":{"name":"Home","description":"Posted by Derekf17145 N Jackson St Milwaukee WI<a title=\"Built for Community Mapping\" href=\"http://www.platial.com\"><img src=\"http://media.geocommons.com/platial/images/logotype_small.jpg\"></a>","id":"a7jvzxcfmt3j"},"type":"Feature","geometry":{"type":"Point","coordinates":[-87.903153,43.031184]}},{"properties":{"name":"Hometown","description":"Posted by Derekf17Elk River, MN<a title=\"Built for Community Mapping\" href=\"http://www.platial.com\"><img src=\"http://media.geocommons.com/platial/images/logotype_small.jpg\"></a>","id":"a7jvzxf8xah9"},"type":"Feature","geometry":{"type":"Point","coordinates":[-93.566944,45.303889]}},{"properties":{"name":"Las Vegas, NV","description":"Posted by Derekf17Las Vegas, NV<a title=\"Built for Community Mapping\" href=\"http://www.platial.com\"><img src=\"http://media.geocommons.com/platial/images/logotype_small.jpg\"></a>","id":"a7jvzxjhowbm"},"type":"Feature","geometry":{"type":"Point","coordinates":[-115.136389,36.175]}},{"properties":{"name":"Moving to","description":"Posted by Derekf171600 Pennsylvania Ave Washington DC<a title=\"Built for Community Mapping\" href=\"http://www.platial.com\"><img src=\"http://media.geocommons.com/platial/images/logotype_small.jpg\"></a>","id":"a7jvzx6o5imm"},"type":"Feature","geometry":{"type":"Point","coordinates":[-77.036655,38.898774]}},{"properties":{"name":"San Francisco Design Center","description":"Posted by Derekf17635 8th St, San Francisco, CA, United States<a title=\"Built for Community Mapping\" href=\"http://www.platial.com\"><img src=\"http://media.geocommons.com/platial/images/logotype_small.jpg\"></a>","id":"a7jvzxfuubow"},"type":"Feature","geometry":{"type":"Point","coordinates":[-122.40422,37.770362]}},{"properties":{"name":"Spring Break 03","description":"Posted by Derekf17Mazatlan, Mexico<a title=\"Built for Community Mapping\" href=\"http://www.platial.com\"><img src=\"http://media.geocommons.com/platial/images/logotype_small.jpg\"></a>","id":"a7jvzxcjypbf"},"type":"Feature","geometry":{"type":"Point","coordinates":[-106.419998,23.219999]}},{"properties":{"name":"Summer 07","description":"Posted by Derekf17Boston, MA<a title=\"Built for Community Mapping\" href=\"http://www.platial.com\"><img src=\"http://media.geocommons.com/platial/images/logotype_small.jpg\"></a>","id":"a7jvzxjmzfkh"},"type":"Feature","geometry":{"type":"Point","coordinates":[-71.060278,42.358333]}},{"properties":{"name":"UCLA","description":"Posted by Derekf1711271 Massachusetts Ave, Los Angeles, CA<a title=\"Built for Community Mapping\" href=\"http://www.platial.com\"><img src=\"http://media.geocommons.com/platial/images/logotype_small.jpg\"></a>","id":"a7jvzxk0jdoj"},"type":"Feature","geometry":{"type":"Point","coordinates":[-118.448755,34.047416]}},{"properties":{"name":"Winter 07","description":"Posted by Derekf17Salt Lake City, UT<a title=\"Built for Community Mapping\" href=\"http://www.platial.com\"><img src=\"http://media.geocommons.com/platial/images/logotype_small.jpg\"></a>","id":"a7jvzxhcsol1"},"type":"Feature","geometry":{"type":"Point","coordinates":[-111.890278,40.760833]}},{"properties":{"name":"place name","description":"Posted by Derekf17Chicago IL 60640<a title=\"Built for Community Mapping\" href=\"http://www.platial.com\"><img src=\"http://media.geocommons.com/platial/images/logotype_small.jpg\"></a>","id":"a7jvzx95oz2x"},"type":"Feature","geometry":{"type":"Point","coordinates":[-87.655423,41.969366]}},{"properties":{"name":"place name","description":"Posted by Derekf171300 E. Oakland Park Blvd.\tFt. Lauderdale\tFL\t33334<a title=\"Built for Community Mapping\" href=\"http://www.platial.com\"><img src=\"http://media.geocommons.com/platial/images/logotype_small.jpg\"></a>","id":"a7jvzxejhw2q"},"type":"Feature","geometry":{"type":"Point","coordinates":[-80.129735,26.166785]}}],"is_temporal":false,"author":{"url":"http://www.platial.com/map/283933","metadata":null,"contact_name":"derekf17","contact_address":null,"source":"platial:derekf17","contact_phone":null},"source":"http://www.platial.com/map/283933","pagination":{"sort":null,"start":0,"total":14,"limit":1000000},"state":"complete","tags":"platial,platial:id=283933,platial:user=derekf17","published":"2010-04-26T16:00:00Z","id":44490}