{"type":"FeatureCollection","data_type":"Dataset","url_type":null,"permissions":[{"permissions":{"download":true,"view":true},"group_id":"everyone"}],"classification":null,"title":"\ngiventowail's places\n","count":14,"stream_id":45060,"contributor":{"url":"http://geocommons.com/users/11444","name":"platial"},"data_attributes":null,"calculation_params":null,"icon_link":null,"link":"http://geocommons.com/overlays/45060.json","extent":[-117.858,-37.81,144.96,55.921],"geometry_types":["point"],"unique_name":null,"name":"\ngiventowail's places\n","feature_count":14,"description":"\nA Map by Giventowail\n\n\n","next_feature":null,"is_raster":false,"short_classification":"Y","stats":{},"features":[{"properties":{"name":"Cee!","description":"Posted by Giventowail<img src=\"http://media.geocommons.com/platial/img/2008/10/4/cee.jpg\">Zionsville, INThis is where i live, bitches. <a title=\"Built for Community Mapping\" href=\"http://www.platial.com\"><img src=\"http://media.geocommons.com/platial/images/logotype_small.jpg\"></a>","id":"a62hd185vqng"},"type":"Feature","geometry":{"type":"Point","coordinates":[-86.276737,39.956111]}},{"properties":{"name":"Churchie","description":"Posted by Giventowail<img src=\"http://media.geocommons.com/platial/img/2008/10/4/churchie.jpg\">Melbourne, Australia<a title=\"Built for Community Mapping\" href=\"http://www.platial.com\"><img src=\"http://media.geocommons.com/platial/images/logotype_small.jpg\"></a>","id":"a62hd18ba49h"},"type":"Feature","geometry":{"type":"Point","coordinates":[144.960006,-37.810001]}},{"properties":{"name":"Finlay (Ament)","description":"Posted by Giventowailcraiglockhart loanthe road along which I stumble most often..<a title=\"Built for Community Mapping\" href=\"http://www.platial.com\"><img src=\"http://media.geocommons.com/platial/images/logotype_small.jpg\"></a>","id":"a62hd1iwxd6k"},"type":"Feature","geometry":{"type":"Point","coordinates":[-3.246005,55.920956]}},{"properties":{"name":"Haley","description":"Posted by GiventowailLake Forest, Ca<a title=\"Built for Community Mapping\" href=\"http://www.platial.com\"><img src=\"http://media.geocommons.com/platial/images/logotype_small.jpg\"></a>","id":"a62hd15ya0hl"},"type":"Feature","geometry":{"type":"Point","coordinates":[-117.688333,33.646944]}},{"properties":{"name":"InsolentBystander","description":"Posted by GiventowailLondon<a title=\"Built for Community Mapping\" href=\"http://www.platial.com\"><img src=\"http://media.geocommons.com/platial/images/logotype_small.jpg\"></a>","id":"a62hd1cnwn0e"},"type":"Feature","geometry":{"type":"Point","coordinates":[-0.126197,51.500197]}},{"properties":{"name":"Nick","description":"Posted by GiventowailtempeIt\\'s hot here.<a title=\"Built for Community Mapping\" href=\"http://www.platial.com\"><img src=\"http://media.geocommons.com/platial/images/logotype_small.jpg\"></a>","id":"a62hd17ou07b"},"type":"Feature","geometry":{"type":"Point","coordinates":[-111.908611,33.414722]}},{"properties":{"name":"Solat","description":"Posted by Giventowail<img src=\"http://media.geocommons.com/platial/img/2008/10/4/me&amp;amelia.jpg\">forrestfield PerthBananas<a title=\"Built for Community Mapping\" href=\"http://www.platial.com\"><img src=\"http://media.geocommons.com/platial/images/logotype_small.jpg\"></a>","id":"a62hd1hwrw3w"},"type":"Feature","geometry":{"type":"Point","coordinates":[116.010649,-31.986574]}},{"properties":{"name":"Timmy","description":"Posted by GiventowailcatfordChim-chim-chiroo!<a title=\"Built for Community Mapping\" href=\"http://www.platial.com\"><img src=\"http://media.geocommons.com/platial/images/logotype_small.jpg\"></a>","id":"a62hd15uj9wi"},"type":"Feature","geometry":{"type":"Point","coordinates":[-0.021086,51.444833]}},{"properties":{"name":"Wes","description":"Posted by Giventowail<img src=\"http://media.geocommons.com/platial/img/2008/10/4/IMG_1198.JPG\">91789Stop looking at my house!<a title=\"Built for Community Mapping\" href=\"http://www.platial.com\"><img src=\"http://media.geocommons.com/platial/images/logotype_small.jpg\"></a>","id":"a62hd17kjiau"},"type":"Feature","geometry":{"type":"Point","coordinates":[-117.857828,34.016625]}},{"properties":{"name":"Wondermike","description":"Posted by GiventowailtempeIt\\'s hot here.<a title=\"Built for Community Mapping\" href=\"http://www.platial.com\"><img src=\"http://media.geocommons.com/platial/images/logotype_small.jpg\"></a>","id":"a62hd1e0111r"},"type":"Feature","geometry":{"type":"Point","coordinates":[-111.908611,33.414722]}},{"properties":{"name":"blackswan","description":"Posted by GiventowailButler, PA<a title=\"Built for Community Mapping\" href=\"http://www.platial.com\"><img src=\"http://media.geocommons.com/platial/images/logotype_small.jpg\"></a>","id":"a62hd173ugdj"},"type":"Feature","geometry":{"type":"Point","coordinates":[-79.895556,40.861111]}},{"properties":{"name":"elie","description":"Posted by Giventowailjerusalem israel<a title=\"Built for Community Mapping\" href=\"http://www.platial.com\"><img src=\"http://media.geocommons.com/platial/images/logotype_small.jpg\"></a>","id":"a62hd1ecx217"},"type":"Feature","geometry":{"type":"Point","coordinates":[35.20354,31.77165]}},{"properties":{"name":"moo","description":"Posted by GiventowailAustinavast<a title=\"Built for Community Mapping\" href=\"http://www.platial.com\"><img src=\"http://media.geocommons.com/platial/images/logotype_small.jpg\"></a>","id":"a62hd1gs2lvf"},"type":"Feature","geometry":{"type":"Point","coordinates":[-97.742778,30.266944]}},{"properties":{"name":"randymarsh","description":"Posted by Giventowail<img src=\"http://media.geocommons.com/platial/img/2008/10/4/078_78.JPG\">Athens, GA<a title=\"Built for Community Mapping\" href=\"http://www.platial.com\"><img src=\"http://media.geocommons.com/platial/images/logotype_small.jpg\"></a>","id":"a62hd1jzzjq2"},"type":"Feature","geometry":{"type":"Point","coordinates":[-83.378056,33.960833]}}],"is_temporal":false,"author":{"url":"http://www.platial.com/map/526696","metadata":null,"contact_name":"giventowail","contact_address":null,"source":"platial:giventowail","contact_phone":null},"source":"http://www.platial.com/map/526696","pagination":{"sort":null,"start":0,"total":14,"limit":1000000},"state":"complete","tags":"platial,platial:id=526696,platial:user=giventowail","published":"2010-04-26T16:00:00Z","id":45060}