{"url_type":null,"title":"Central Statistics Office Ireland, Private Households by Type Occupying and by Town, Ireland, 2006","count":232,"stream_id":4518,"contributor":{"name":"Burkey","url":"http://geocommons.com/users/139"},"extent":[-10.2241,51.5496,-6.04329,55.2513],"data_attributes":null,"calculation_params":null,"icon_link":null,"link":"http://geocommons.com/overlays/4518.json","features":[{"lon":-9.301392,"k":10,"v":1.1,"a":217,"l":1.37,"w":11,"ab":20,"b":29.77,"m":66,"x":1.51,"ac":2.74,"c":96,"n":9.05,"y":20,"ad":729,"d":13.17,"o":7,"z":2.74,"e":40,"p":0.96,"f":5.49,"q":17,"town":"Abbeyfeale, Limerick","g":186,"r":2.33,"geometry":{"type":"Point","coordinates":[-9.301392,52.385005]},"h":25.51,"s":3,"id":"a678w40q9vyj","lat":52.385005,"i":28,"t":0.41,"j":3.84,"u":8},{"lon":-7.34917,"k":6,"v":1.05,"a":141,"l":1.05,"w":8,"ab":15,"b":24.65,"m":53,"x":1.4,"ac":2.62,"c":102,"n":9.27,"y":11,"ad":572,"d":17.83,"o":10,"z":1.92,"e":28,"p":1.75,"f":4.9,"q":15,"town":"Abbeyleix, Laoighis","g":165,"r":2.62,"geometry":{"type":"Point","coordinates":[-7.34917,52.913231]},"h":28.85,"s":0,"id":"a678w4013d90","lat":52.913231,"i":12,"t":0.0,"j":2.1,"u":6},{"lon":-8.358055,"k":6,"v":0.23,"a":174,"l":1.39,"w":2,"ab":5,"b":40.37,"m":48,"x":0.46,"ac":1.16,"c":58,"n":11.14,"y":15,"ad":431,"d":13.46,"o":1,"z":3.48,"e":7,"p":0.23,"f":1.62,"q":7,"town":"An Clochán Liath, Donegal","g":96,"r":1.62,"geometry":{"type":"Point","coordinates":[-8.358055,54.950205]},"h":22.27,"s":1,"id":"a678w432gy1h","lat":54.950205,"i":10,"t":0.23,"j":2.32,"u":1},{"lon":-7.29071,"k":5,"v":1.26,"a":201,"l":0.79,"w":8,"ab":41,"b":31.75,"m":73,"x":1.26,"ac":6.48,"c":85,"n":11.53,"y":17,"ad":633,"d":13.43,"o":11,"z":2.69,"e":31,"p":1.74,"f":4.9,"q":13,"town":"An Daingean, Kerry","g":125,"r":2.05,"geometry":{"type":"Point","coordinates":[-7.29071,53.2599]},"h":19.75,"s":3,"id":"a678w48b3f6o","lat":53.2599,"i":12,"t":0.47,"j":1.9,"u":8},{"lon":-8.528829,"k":2,"v":0.32,"a":114,"l":0.32,"w":2,"ab":75,"b":18.27,"m":31,"x":0.32,"ac":12.02,"c":84,"n":4.97,"y":14,"ad":624,"d":13.46,"o":11,"z":2.24,"e":59,"p":1.76,"f":9.46,"q":16,"town":"Annacotty, Limerick","g":198,"r":2.56,"geometry":{"type":"Point","coordinates":[-8.528829,52.669145]},"h":31.73,"s":0,"id":"a678w42e58mx","lat":52.669145,"i":16,"t":0.0,"j":2.56,"u":2},{"lon":-6.538836,"k":24,"v":0.74,"a":362,"l":1.48,"w":23,"ab":48,"b":22.26,"m":164,"x":1.41,"ac":2.95,"c":210,"n":10.09,"y":61,"ad":1626,"d":12.92,"o":27,"z":3.75,"e":96,"p":1.66,"f":5.9,"q":41,"town":"Ardee, Louth","g":450,"r":2.52,"geometry":{"type":"Point","coordinates":[-6.538836,53.85489]},"h":27.68,"s":3,"id":"a678w42ykog9","lat":53.85489,"i":105,"t":0.18,"j":6.46,"u":12},{"lon":-8.613944,"k":3,"v":0.6,"a":29,"l":0.9,"w":2,"ab":0,"b":8.68,"m":17,"x":0.6,"ac":0.0,"c":51,"n":5.09,"y":3,"ad":334,"d":15.27,"o":1,"z":0.9,"e":13,"p":0.3,"f":3.89,"q":4,"town":"Ardnacrusha (Castlebank), Clare","g":204,"r":1.2,"geometry":{"type":"Point","coordinates":[-8.613944,52.707749]},"h":61.08,"s":0,"id":"a678w464ow56","lat":52.707749,"i":5,"t":0.0,"j":1.5,"u":2},{"lon":-6.156204,"k":73,"v":1.15,"a":948,"l":1.72,"w":55,"ab":128,"b":22.3,"m":473,"x":1.29,"ac":3.01,"c":584,"n":11.13,"y":84,"ad":4251,"d":13.74,"o":73,"z":1.98,"e":255,"p":1.72,"f":6.0,"q":83,"town":"Arklow Legal Town, Wicklow","g":1227,"r":1.95,"geometry":{"type":"Point","coordinates":[-6.156204,52.7983]},"h":28.86,"s":10,"id":"a678w415add4","lat":52.7983,"i":209,"t":0.24,"j":4.92,"u":49},{"lon":-6.400874,"k":41,"v":0.9,"a":473,"l":1.42,"w":32,"ab":132,"b":16.4,"m":197,"x":1.11,"ac":4.58,"c":336,"n":6.83,"y":80,"ad":2884,"d":11.65,"o":76,"z":2.77,"e":265,"p":2.64,"f":9.19,"q":84,"town":"Ashbourne, Meath","g":997,"r":2.91,"geometry":{"type":"Point","coordinates":[-6.400874,53.513401]},"h":34.57,"s":9,"id":"a678w41d9c9j","lat":53.513401,"i":136,"t":0.31,"j":4.72,"u":26},{"lon":-6.108304,"k":3,"v":0.9,"a":83,"l":0.68,"w":6,"ab":7,"b":18.69,"m":41,"x":1.35,"ac":1.58,"c":56,"n":9.23,"y":4,"ad":444,"d":12.61,"o":7,"z":0.9,"e":22,"p":1.58,"f":4.95,"q":8,"town":"Ashford, Wicklow","g":184,"r":1.8,"geometry":{"type":"Point","coordinates":[-6.108304,53.011009]},"h":41.44,"s":0,"id":"a678w4ftogy5","lat":53.011009,"i":19,"t":0.0,"j":4.28,"u":4},{"lon":-6.920486,"k":14,"v":0.78,"a":166,"l":1.81,"w":9,"ab":22,"b":21.47,"m":84,"x":1.16,"ac":2.85,"c":111,"n":10.87,"y":16,"ad":773,"d":14.36,"o":11,"z":2.07,"e":52,"p":1.42,"f":6.73,"q":12,"town":"Athboy, Meath","g":229,"r":1.55,"geometry":{"type":"Point","coordinates":[-6.920486,53.622038]},"h":29.62,"s":2,"id":"a678w49v80b4","lat":53.622038,"i":39,"t":0.26,"j":5.05,"u":6},{"lon":-8.749134,"k":16,"v":0.58,"a":267,"l":1.33,"w":9,"ab":52,"b":22.23,"m":108,"x":0.75,"ac":4.33,"c":183,"n":8.99,"y":42,"ad":1201,"d":15.24,"o":28,"z":3.5,"e":111,"p":2.33,"f":9.24,"q":18,"town":"Athenry, Galway","g":314,"r":1.5,"geometry":{"type":"Point","coordinates":[-8.749134,53.297745]},"h":26.14,"s":4,"id":"a678w43gh4p8","lat":53.297745,"i":42,"t":0.33,"j":3.5,"u":7},{"lon":-7.937107,"k":94,"v":1.22,"a":1619,"l":1.45,"w":80,"ab":522,"b":25.05,"m":717,"x":1.24,"ac":8.08,"c":838,"n":11.1,"y":176,"ad":6462,"d":12.97,"o":131,"z":2.72,"e":361,"p":2.03,"f":5.59,"q":124,"town":"Athlone, Westmeath/Roscommon","g":1492,"r":1.92,"geometry":{"type":"Point","coordinates":[-7.937107,53.423267]},"h":23.09,"s":16,"id":"a678w4axcbqu","lat":53.423267,"i":213,"t":0.25,"j":3.3,"u":79},{"lon":-6.983184,"k":48,"v":1.57,"a":694,"l":1.64,"w":44,"ab":89,"b":23.76,"m":357,"x":1.51,"ac":3.05,"c":348,"n":12.22,"y":67,"ad":2921,"d":11.91,"o":34,"z":2.29,"e":173,"p":1.16,"f":5.92,"q":51,"town":"Athy, Kildare","g":790,"r":1.75,"geometry":{"type":"Point","coordinates":[-6.983184,52.992095]},"h":27.05,"s":10,"id":"a678w4dyzsli","lat":52.992095,"i":170,"t":0.34,"j":5.82,"u":46},{"lon":-6.331723,"k":4,"v":0.75,"a":89,"l":1.0,"w":10,"ab":6,"b":22.14,"m":29,"x":2.49,"ac":1.49,"c":66,"n":7.21,"y":8,"ad":402,"d":16.42,"o":5,"z":1.99,"e":15,"p":1.24,"f":3.73,"q":6,"town":"Aughrim, Wicklow","g":142,"r":1.49,"geometry":{"type":"Point","coordinates":[-6.331723,52.856488]},"h":35.32,"s":1,"id":"a678w4bwglkh","lat":52.856488,"i":18,"t":0.25,"j":4.48,"u":3},{"lon":-6.969954,"k":8,"v":1.24,"a":182,"l":1.1,"w":13,"ab":9,"b":25.07,"m":72,"x":1.79,"ac":1.24,"c":113,"n":9.92,"y":16,"ad":726,"d":15.56,"o":16,"z":2.2,"e":38,"p":2.2,"f":5.23,"q":19,"town":"Bailieborough, Cavan","g":197,"r":2.62,"geometry":{"type":"Point","coordinates":[-6.969954,53.916423]},"h":27.13,"s":2,"id":"a678w4aax99y","lat":53.916423,"i":32,"t":0.28,"j":4.41,"u":9},{"lon":-6.183982,"k":91,"v":0.97,"a":1265,"l":1.58,"w":57,"ab":139,"b":21.94,"m":649,"x":0.99,"ac":2.41,"c":623,"n":11.25,"y":115,"ad":5767,"d":10.8,"o":71,"z":1.99,"e":593,"p":1.23,"f":10.28,"q":122,"town":"Balbriggan, Fingal","g":1688,"r":2.12,"geometry":{"type":"Point","coordinates":[-6.183982,53.607622]},"h":29.27,"s":8,"id":"a678w49d0kuq","lat":53.607622,"i":290,"t":0.14,"j":5.03,"u":56},{"lon":-8.579966,"k":7,"v":0.45,"a":217,"l":1.05,"w":3,"ab":44,"b":32.49,"m":65,"x":0.45,"ac":6.59,"c":93,"n":9.73,"y":27,"ad":668,"d":13.92,"o":10,"z":4.04,"e":26,"p":1.5,"f":3.89,"q":10,"town":"Ballaghaderreen, Roscommon","g":143,"r":1.5,"geometry":{"type":"Point","coordinates":[-8.579966,53.901462]},"h":21.41,"s":1,"id":"a678w48aa7rp","lat":53.901462,"i":19,"t":0.15,"j":2.84,"u":3},{"lon":-9.154267,"k":46,"v":0.78,"a":1161,"l":1.19,"w":34,"ab":140,"b":30.02,"m":415,"x":0.88,"ac":3.62,"c":513,"n":10.73,"y":122,"ad":3867,"d":13.27,"o":41,"z":3.15,"e":162,"p":1.06,"f":4.19,"q":59,"town":"Ballina, Mayo","g":1025,"r":1.53,"geometry":{"type":"Point","coordinates":[-9.154267,54.114085]},"h":26.51,"s":4,"id":"a678w479bdk2","lat":54.114085,"i":115,"t":0.1,"j":2.97,"u":30},{"lon":-8.434694,"k":5,"v":0.79,"a":117,"l":0.79,"w":4,"ab":21,"b":18.45,"m":43,"x":0.63,"ac":3.31,"c":95,"n":6.78,"y":15,"ad":634,"d":14.98,"o":15,"z":2.37,"e":32,"p":2.37,"f":5.05,"q":16,"town":"Ballina, North Tipperary","g":241,"r":2.52,"geometry":{"type":"Point","coordinates":[-8.434694,52.805239]},"h":38.01,"s":1,"id":"a678w4fz6eg7","lat":52.805239,"i":24,"t":0.16,"j":3.79,"u":5},{"lon":-8.226594,"k":25,"v":0.61,"a":557,"l":1.18,"w":25,"ab":98,"b":26.22,"m":189,"x":1.18,"ac":4.61,"c":307,"n":8.9,"y":66,"ad":2124,"d":14.45,"o":39,"z":3.11,"e":84,"p":1.84,"f":3.95,"q":43,"town":"Ballinasloe, Galway/Roscommon","g":597,"r":2.02,"geometry":{"type":"Point","coordinates":[-8.226594,53.33118]},"h":28.11,"s":0,"id":"a678w48kllws","lat":53.33118,"i":81,"t":0.0,"j":3.81,"u":13},{"lon":-9.222349,"k":8,"v":1.01,"a":203,"l":1.01,"w":8,"ab":52,"b":25.53,"m":55,"x":1.01,"ac":6.54,"c":124,"n":6.92,"y":37,"ad":795,"d":15.6,"o":22,"z":4.65,"e":45,"p":2.77,"f":5.66,"q":21,"town":"Ballinrobe, Mayo","g":188,"r":2.64,"geometry":{"type":"Point","coordinates":[-9.222349,53.62405]},"h":23.65,"s":0,"id":"a678w40o32ab","lat":53.62405,"i":24,"t":0.0,"j":3.02,"u":8},{"lon":-6.96056,"k":6,"v":0.96,"a":72,"l":1.44,"w":2,"ab":3,"b":17.22,"m":53,"x":0.48,"ac":0.72,"c":48,"n":12.68,"y":8,"ad":418,"d":11.48,"o":3,"z":1.91,"e":39,"p":0.72,"f":9.33,"q":5,"town":"Ballivor, Meath","g":139,"r":1.2,"geometry":{"type":"Point","coordinates":[-6.96056,53.530781]},"h":33.25,"s":2,"id":"a678w4btkf04","lat":53.530781,"i":34,"t":0.48,"j":8.13,"u":4},{"lon":-6.903005,"k":11,"v":1.26,"a":150,"l":2.3,"w":10,"ab":16,"b":31.38,"m":59,"x":2.09,"ac":3.35,"c":47,"n":12.34,"y":17,"ad":478,"d":9.83,"o":15,"z":3.56,"e":22,"p":3.14,"f":4.6,"q":13,"town":"Ballybay, Monaghan","g":92,"r":2.72,"geometry":{"type":"Point","coordinates":[-6.903005,54.130566]},"h":19.25,"s":1,"id":"a678w49djdj1","lat":54.130566,"i":19,"t":0.21,"j":3.97,"u":6},{"lon":-7.775689,"k":16,"v":1.14,"a":371,"l":1.08,"w":18,"ab":37,"b":24.97,"m":195,"x":1.21,"ac":2.49,"c":223,"n":13.12,"y":40,"ad":1486,"d":15.01,"o":24,"z":2.69,"e":68,"p":1.62,"f":4.58,"q":19,"town":"Ballybofey-Stranorlar, Donegal","g":405,"r":1.28,"geometry":{"type":"Point","coordinates":[-7.775689,54.801357]},"h":27.25,"s":4,"id":"a678w412qeea","lat":54.801357,"i":49,"t":0.27,"j":3.3,"u":17},{"lon":-9.216234,"k":14,"v":1.47,"a":181,"l":2.56,"w":12,"ab":7,"b":33.15,"m":59,"x":2.2,"ac":1.28,"c":82,"n":10.81,"y":13,"ad":546,"d":15.02,"o":1,"z":2.38,"e":8,"p":0.18,"f":1.47,"q":6,"town":"Ballybunion, Kerry","g":144,"r":1.1,"geometry":{"type":"Point","coordinates":[-9.216234,52.084173]},"h":26.37,"s":1,"id":"a678w4codwrj","lat":52.084173,"i":10,"t":0.18,"j":1.83,"u":8},{"lon":-6.339983,"k":3,"v":1.53,"a":124,"l":0.77,"w":5,"ab":6,"b":31.63,"m":37,"x":1.28,"ac":1.53,"c":68,"n":9.44,"y":12,"ad":392,"d":17.35,"o":10,"z":3.06,"e":15,"p":2.55,"f":3.83,"q":6,"town":"Ballygeary (or Rosslare Harbour), Wexford","g":81,"r":1.53,"geometry":{"type":"Point","coordinates":[-6.339983,52.25018]},"h":20.66,"s":0,"id":"a678w4ejy9zg","lat":52.25018,"i":19,"t":0.0,"j":4.85,"u":6},{"lon":-8.765018,"k":8,"v":0.34,"a":171,"l":1.37,"w":4,"ab":50,"b":29.28,"m":45,"x":0.68,"ac":8.56,"c":75,"n":7.71,"y":26,"ad":584,"d":12.84,"o":13,"z":4.45,"e":18,"p":2.23,"f":3.08,"q":8,"town":"Ballyhaunis, Mayo","g":150,"r":1.37,"geometry":{"type":"Point","coordinates":[-8.765018,53.763179]},"h":25.68,"s":3,"id":"a678w4530oxk","lat":53.763179,"i":11,"t":0.51,"j":1.88,"u":2},{"lon":-7.207578,"k":10,"v":1.23,"a":127,"l":1.75,"w":5,"ab":42,"b":22.24,"m":42,"x":0.88,"ac":7.36,"c":79,"n":7.36,"y":24,"ad":571,"d":13.84,"o":18,"z":4.2,"e":34,"p":3.15,"f":5.95,"q":19,"town":"Ballyjamesduff, Cavan","g":138,"r":3.33,"geometry":{"type":"Point","coordinates":[-7.207578,53.862659]},"h":24.17,"s":1,"id":"a678w4a5ko0q","lat":53.862659,"i":25,"t":0.18,"j":4.38,"u":7},{"lon":-8.516794,"k":7,"v":0.64,"a":152,"l":1.48,"w":3,"ab":8,"b":32.2,"m":51,"x":0.64,"ac":1.69,"c":69,"n":10.81,"y":15,"ad":472,"d":14.62,"o":1,"z":3.18,"e":17,"p":0.21,"f":3.6,"q":5,"town":"Ballymote, Sligo","g":117,"r":1.06,"geometry":{"type":"Point","coordinates":[-8.516794,54.087372]},"h":24.79,"s":1,"id":"a678w46hwzgl","lat":54.087372,"i":23,"t":0.21,"j":4.87,"u":3},{"lon":-7.334866,"k":10,"v":0.9,"a":50,"l":2.99,"w":5,"ab":6,"b":14.97,"m":47,"x":1.5,"ac":1.8,"c":46,"n":14.07,"y":5,"ad":334,"d":13.77,"o":1,"z":1.5,"e":15,"p":0.3,"f":4.49,"q":12,"town":"Ballyragget, Kilkenny","g":124,"r":3.59,"geometry":{"type":"Point","coordinates":[-7.334866,52.788403]},"h":37.13,"s":0,"id":"a678w4558fg5","lat":52.788403,"i":10,"t":0.0,"j":2.99,"u":3},{"lon":-8.189986,"k":16,"v":0.81,"a":264,"l":1.61,"w":15,"ab":16,"b":26.64,"m":131,"x":1.51,"ac":1.61,"c":153,"n":13.22,"y":25,"ad":991,"d":15.44,"o":9,"z":2.52,"e":31,"p":0.91,"f":3.13,"q":13,"town":"Ballyshannon, Donegal","g":275,"r":1.31,"geometry":{"type":"Point","coordinates":[-8.189986,54.501228]},"h":27.75,"s":2,"id":"a678w4eqcmr2","lat":54.501228,"i":33,"t":0.2,"j":3.33,"u":8},{"lon":-6.708839,"k":11,"v":1.4,"a":93,"l":1.92,"w":12,"ab":9,"b":16.23,"m":66,"x":2.09,"ac":1.57,"c":85,"n":11.52,"y":13,"ad":573,"d":14.83,"o":9,"z":2.27,"e":20,"p":1.57,"f":3.49,"q":21,"town":"Baltinglass, Wicklow","g":198,"r":3.66,"geometry":{"type":"Point","coordinates":[-6.708839,52.941015]},"h":34.55,"s":3,"id":"a678w42jz3l5","lat":52.941015,"i":25,"t":0.52,"j":4.36,"u":8},{"lon":-7.983871,"k":13,"v":0.71,"a":137,"l":2.3,"w":10,"ab":28,"b":24.25,"m":55,"x":1.77,"ac":4.96,"c":78,"n":9.73,"y":12,"ad":565,"d":13.81,"o":5,"z":2.12,"e":8,"p":0.88,"f":1.42,"q":13,"town":"Banagher, Offaly","g":193,"r":2.3,"geometry":{"type":"Point","coordinates":[-7.983871,53.189592]},"h":34.16,"s":1,"id":"a678w4abzu8y","lat":53.189592,"i":8,"t":0.18,"j":1.42,"u":4},{"lon":-8.736326,"k":26,"v":0.8,"a":538,"l":1.22,"w":21,"ab":71,"b":25.19,"m":245,"x":0.98,"ac":3.32,"c":297,"n":11.47,"y":69,"ad":2136,"d":13.9,"o":35,"z":3.23,"e":93,"p":1.64,"f":4.35,"q":41,"town":"Bandon, Cork","g":608,"r":1.92,"geometry":{"type":"Point","coordinates":[-8.736326,51.746703]},"h":28.46,"s":8,"id":"a678w47owyb7","lat":51.746703,"i":67,"t":0.37,"j":3.14,"u":17},{"lon":-9.450668,"k":18,"v":1.22,"a":421,"l":1.46,"w":10,"ab":44,"b":34.12,"m":132,"x":0.81,"ac":3.57,"c":163,"n":10.7,"y":38,"ad":1234,"d":13.21,"o":25,"z":3.08,"e":34,"p":2.03,"f":2.76,"q":19,"town":"Bantry Legal Town, Cork","g":282,"r":1.54,"geometry":{"type":"Point","coordinates":[-9.450668,51.680154]},"h":22.85,"s":7,"id":"a678w485jc9a","lat":51.680154,"i":26,"t":0.57,"j":2.11,"u":15},{"lon":-7.446271,"k":8,"v":0.34,"a":188,"l":1.37,"w":6,"ab":23,"b":32.14,"m":57,"x":1.03,"ac":3.93,"c":91,"n":9.74,"y":6,"ad":585,"d":15.56,"o":8,"z":1.03,"e":29,"p":1.37,"f":4.96,"q":5,"town":"Belturbet Legal Town, Cavan","g":135,"r":0.85,"geometry":{"type":"Point","coordinates":[-7.446271,54.099148]},"h":23.08,"s":4,"id":"a678w40icvpn","lat":54.099148,"i":23,"t":0.68,"j":3.93,"u":2},{"lon":-7.908963,"k":16,"v":0.72,"a":485,"l":0.89,"w":26,"ab":37,"b":26.9,"m":197,"x":1.44,"ac":2.05,"c":255,"n":10.93,"y":56,"ad":1803,"d":14.14,"o":24,"z":3.11,"e":56,"p":1.33,"f":3.11,"q":37,"town":"Birr, Offaly/North Tipperary","g":516,"r":2.05,"geometry":{"type":"Point","coordinates":[-7.908963,53.099376]},"h":28.62,"s":5,"id":"a678w4b1nryf","lat":53.099376,"i":80,"t":0.28,"j":4.44,"u":13},{"lon":-8.567116,"k":12,"v":1.24,"a":157,"l":1.48,"w":5,"ab":24,"b":19.41,"m":68,"x":0.62,"ac":2.97,"c":115,"n":8.41,"y":11,"ad":809,"d":14.22,"o":15,"z":1.36,"e":31,"p":1.85,"f":3.83,"q":15,"town":"Blarney, Cork","g":314,"r":1.85,"geometry":{"type":"Point","coordinates":[-8.567116,51.930492]},"h":38.81,"s":2,"id":"a678w44vglaf","lat":51.930492,"i":30,"t":0.25,"j":3.71,"u":10},{"lon":-6.534074,"k":18,"v":0.57,"a":217,"l":1.29,"w":19,"ab":41,"b":15.56,"m":122,"x":1.36,"ac":2.94,"c":170,"n":8.75,"y":28,"ad":1395,"d":12.19,"o":15,"z":2.01,"e":147,"p":1.08,"f":10.54,"q":29,"town":"Blessington, Wicklow","g":512,"r":2.08,"geometry":{"type":"Point","coordinates":[-6.534074,53.170358]},"h":36.7,"s":4,"id":"a678w43wkwjd","lat":53.170358,"i":65,"t":0.29,"j":4.66,"u":8},{"lon":-8.302618,"k":12,"v":0.93,"a":324,"l":1.24,"w":13,"ab":23,"b":33.47,"m":70,"x":1.34,"ac":2.38,"c":160,"n":7.23,"y":28,"ad":968,"d":16.53,"o":14,"z":2.89,"e":42,"p":1.45,"f":4.34,"q":17,"town":"Boyle, Roscommon","g":227,"r":1.76,"geometry":{"type":"Point","coordinates":[-8.302618,53.971179]},"h":23.45,"s":0,"id":"a678w4474rxv","lat":53.971179,"i":29,"t":0.0,"j":3.0,"u":9},{"lon":-6.109361,"k":148,"v":1.54,"a":2193,"l":1.36,"w":198,"ab":415,"b":20.19,"m":1252,"x":1.82,"ac":3.82,"c":1372,"n":11.53,"y":241,"ad":10861,"d":12.63,"o":213,"z":2.22,"e":499,"p":1.96,"f":4.59,"q":277,"town":"Bray, Wicklow/Dún Laoghaire-Rathdown","g":3507,"r":2.55,"geometry":{"type":"Point","coordinates":[-6.109361,53.203972]},"h":32.29,"s":12,"id":"a678w4bi7ysd","lat":53.203972,"i":367,"t":0.11,"j":3.38,"u":167},{"lon":-6.6549,"k":7,"v":0.83,"a":136,"l":1.16,"w":6,"ab":30,"b":22.44,"m":61,"x":0.99,"ac":4.95,"c":93,"n":10.07,"y":22,"ad":606,"d":15.35,"o":16,"z":3.63,"e":18,"p":2.64,"f":2.97,"q":23,"town":"Bunclody-Carrickduff, Carlow/Wexford","g":168,"r":3.8,"geometry":{"type":"Point","coordinates":[-6.6549,52.655636]},"h":27.72,"s":2,"id":"a678w49cwj8p","lat":52.655636,"i":19,"t":0.33,"j":3.14,"u":5},{"lon":-7.456054,"k":27,"v":1.03,"a":462,"l":1.32,"w":25,"ab":37,"b":22.67,"m":278,"x":1.23,"ac":1.82,"c":273,"n":13.64,"y":42,"ad":2038,"d":13.4,"o":26,"z":2.06,"e":59,"p":1.28,"f":2.89,"q":36,"town":"Buncrana, Donegal","g":697,"r":1.77,"geometry":{"type":"Point","coordinates":[-7.456054,55.13661]},"h":34.2,"s":7,"id":"a678w43aptv1","lat":55.13661,"i":48,"t":0.34,"j":2.36,"u":21},{"lon":-8.286519,"k":13,"v":1.17,"a":185,"l":1.91,"w":5,"ab":20,"b":27.17,"m":91,"x":0.73,"ac":2.94,"c":102,"n":13.36,"y":23,"ad":681,"d":14.98,"o":12,"z":3.38,"e":30,"p":1.76,"f":4.41,"q":13,"town":"Bundoran, Donegal","g":162,"r":1.91,"geometry":{"type":"Point","coordinates":[-8.286519,54.47654]},"h":23.79,"s":0,"id":"a678w4892l5v","lat":54.47654,"i":17,"t":0.0,"j":2.5,"u":8},{"lon":-9.991043,"k":6,"v":0.79,"a":96,"l":1.58,"w":2,"ab":15,"b":25.26,"m":42,"x":0.53,"ac":3.95,"c":58,"n":11.05,"y":16,"ad":380,"d":15.26,"o":11,"z":4.21,"e":22,"p":2.89,"f":5.79,"q":8,"town":"Béal an Mhuirthead, Mayo","g":89,"r":2.11,"geometry":{"type":"Point","coordinates":[-9.991043,54.224722]},"h":23.42,"s":0,"id":"a678w4ci1h27","lat":54.224722,"i":12,"t":0.0,"j":3.16,"u":3},{"lon":-9.535868,"k":20,"v":0.86,"a":363,"l":1.56,"w":14,"ab":61,"b":28.25,"m":138,"x":1.09,"ac":4.75,"c":181,"n":10.74,"y":40,"ad":1285,"d":14.09,"o":41,"z":3.11,"e":64,"p":3.19,"f":4.98,"q":31,"town":"Cahir, South Tipperary","g":268,"r":2.41,"geometry":{"type":"Point","coordinates":[-9.535868,52.07777]},"h":20.86,"s":5,"id":"a678w41qci8t","lat":52.07777,"i":48,"t":0.39,"j":3.74,"u":11},{"lon":-10.224143,"k":8,"v":0.6,"a":157,"l":1.61,"w":4,"ab":25,"b":31.59,"m":44,"x":0.8,"ac":5.03,"c":65,"n":8.85,"y":18,"ad":497,"d":13.08,"o":10,"z":3.62,"e":26,"p":2.01,"f":5.23,"q":6,"town":"Cahirciveen, Kerry","g":114,"r":1.21,"geometry":{"type":"Point","coordinates":[-10.224143,51.94777]},"h":22.94,"s":2,"id":"a678w4fn7mcf","lat":51.94777,"i":15,"t":0.4,"j":3.02,"u":3},{"lon":-7.396371,"k":8,"v":1.26,"a":165,"l":1.26,"w":3,"ab":13,"b":26.07,"m":54,"x":0.47,"ac":2.05,"c":97,"n":8.53,"y":20,"ad":633,"d":15.32,"o":6,"z":3.16,"e":47,"p":0.95,"f":7.42,"q":14,"town":"Callan, Kilkenny","g":168,"r":2.21,"geometry":{"type":"Point","coordinates":[-7.396371,52.545544]},"h":26.54,"s":0,"id":"a678w4amtu15","lat":52.545544,"i":30,"t":0.0,"j":4.74,"u":8},{"lon":-6.931726,"k":113,"v":1.32,"a":1702,"l":1.52,"w":86,"ab":490,"b":22.84,"m":832,"x":1.15,"ac":6.58,"c":866,"n":11.16,"y":246,"ad":7452,"d":11.62,"o":197,"z":3.3,"e":455,"p":2.64,"f":6.11,"q":125,"town":"Carlow, Carlow/Laoighis","g":1899,"r":1.68,"geometry":{"type":"Point","coordinates":[-6.931726,52.837045]},"h":25.48,"s":11,"id":"a678w443dpqp","lat":52.837045,"i":332,"t":0.15,"j":4.46,"u":98},{"lon":-7.261404,"k":7,"v":1.13,"a":215,"l":0.99,"w":7,"ab":12,"b":30.5,"m":107,"x":0.99,"ac":1.7,"c":100,"n":15.18,"y":11,"ad":705,"d":14.18,"o":6,"z":1.56,"e":24,"p":0.85,"f":3.4,"q":11,"town":"Carndonagh, Donegal","g":190,"r":1.56,"geometry":{"type":"Point","coordinates":[-7.261404,55.25128]},"h":26.95,"s":0,"id":"a678w4048l65","lat":55.25128,"i":7,"t":0.0,"j":0.99,"u":8},{"lon":-8.094676,"k":12,"v":0.94,"a":334,"l":1.02,"w":9,"ab":115,"b":28.5,"m":91,"x":0.77,"ac":9.81,"c":141,"n":7.76,"y":40,"ad":1172,"d":12.03,"o":30,"z":3.41,"e":91,"p":2.56,"f":7.76,"q":18,"town":"Carrick-on-Shannon, Leitrim/Roscommon","g":245,"r":1.54,"geometry":{"type":"Point","coordinates":[-8.094676,53.943397]},"h":20.9,"s":4,"id":"a678w4950et4","lat":53.943397,"i":31,"t":0.34,"j":2.65,"u":11},{"lon":-7.42121,"k":35,"v":1.09,"a":532,"l":1.66,"w":33,"ab":51,"b":25.3,"m":306,"x":1.57,"ac":2.43,"c":280,"n":14.55,"y":53,"ad":2103,"d":13.31,"o":31,"z":2.52,"e":53,"p":1.47,"f":2.52,"q":39,"town":"Carrick-on-Suir Legal Town, South Tipperary","g":575,"r":1.85,"geometry":{"type":"Point","coordinates":[-7.42121,52.34348]},"h":27.34,"s":4,"id":"a678w4avb3uj","lat":52.34348,"i":88,"t":0.19,"j":4.18,"u":23},{"lon":-6.718895,"k":28,"v":1.22,"a":406,"l":1.71,"w":17,"ab":94,"b":24.77,"m":177,"x":1.04,"ac":5.74,"c":208,"n":10.8,"y":66,"ad":1639,"d":12.69,"o":49,"z":4.03,"e":61,"p":2.99,"f":3.72,"q":34,"town":"Carrickmacross, Monaghan","g":418,"r":2.07,"geometry":{"type":"Point","coordinates":[-6.718895,53.975083]},"h":25.5,"s":5,"id":"a678w4f7d1bv","lat":53.975083,"i":56,"t":0.31,"j":3.42,"u":20},{"lon":-7.644566,"k":49,"v":0.85,"a":673,"l":1.15,"w":43,"ab":114,"b":15.8,"m":357,"x":1.01,"ac":2.68,"c":541,"n":8.38,"y":72,"ad":4260,"d":12.7,"o":68,"z":1.69,"e":249,"p":1.6,"f":5.85,"q":87,"town":"Carrigaline, Cork","g":1813,"r":2.04,"geometry":{"type":"Point","coordinates":[-7.644566,53.976943]},"h":42.56,"s":11,"id":"a678w42i7khn","lat":53.976943,"i":147,"t":0.26,"j":3.45,"u":36},{"lon":-8.257949,"k":8,"v":0.37,"a":238,"l":0.74,"w":8,"ab":41,"b":22.0,"m":74,"x":0.74,"ac":3.79,"c":123,"n":6.84,"y":26,"ad":1082,"d":11.37,"o":18,"z":2.4,"e":175,"p":1.66,"f":16.17,"q":13,"town":"Carrigtwohill, Cork","g":295,"r":1.2,"geometry":{"type":"Point","coordinates":[-8.257949,51.909449]},"h":27.26,"s":1,"id":"a678w4f3pdup","lat":51.909449,"i":58,"t":0.09,"j":5.36,"u":4},{"lon":-7.891231,"k":10,"v":1.68,"a":327,"l":0.93,"w":18,"ab":43,"b":30.48,"m":142,"x":1.68,"ac":4.01,"c":139,"n":13.23,"y":26,"ad":1073,"d":12.95,"o":19,"z":2.42,"e":45,"p":1.77,"f":4.19,"q":22,"town":"Cashel, South Tipperary","g":219,"r":2.05,"geometry":{"type":"Point","coordinates":[-7.891231,52.516822]},"h":20.41,"s":2,"id":"a678w40wyxxf","lat":52.516822,"i":43,"t":0.19,"j":4.01,"u":18},{"lon":-9.292637,"k":54,"v":0.78,"a":1369,"l":1.2,"w":21,"ab":329,"b":30.52,"m":417,"x":0.47,"ac":7.34,"c":494,"n":9.3,"y":124,"ad":4485,"d":11.01,"o":70,"z":2.76,"e":238,"p":1.56,"f":5.31,"q":64,"town":"Castlebar, Mayo","g":1134,"r":1.43,"geometry":{"type":"Point","coordinates":[-9.292637,53.857963]},"h":25.28,"s":12,"id":"a678w468q023","lat":53.857963,"i":124,"t":0.27,"j":2.76,"u":35},{"lon":-6.737964,"k":21,"v":0.88,"a":321,"l":1.84,"w":18,"ab":46,"b":28.11,"m":140,"x":1.58,"ac":4.03,"c":124,"n":12.26,"y":56,"ad":1142,"d":10.86,"o":28,"z":4.9,"e":44,"p":2.45,"f":3.85,"q":30,"town":"Castleblayney, Monaghan","g":272,"r":2.63,"geometry":{"type":"Point","coordinates":[-6.737964,54.120118]},"h":23.82,"s":2,"id":"a678w4bqfa0v","lat":54.120118,"i":30,"t":0.18,"j":2.63,"u":10},{"lon":-6.450359,"k":11,"v":0.51,"a":121,"l":1.87,"w":8,"ab":17,"b":20.54,"m":72,"x":1.36,"ac":2.89,"c":74,"n":12.22,"y":15,"ad":589,"d":12.56,"o":5,"z":2.55,"e":37,"p":0.85,"f":6.28,"q":5,"town":"Castlebridge, Wexford","g":182,"r":0.85,"geometry":{"type":"Point","coordinates":[-6.450359,52.381035]},"h":30.9,"s":3,"id":"a678w47tj98w","lat":52.381035,"i":36,"t":0.51,"j":6.11,"u":3},{"lon":-7.209071,"k":11,"v":0.36,"a":143,"l":1.97,"w":5,"ab":6,"b":25.58,"m":66,"x":0.89,"ac":1.07,"c":71,"n":11.81,"y":19,"ad":559,"d":12.7,"o":11,"z":3.4,"e":25,"p":1.97,"f":4.47,"q":12,"town":"Castlecomer-Donaguile, Kilkenny","g":158,"r":2.15,"geometry":{"type":"Point","coordinates":[-7.209071,52.805236]},"h":28.26,"s":2,"id":"a678w4dej5zr","lat":52.805236,"i":28,"t":0.36,"j":5.01,"u":2},{"lon":-8.502963,"k":13,"v":0.87,"a":99,"l":2.82,"w":5,"ab":7,"b":21.48,"m":43,"x":1.08,"ac":1.52,"c":70,"n":9.33,"y":4,"ad":461,"d":15.18,"o":5,"z":0.87,"e":16,"p":1.08,"f":3.47,"q":6,"town":"Castleconnell, Limerick","g":168,"r":1.3,"geometry":{"type":"Point","coordinates":[-8.502963,52.712842]},"h":36.44,"s":2,"id":"a678w4db2rjw","lat":52.712842,"i":19,"t":0.43,"j":4.12,"u":4},{"lon":-9.465884,"k":17,"v":0.59,"a":230,"l":2.02,"w":9,"ab":13,"b":27.35,"m":112,"x":1.07,"ac":1.55,"c":133,"n":13.32,"y":31,"ad":841,"d":15.81,"o":18,"z":3.69,"e":15,"p":2.14,"f":1.78,"q":24,"town":"Castleisland, Kerry","g":222,"r":2.85,"geometry":{"type":"Point","coordinates":[-9.465884,52.230065]},"h":26.4,"s":0,"id":"a678w4c1son3","lat":52.230065,"i":12,"t":0.0,"j":1.43,"u":5},{"lon":-7.296471,"k":6,"v":0.57,"a":85,"l":1.72,"w":8,"ab":6,"b":24.36,"m":43,"x":2.29,"ac":1.72,"c":56,"n":12.32,"y":8,"ad":349,"d":16.05,"o":7,"z":2.29,"e":10,"p":2.01,"f":2.87,"q":5,"town":"Castlepollard, Westmeath","g":94,"r":1.43,"geometry":{"type":"Point","coordinates":[-7.296471,53.681309]},"h":26.93,"s":1,"id":"a678w4bcugac","lat":53.681309,"i":18,"t":0.29,"j":5.16,"u":2},{"lon":-8.490604,"k":6,"v":0.54,"a":243,"l":0.82,"w":3,"ab":25,"b":33.11,"m":73,"x":0.41,"ac":3.41,"c":126,"n":9.95,"y":19,"ad":734,"d":17.17,"o":2,"z":2.59,"e":20,"p":0.27,"f":2.72,"q":14,"town":"Castlerea, Roscommon","g":177,"r":1.91,"geometry":{"type":"Point","coordinates":[-8.490604,53.76797]},"h":24.11,"s":0,"id":"a678w45jct5d","lat":53.76797,"i":22,"t":0.0,"j":3.0,"u":4},{"lon":-7.362157,"k":28,"v":0.52,"a":834,"l":0.97,"w":29,"ab":171,"b":28.95,"m":296,"x":1.01,"ac":5.94,"c":366,"n":10.27,"y":88,"ad":2881,"d":12.7,"o":69,"z":3.05,"e":168,"p":2.4,"f":5.83,"q":70,"town":"Cavan, Cavan","g":639,"r":2.43,"geometry":{"type":"Point","coordinates":[-7.362157,53.988534]},"h":22.18,"s":9,"id":"a678w425bnci","lat":53.988534,"i":99,"t":0.31,"j":3.44,"u":15},{"lon":-6.879172,"k":26,"v":0.74,"a":409,"l":1.38,"w":26,"ab":56,"b":21.71,"m":207,"x":1.38,"ac":2.97,"c":243,"n":10.99,"y":71,"ad":1884,"d":12.9,"o":29,"z":3.77,"e":116,"p":1.54,"f":6.16,"q":38,"town":"Ceannanus Mór (Kells), Meath","g":560,"r":2.02,"geometry":{"type":"Point","coordinates":[-6.879172,53.725752]},"h":29.72,"s":7,"id":"a678w49hbymf","lat":53.725752,"i":82,"t":0.37,"j":4.35,"u":14},{"lon":-6.539589,"k":72,"v":0.84,"a":770,"l":1.31,"w":66,"ab":226,"b":13.99,"m":477,"x":1.2,"ac":4.11,"c":637,"n":8.67,"y":121,"ad":5504,"d":11.57,"o":81,"z":2.2,"e":320,"p":1.47,"f":5.81,"q":110,"town":"Celbridge, Kildare","g":2390,"r":2.0,"geometry":{"type":"Point","coordinates":[-6.539589,53.338535]},"h":43.42,"s":12,"id":"a678w4eq3ivd","lat":53.338535,"i":176,"t":0.22,"j":3.2,"u":46},{"lon":-6.686034,"k":19,"v":1.05,"a":316,"l":1.11,"w":16,"ab":48,"b":18.49,"m":166,"x":0.94,"ac":2.81,"c":242,"n":9.71,"y":25,"ad":1709,"d":14.16,"o":26,"z":1.46,"e":134,"p":1.52,"f":7.84,"q":29,"town":"Clane, Kildare","g":599,"r":1.7,"geometry":{"type":"Point","coordinates":[-6.686034,53.29059]},"h":35.05,"s":6,"id":"a678w483b9ih","lat":53.29059,"i":65,"t":0.35,"j":3.8,"u":18},{"lon":-7.615569,"k":12,"v":0.98,"a":203,"l":1.17,"w":20,"ab":7,"b":19.86,"m":141,"x":1.96,"ac":0.68,"c":146,"n":13.8,"y":16,"ad":1022,"d":14.29,"o":18,"z":1.57,"e":49,"p":1.76,"f":4.79,"q":28,"town":"Clara, Offaly","g":314,"r":2.74,"geometry":{"type":"Point","coordinates":[-7.615569,53.34451]},"h":30.72,"s":4,"id":"a678w44ouew8","lat":53.34451,"i":54,"t":0.39,"j":5.28,"u":10},{"lon":-8.996689,"k":10,"v":1.14,"a":293,"l":1.03,"w":4,"ab":42,"b":30.24,"m":95,"x":0.41,"ac":4.33,"c":124,"n":9.8,"y":20,"ad":969,"d":12.8,"o":24,"z":2.06,"e":51,"p":2.48,"f":5.26,"q":20,"town":"Claremorris, Mayo","g":243,"r":2.06,"geometry":{"type":"Point","coordinates":[-8.996689,53.723475]},"h":25.08,"s":1,"id":"a678w41t9vox","lat":53.723475,"i":31,"t":0.1,"j":3.2,"u":11},{"lon":-10.020301,"k":8,"v":0.88,"a":119,"l":1.77,"w":2,"ab":18,"b":26.27,"m":59,"x":0.44,"ac":3.97,"c":67,"n":13.02,"y":15,"ad":453,"d":14.79,"o":9,"z":3.31,"e":17,"p":1.99,"f":3.75,"q":4,"town":"Clifden, Galway","g":118,"r":0.88,"geometry":{"type":"Point","coordinates":[-10.020301,53.489135]},"h":26.05,"s":0,"id":"a678w41cjl29","lat":53.489135,"i":13,"t":0.0,"j":2.87,"u":4},{"lon":-6.238872,"k":8,"v":0.89,"a":114,"l":1.42,"w":9,"ab":14,"b":20.21,"m":62,"x":1.6,"ac":2.48,"c":60,"n":10.99,"y":14,"ad":564,"d":10.64,"o":4,"z":2.48,"e":50,"p":0.71,"f":8.87,"q":12,"town":"Clogherhead, Louth","g":181,"r":2.13,"geometry":{"type":"Point","coordinates":[-6.238872,53.791453]},"h":32.09,"s":2,"id":"a678w411zajg","lat":53.791453,"i":29,"t":0.35,"j":5.14,"u":5},{"lon":-8.884636,"k":21,"v":0.77,"a":396,"l":1.47,"w":17,"ab":78,"b":27.65,"m":134,"x":1.19,"ac":5.45,"c":178,"n":9.36,"y":35,"ad":1432,"d":12.43,"o":32,"z":2.44,"e":76,"p":2.23,"f":5.31,"q":30,"town":"Clonakilty, Cork","g":381,"r":2.09,"geometry":{"type":"Point","coordinates":[-8.884636,51.623348]},"h":26.61,"s":4,"id":"a678w49kstb6","lat":51.623348,"i":39,"t":0.28,"j":2.72,"u":11},{"lon":-6.439916,"k":3,"v":0.53,"a":76,"l":0.8,"w":1,"ab":29,"b":20.32,"m":13,"x":0.27,"ac":7.75,"c":51,"n":3.48,"y":13,"ad":374,"d":13.64,"o":14,"z":3.48,"e":71,"p":3.74,"f":18.98,"q":11,"town":"Clonee Village, Meath","g":80,"r":2.94,"geometry":{"type":"Point","coordinates":[-6.439916,53.409721]},"h":21.39,"s":1,"id":"a678w49r1axw","lat":53.409721,"i":9,"t":0.27,"j":2.41,"u":2},{"lon":-7.232169,"k":15,"v":0.88,"a":207,"l":2.19,"w":10,"ab":17,"b":30.26,"m":63,"x":1.46,"ac":2.49,"c":105,"n":9.21,"y":21,"ad":684,"d":15.35,"o":15,"z":3.07,"e":12,"p":2.19,"f":1.75,"q":11,"town":"Clones, Monaghan","g":188,"r":1.61,"geometry":{"type":"Point","coordinates":[-7.232169,54.17921]},"h":27.49,"s":1,"id":"a678w4g42av6","lat":54.17921,"i":13,"t":0.15,"j":1.9,"u":6},{"lon":-7.698221,"k":112,"v":1.07,"a":1637,"l":1.76,"w":86,"ab":237,"b":25.74,"m":722,"x":1.35,"ac":3.73,"c":901,"n":11.35,"y":152,"ad":6360,"d":14.17,"o":97,"z":2.39,"e":292,"p":1.53,"f":4.59,"q":97,"town":"Clonmel, South Tipperary/Waterford","g":1726,"r":1.53,"geometry":{"type":"Point","coordinates":[-7.698221,52.355522]},"h":27.14,"s":17,"id":"a678w4as43fe","lat":52.355522,"i":216,"t":0.27,"j":3.4,"u":68},{"lon":-8.118918,"k":7,"v":1.23,"a":93,"l":1.72,"w":7,"ab":9,"b":22.91,"m":34,"x":1.72,"ac":2.22,"c":58,"n":8.37,"y":8,"ad":406,"d":14.29,"o":8,"z":1.97,"e":30,"p":1.97,"f":7.39,"q":8,"town":"Cloyne, Cork","g":115,"r":1.97,"geometry":{"type":"Point","coordinates":[-8.118918,51.863027]},"h":28.33,"s":1,"id":"a678w466an87","lat":51.863027,"i":23,"t":0.25,"j":5.67,"u":5},{"lon":-8.294384,"k":76,"v":1.06,"a":975,"l":1.83,"w":52,"ab":93,"b":23.54,"m":414,"x":1.26,"ac":2.25,"c":542,"n":10.0,"y":75,"ad":4142,"d":13.09,"o":63,"z":1.81,"e":266,"p":1.52,"f":6.42,"q":72,"town":"Cobh, Cork","g":1268,"r":1.74,"geometry":{"type":"Point","coordinates":[-8.294384,51.849882]},"h":30.61,"s":13,"id":"a678w486bbae","lat":51.849882,"i":189,"t":0.31,"j":4.56,"u":44},{"lon":-7.664284,"k":10,"v":1.77,"a":80,"l":2.53,"w":12,"ab":10,"b":20.2,"m":69,"x":3.03,"ac":2.53,"c":52,"n":17.42,"y":8,"ad":396,"d":13.13,"o":5,"z":2.02,"e":20,"p":1.26,"f":5.05,"q":6,"town":"Convoy, Donegal","g":106,"r":1.52,"geometry":{"type":"Point","coordinates":[-7.664284,54.859883]},"h":26.77,"s":1,"id":"a678w41d4p0n","lat":54.859883,"i":10,"t":0.25,"j":2.53,"u":7},{"lon":-7.082828,"k":14,"v":1.1,"a":217,"l":1.93,"w":10,"ab":15,"b":29.85,"m":61,"x":1.38,"ac":2.06,"c":109,"n":8.39,"y":11,"ad":727,"d":14.99,"o":13,"z":1.51,"e":24,"p":1.79,"f":3.3,"q":20,"town":"Cootehill, Cavan","g":190,"r":2.75,"geometry":{"type":"Point","coordinates":[-7.082828,54.072709]},"h":26.13,"s":2,"id":"a678w49r1wj8","lat":54.072709,"i":33,"t":0.28,"j":4.54,"u":8},{"lon":-8.471051,"k":1009,"v":0.99,"a":15442,"l":1.5,"w":952,"ab":5223,"b":23.03,"m":6279,"x":1.42,"ac":7.79,"c":8618,"n":9.37,"y":2044,"ad":67044,"d":12.85,"o":1172,"z":3.05,"e":2775,"p":1.75,"f":4.14,"q":1203,"town":"Cork City and Suburbs","g":20136,"r":1.79,"geometry":{"type":"Point","coordinates":[-8.471051,51.897868]},"h":30.03,"s":138,"id":"a678w409rtuq","lat":51.897868,"i":1390,"t":0.21,"j":2.07,"u":663},{"lon":-6.244753,"k":9,"v":0.78,"a":123,"l":1.76,"w":7,"ab":12,"b":24.07,"m":56,"x":1.37,"ac":2.35,"c":84,"n":10.96,"y":12,"ad":511,"d":16.44,"o":5,"z":2.35,"e":35,"p":0.98,"f":6.85,"q":10,"town":"Courtown Harbour, Wexford","g":122,"r":1.96,"geometry":{"type":"Point","coordinates":[-6.244753,52.603727]},"h":23.87,"s":2,"id":"a678w440x39m","lat":52.603727,"i":30,"t":0.39,"j":5.87,"u":4},{"lon":-8.717273,"k":6,"v":1.42,"a":80,"l":1.7,"w":5,"ab":4,"b":22.66,"m":47,"x":1.42,"ac":1.13,"c":49,"n":13.31,"y":7,"ad":353,"d":13.88,"o":4,"z":1.98,"e":10,"p":1.13,"f":2.83,"q":9,"town":"Croom, Limerick","g":111,"r":2.55,"geometry":{"type":"Point","coordinates":[-8.717273,52.51907]},"h":31.44,"s":0,"id":"a678w47dszkq","lat":52.51907,"i":16,"t":0.0,"j":4.53,"u":5},{"lon":-8.2959,"k":3,"v":1.12,"a":157,"l":0.48,"w":8,"ab":9,"b":25.16,"m":48,"x":1.28,"ac":1.44,"c":100,"n":7.69,"y":14,"ad":624,"d":16.03,"o":8,"z":2.24,"e":28,"p":1.28,"f":4.49,"q":7,"town":"Crosshaven, Cork","g":216,"r":1.12,"geometry":{"type":"Point","coordinates":[-8.2959,51.802202]},"h":34.62,"s":1,"id":"a678w4ets2oy","lat":51.802202,"i":18,"t":0.16,"j":2.88,"u":7},{"lon":-7.29071,"k":14,"v":0.84,"a":76,"l":3.91,"w":3,"ab":7,"b":21.23,"m":45,"x":0.84,"ac":1.96,"c":38,"n":12.57,"y":7,"ad":358,"d":10.61,"o":8,"z":1.96,"e":16,"p":2.23,"f":4.47,"q":15,"town":"Daingean, Offaly","g":103,"r":4.19,"geometry":{"type":"Point","coordinates":[-7.29071,53.296015]},"h":28.77,"s":0,"id":"a678w426zx69","lat":53.296015,"i":23,"t":0.0,"j":6.42,"u":3},{"lon":-6.940086,"k":8,"v":0.8,"a":57,"l":2.14,"w":6,"ab":2,"b":15.28,"m":41,"x":1.61,"ac":0.54,"c":55,"n":10.99,"y":5,"ad":373,"d":14.75,"o":6,"z":1.34,"e":17,"p":1.61,"f":4.56,"q":13,"town":"Derrinturn, Kildare","g":132,"r":3.49,"geometry":{"type":"Point","coordinates":[-6.940086,53.339577]},"h":35.39,"s":0,"id":"a678w4dqhbc2","lat":53.339577,"i":28,"t":0.0,"j":7.51,"u":3},{"lon":-6.160267,"k":16,"v":0.8,"a":327,"l":0.85,"w":14,"ab":26,"b":17.41,"m":149,"x":0.75,"ac":1.38,"c":234,"n":7.93,"y":25,"ad":1878,"d":12.46,"o":18,"z":1.33,"e":160,"p":0.96,"f":8.52,"q":26,"town":"Donabate, Fingal","g":801,"r":1.38,"geometry":{"type":"Point","coordinates":[-6.160267,53.487545]},"h":42.65,"s":2,"id":"a678w46dxtpr","lat":53.487545,"i":65,"t":0.11,"j":3.46,"u":15},{"lon":-8.110624,"k":8,"v":0.73,"a":221,"l":0.97,"w":10,"ab":34,"b":26.85,"m":81,"x":1.22,"ac":4.13,"c":133,"n":9.84,"y":21,"ad":823,"d":16.16,"o":13,"z":2.55,"e":25,"p":1.58,"f":3.04,"q":8,"town":"Donegal, Donegal","g":239,"r":0.97,"geometry":{"type":"Point","coordinates":[-8.110624,54.654305]},"h":29.04,"s":2,"id":"a678w4f0iwxr","lat":54.654305,"i":22,"t":0.24,"j":2.67,"u":6},{"lon":-6.356979,"k":194,"v":1.16,"a":2756,"l":1.54,"w":193,"ab":395,"b":21.91,"m":1229,"x":1.53,"ac":3.14,"c":1725,"n":9.77,"y":302,"ad":12580,"d":13.71,"o":226,"z":2.4,"e":807,"p":1.8,"f":6.41,"q":252,"town":"Drogheda, Louth/Meath","g":3764,"r":2.0,"geometry":{"type":"Point","coordinates":[-6.356979,53.71603]},"h":29.92,"s":29,"id":"a678w4126y77","lat":53.71603,"i":562,"t":0.23,"j":4.47,"u":146},{"lon":-9.286501,"k":83,"v":1.29,"a":1023,"l":1.34,"w":133,"ab":267,"b":16.53,"m":660,"x":2.15,"ac":4.31,"c":842,"n":10.66,"y":147,"ad":6189,"d":13.6,"o":136,"z":2.38,"e":339,"p":2.2,"f":5.48,"q":184,"town":"Droichead Nua, Kildare","g":2056,"r":2.97,"geometry":{"type":"Point","coordinates":[-9.286501,51.551995]},"h":33.22,"s":21,"id":"a678w40nz59t","lat":51.551995,"i":218,"t":0.34,"j":3.52,"u":80},{"lon":-6.267408,"k":5124,"v":1.28,"a":89330,"l":1.37,"w":6410,"ab":27354,"b":23.94,"m":36294,"x":1.72,"ac":7.33,"c":46142,"n":9.73,"y":13839,"ad":373123,"d":12.37,"o":7456,"z":3.71,"e":19614,"p":2.0,"f":5.26,"q":7506,"town":"Dublin City and Suburbs","g":99431,"r":2.01,"geometry":{"type":"Point","coordinates":[-6.267408,53.344181]},"h":26.65,"s":945,"id":"a678w42f2l2e","lat":53.344181,"i":8898,"t":0.25,"j":2.38,"u":4780},{"lon":-6.413301,"k":17,"v":1.08,"a":175,"l":1.54,"w":16,"ab":25,"b":15.81,"m":100,"x":1.45,"ac":2.26,"c":157,"n":9.03,"y":16,"ad":1107,"d":14.18,"o":10,"z":1.45,"e":95,"p":0.9,"f":8.58,"q":25,"town":"Duleek, Meath","g":373,"r":2.26,"geometry":{"type":"Point","coordinates":[-6.413301,53.656718]},"h":33.69,"s":2,"id":"a678w4elhrql","lat":53.656718,"i":84,"t":0.18,"j":7.59,"u":12},{"lon":-6.475865,"k":24,"v":0.62,"a":168,"l":1.48,"w":23,"ab":37,"b":10.34,"m":132,"x":1.42,"ac":2.28,"c":156,"n":8.13,"y":32,"ad":1624,"d":9.61,"o":14,"z":1.97,"e":60,"p":0.86,"f":3.69,"q":46,"town":"Dunboyne, Meath","g":876,"r":2.83,"geometry":{"type":"Point","coordinates":[-6.475865,53.41949]},"h":53.94,"s":3,"id":"a678w4dejqvp","lat":53.41949,"i":43,"t":0.18,"j":2.65,"u":10},{"lon":-6.404311,"k":192,"v":1.41,"a":3124,"l":1.51,"w":203,"ab":518,"b":24.52,"m":1602,"x":1.59,"ac":4.07,"c":1615,"n":12.57,"y":372,"ad":12742,"d":12.67,"o":179,"z":2.92,"e":546,"p":1.4,"f":4.29,"q":214,"town":"Dundalk, Louth","g":3568,"r":1.68,"geometry":{"type":"Point","coordinates":[-6.404311,54.001871]},"h":28.0,"s":31,"id":"a678w4a4xzi4","lat":54.001871,"i":398,"t":0.24,"j":3.12,"u":180},{"lon":-7.620899,"k":52,"v":1.04,"a":846,"l":1.69,"w":32,"ab":108,"b":27.42,"m":360,"x":1.04,"ac":3.5,"c":418,"n":11.67,"y":96,"ad":3085,"d":13.55,"o":60,"z":3.11,"e":152,"p":1.94,"f":4.93,"q":50,"town":"Dungarvan, Waterford","g":754,"r":1.62,"geometry":{"type":"Point","coordinates":[-7.620899,52.08958]},"h":24.44,"s":12,"id":"a678w4djumwi","lat":52.08958,"i":113,"t":0.39,"j":3.66,"u":32},{"lon":-6.394809,"k":6,"v":0.74,"a":115,"l":1.12,"w":5,"ab":8,"b":21.38,"m":58,"x":0.93,"ac":1.49,"c":76,"n":10.78,"y":18,"ad":538,"d":14.13,"o":7,"z":3.35,"e":45,"p":1.3,"f":8.36,"q":8,"town":"Dunleer, Louth","g":157,"r":1.49,"geometry":{"type":"Point","coordinates":[-6.394809,53.8299]},"h":29.18,"s":2,"id":"a678w4a43gtt","lat":53.8299,"i":29,"t":0.37,"j":5.39,"u":4},{"lon":-9.112711,"k":13,"v":1.34,"a":187,"l":2.17,"w":6,"ab":12,"b":31.27,"m":65,"x":1.0,"ac":2.01,"c":86,"n":10.87,"y":14,"ad":598,"d":14.38,"o":10,"z":2.34,"e":23,"p":1.67,"f":3.85,"q":9,"town":"Dunmanway, Cork","g":142,"r":1.51,"geometry":{"type":"Point","coordinates":[-9.112711,51.721973]},"h":23.75,"s":1,"id":"a678w4efnwo8","lat":51.721973,"i":22,"t":0.17,"j":3.68,"u":8},{"lon":-6.996085,"k":7,"v":0.4,"a":113,"l":1.39,"w":6,"ab":10,"b":22.42,"m":51,"x":1.19,"ac":1.98,"c":90,"n":10.12,"y":8,"ad":504,"d":17.86,"o":2,"z":1.59,"e":25,"p":0.4,"f":4.96,"q":10,"town":"Dunmore East, Waterford","g":153,"r":1.98,"geometry":{"type":"Point","coordinates":[-6.996085,52.154756]},"h":30.36,"s":1,"id":"a678w49qatis","lat":52.154756,"i":26,"t":0.2,"j":5.16,"u":2},{"lon":-6.541138,"k":13,"v":0.47,"a":174,"l":1.22,"w":11,"ab":30,"b":16.35,"m":63,"x":1.03,"ac":2.82,"c":115,"n":5.92,"y":11,"ad":1064,"d":10.81,"o":19,"z":1.03,"e":50,"p":1.79,"f":4.7,"q":23,"town":"Dunshaughlin, Meath","g":525,"r":2.16,"geometry":{"type":"Point","coordinates":[-6.541138,53.514069]},"h":49.34,"s":1,"id":"a678w46d5h0o","lat":53.514069,"i":24,"t":0.09,"j":2.26,"u":5},{"lon":-7.054908,"k":36,"v":1.3,"a":384,"l":1.8,"w":32,"ab":49,"b":19.16,"m":172,"x":1.6,"ac":2.45,"c":252,"n":8.58,"y":63,"ad":2004,"d":12.57,"o":44,"z":3.14,"e":124,"p":2.2,"f":6.19,"q":63,"town":"Edenderry, Offaly","g":638,"r":3.14,"geometry":{"type":"Point","coordinates":[-7.054908,53.341769]},"h":31.84,"s":4,"id":"a678w4ee5mzi","lat":53.341769,"i":117,"t":0.2,"j":5.84,"u":26},{"lon":-6.806463,"k":4,"v":0.39,"a":135,"l":0.52,"w":7,"ab":24,"b":17.46,"m":74,"x":0.91,"ac":3.1,"c":90,"n":9.57,"y":12,"ad":773,"d":11.64,"o":17,"z":1.55,"e":119,"p":2.2,"f":15.39,"q":22,"town":"Enfield, Meath","g":221,"r":2.85,"geometry":{"type":"Point","coordinates":[-6.806463,53.455582]},"h":28.59,"s":0,"id":"a678w4917qb5","lat":53.455582,"i":45,"t":0.0,"j":5.82,"u":3},{"lon":-8.987578,"k":114,"v":0.99,"a":2193,"l":1.31,"w":67,"ab":553,"b":25.24,"m":801,"x":0.77,"ac":6.37,"c":1128,"n":9.22,"y":246,"ad":8688,"d":12.98,"o":140,"z":2.83,"e":469,"p":1.61,"f":5.4,"q":166,"town":"Ennis, Clare","g":2427,"r":1.91,"geometry":{"type":"Point","coordinates":[-8.987578,52.846766]},"h":27.94,"s":20,"id":"a678w4aber54","lat":52.846766,"i":278,"t":0.23,"j":3.2,"u":86},{"lon":-6.567829,"k":58,"v":1.08,"a":891,"l":1.64,"w":51,"ab":111,"b":25.22,"m":502,"x":1.44,"ac":3.14,"c":481,"n":14.21,"y":98,"ad":3533,"d":13.61,"o":54,"z":2.77,"e":180,"p":1.53,"f":5.09,"q":65,"town":"Enniscorthy, Wexford","g":842,"r":1.84,"geometry":{"type":"Point","coordinates":[-6.567829,52.501475]},"h":23.83,"s":6,"id":"a678w491x546","lat":52.501475,"i":156,"t":0.17,"j":4.42,"u":38},{"lon":-6.173099,"k":6,"v":1.62,"a":70,"l":1.08,"w":6,"ab":7,"b":12.64,"m":41,"x":1.08,"ac":1.26,"c":91,"n":7.4,"y":12,"ad":554,"d":16.43,"o":7,"z":2.17,"e":18,"p":1.26,"f":3.25,"q":19,"town":"Enniskerry, Wicklow","g":258,"r":3.43,"geometry":{"type":"Point","coordinates":[-6.173099,53.193165]},"h":46.57,"s":3,"id":"a678w4593sxi","lat":53.193165,"i":7,"t":0.54,"j":1.26,"u":9},{"lon":-7.827539,"k":5,"v":1.27,"a":101,"l":1.27,"w":7,"ab":0,"b":25.7,"m":34,"x":1.78,"ac":0.0,"c":58,"n":8.65,"y":12,"ad":393,"d":14.76,"o":7,"z":3.05,"e":7,"p":1.78,"f":1.78,"q":6,"town":"Ferbane, Offaly","g":143,"r":1.53,"geometry":{"type":"Point","coordinates":[-7.827539,53.271947]},"h":36.39,"s":1,"id":"a678w420c7vu","lat":53.271947,"i":7,"t":0.25,"j":1.78,"u":5},{"lon":-8.275414,"k":21,"v":0.61,"a":524,"l":0.98,"w":25,"ab":102,"b":24.54,"m":229,"x":1.17,"ac":4.78,"c":307,"n":10.73,"y":58,"ad":2135,"d":14.38,"o":52,"z":2.72,"e":95,"p":2.44,"f":4.45,"q":51,"town":"Fermoy, Cork","g":587,"r":2.39,"geometry":{"type":"Point","coordinates":[-8.275414,52.137805]},"h":27.49,"s":3,"id":"a678w4cks8c1","lat":52.137805,"i":68,"t":0.14,"j":3.19,"u":13},{"lon":-7.695737,"k":15,"v":0.76,"a":133,"l":2.84,"w":4,"ab":9,"b":25.14,"m":89,"x":0.76,"ac":1.7,"c":65,"n":16.82,"y":15,"ad":529,"d":12.29,"o":4,"z":2.84,"e":16,"p":0.76,"f":3.02,"q":7,"town":"Fethard, South Tipperary","g":148,"r":1.32,"geometry":{"type":"Point","coordinates":[-7.695737,52.465682]},"h":27.98,"s":1,"id":"a678w4cd4j67","lat":52.465682,"i":19,"t":0.19,"j":3.59,"u":4},{"lon":-9.112029,"k":8,"v":0.93,"a":144,"l":1.87,"w":3,"ab":6,"b":33.64,"m":31,"x":0.7,"ac":1.4,"c":83,"n":7.24,"y":5,"ad":428,"d":19.39,"o":2,"z":1.17,"e":16,"p":0.47,"f":3.74,"q":4,"town":"Foxford, Mayo","g":111,"r":0.93,"geometry":{"type":"Point","coordinates":[-9.112029,53.982687]},"h":25.93,"s":1,"id":"a678w465908z","lat":53.982687,"i":10,"t":0.23,"j":2.34,"u":4},{"lon":-9.05177,"k":245,"v":1.06,"a":5931,"l":0.96,"w":235,"ab":4265,"b":23.3,"m":2326,"x":0.92,"ac":16.76,"c":2532,"n":9.14,"y":1080,"ad":25452,"d":9.95,"o":728,"z":4.24,"e":1455,"p":2.86,"f":5.72,"q":381,"town":"Galway City and Suburbs","g":5484,"r":1.5,"geometry":{"type":"Point","coordinates":[-9.05177,53.273989]},"h":21.55,"s":51,"id":"a678w4alcp3f","lat":53.273989,"i":470,"t":0.2,"j":1.85,"u":269},{"lon":-6.292914,"k":24,"v":1.13,"a":643,"l":0.9,"w":46,"ab":114,"b":24.21,"m":298,"x":1.73,"ac":4.29,"c":348,"n":11.22,"y":77,"ad":2656,"d":13.1,"o":54,"z":2.9,"e":148,"p":2.03,"f":5.57,"q":48,"town":"Gorey, Wexford","g":681,"r":1.81,"geometry":{"type":"Point","coordinates":[-6.292914,52.67611]},"h":25.64,"s":4,"id":"a678w41y2zfc","lat":52.67611,"i":141,"t":0.15,"j":5.31,"u":30},{"lon":-8.81809,"k":13,"v":1.57,"a":206,"l":1.46,"w":21,"ab":53,"b":23.12,"m":69,"x":2.36,"ac":5.95,"c":111,"n":7.74,"y":40,"ad":891,"d":12.46,"o":49,"z":4.49,"e":36,"p":5.5,"f":4.04,"q":46,"town":"Gort, Galway","g":202,"r":5.16,"geometry":{"type":"Point","coordinates":[-8.81809,53.068298]},"h":22.67,"s":6,"id":"a678w47k7w8v","lat":53.068298,"i":25,"t":0.67,"j":2.81,"u":14},{"lon":-6.95513,"k":10,"v":1.39,"a":110,"l":1.99,"w":9,"ab":9,"b":21.91,"m":35,"x":1.79,"ac":1.79,"c":86,"n":6.97,"y":9,"ad":502,"d":17.13,"o":4,"z":1.79,"e":22,"p":0.8,"f":4.38,"q":12,"town":"Graiguenamanagh-Tinnahinch, Carlow/Kilkenny","g":170,"r":2.39,"geometry":{"type":"Point","coordinates":[-6.95513,52.540166]},"h":33.86,"s":0,"id":"a678w4bw6frs","lat":52.540166,"i":19,"t":0.0,"j":3.78,"u":7},{"lon":-7.495361,"k":4,"v":0.28,"a":105,"l":1.1,"w":7,"ab":13,"b":28.93,"m":35,"x":1.93,"ac":3.58,"c":47,"n":9.64,"y":17,"ad":363,"d":12.95,"o":10,"z":4.68,"e":15,"p":2.75,"f":4.13,"q":8,"town":"Granard Legal Town, Longford","g":92,"r":2.2,"geometry":{"type":"Point","coordinates":[-7.495361,53.775958]},"h":25.34,"s":2,"id":"a678w49cqtmd","lat":53.775958,"i":7,"t":0.55,"j":1.93,"u":1},{"lon":-6.062979,"k":77,"v":1.11,"a":995,"l":1.47,"w":44,"ab":123,"b":18.97,"m":457,"x":0.84,"ac":2.35,"c":863,"n":8.71,"y":109,"ad":5244,"d":16.46,"o":60,"z":2.08,"e":415,"p":1.14,"f":7.91,"q":71,"town":"Greystones, Wicklow","g":1830,"r":1.35,"geometry":{"type":"Point","coordinates":[-6.062979,53.14474]},"h":34.9,"s":7,"id":"a678w4fgvcc0","lat":53.14474,"i":135,"t":0.13,"j":2.57,"u":58},{"lon":-8.905886,"k":11,"v":0.67,"a":248,"l":1.47,"w":14,"ab":19,"b":33.07,"m":71,"x":1.87,"ac":2.53,"c":106,"n":9.47,"y":17,"ad":750,"d":14.13,"o":17,"z":2.27,"e":28,"p":2.27,"f":3.73,"q":4,"town":"Kanturk, Cork","g":183,"r":0.53,"geometry":{"type":"Point","coordinates":[-8.905886,52.177091]},"h":24.4,"s":5,"id":"a678w4fje4xn","lat":52.177091,"i":22,"t":0.67,"j":2.93,"u":5},{"lon":-9.583839,"k":8,"v":0.51,"a":192,"l":1.36,"w":6,"ab":28,"b":32.6,"m":57,"x":1.02,"ac":4.75,"c":80,"n":9.68,"y":18,"ad":589,"d":13.58,"o":16,"z":3.06,"e":15,"p":2.72,"f":2.55,"q":11,"town":"Kenmare, Kerry","g":136,"r":1.87,"geometry":{"type":"Point","coordinates":[-9.583839,51.880315]},"h":23.09,"s":2,"id":"a678w4eboekm","lat":51.880315,"i":17,"t":0.34,"j":2.89,"u":3},{"lon":-6.668039,"k":11,"v":0.83,"a":261,"l":0.76,"w":16,"ab":72,"b":18.09,"m":133,"x":1.11,"ac":4.99,"c":190,"n":9.22,"y":33,"ad":1443,"d":13.17,"o":25,"z":2.29,"e":171,"p":1.73,"f":11.85,"q":25,"town":"Kilcock, Kildare","g":442,"r":1.73,"geometry":{"type":"Point","coordinates":[-6.668039,53.4004]},"h":30.63,"s":2,"id":"a678w4f6r7rn","lat":53.4004,"i":50,"t":0.14,"j":3.47,"u":12},{"lon":-6.064721,"k":22,"v":0.83,"a":165,"l":2.03,"w":14,"ab":18,"b":15.21,"m":118,"x":1.29,"ac":1.66,"c":140,"n":10.88,"y":18,"ad":1085,"d":12.9,"o":22,"z":1.66,"e":54,"p":2.03,"f":4.98,"q":33,"town":"Kilcoole, Wicklow","g":414,"r":3.04,"geometry":{"type":"Point","coordinates":[-6.064721,53.107378]},"h":38.16,"s":2,"id":"a678w4fdmf7t","lat":53.107378,"i":56,"t":0.18,"j":5.16,"u":9},{"lon":-6.746178,"k":17,"v":1.22,"a":223,"l":1.48,"w":11,"ab":38,"b":19.46,"m":109,"x":0.96,"ac":3.32,"c":187,"n":9.51,"y":28,"ad":1146,"d":16.32,"o":18,"z":2.44,"e":116,"p":1.57,"f":10.12,"q":21,"town":"Kilcullen, Kildare","g":300,"r":1.83,"geometry":{"type":"Point","coordinates":[-6.746178,53.129871]},"h":26.18,"s":1,"id":"a678w4fdu25s","lat":53.129871,"i":63,"t":0.09,"j":5.5,"u":14},{"lon":-6.921155,"k":34,"v":1.21,"a":495,"l":1.28,"w":48,"ab":116,"b":18.64,"m":344,"x":1.81,"ac":4.37,"c":300,"n":12.96,"y":70,"ad":2655,"d":11.3,"o":25,"z":2.64,"e":207,"p":0.94,"f":7.8,"q":71,"town":"Kildare, Kildare","g":759,"r":2.67,"geometry":{"type":"Point","coordinates":[-6.921155,53.157249]},"h":28.59,"s":8,"id":"a678w4024cgr","lat":53.157249,"i":146,"t":0.3,"j":5.5,"u":32},{"lon":-9.648046,"k":8,"v":0.6,"a":173,"l":1.59,"w":2,"ab":19,"b":34.33,"m":50,"x":0.4,"ac":3.77,"c":68,"n":9.92,"y":20,"ad":504,"d":13.49,"o":9,"z":3.97,"e":20,"p":1.79,"f":3.97,"q":7,"town":"Kilkee Legal Town, Clare","g":103,"r":1.39,"geometry":{"type":"Point","coordinates":[-9.648046,52.678115]},"h":20.44,"s":3,"id":"a678w495iphg","lat":52.678115,"i":19,"t":0.6,"j":3.77,"u":3},{"lon":-7.247977,"k":103,"v":1.07,"a":2136,"l":1.25,"w":78,"ab":591,"b":26.01,"m":793,"x":0.95,"ac":7.2,"c":1064,"n":9.66,"y":225,"ad":8212,"d":12.96,"o":178,"z":2.74,"e":434,"p":2.17,"f":5.28,"q":180,"town":"Kilkenny, Kilkenny","g":2071,"r":2.19,"geometry":{"type":"Point","coordinates":[-7.247977,52.653731]},"h":25.22,"s":18,"id":"a678w4fwex2y","lat":52.653731,"i":253,"t":0.22,"j":3.08,"u":88},{"lon":-6.591493,"k":14,"v":0.6,"a":136,"l":1.67,"w":10,"ab":17,"b":16.25,"m":64,"x":1.19,"ac":2.03,"c":130,"n":7.65,"y":12,"ad":837,"d":15.53,"o":10,"z":1.43,"e":44,"p":1.19,"f":5.26,"q":17,"town":"Kill, Kildare","g":357,"r":2.03,"geometry":{"type":"Point","coordinates":[-6.591493,53.247465]},"h":42.65,"s":0,"id":"a678w4e9irx0","lat":53.247465,"i":21,"t":0.0,"j":2.51,"u":5},{"lon":-8.441556,"k":9,"v":1.05,"a":117,"l":2.37,"w":8,"ab":3,"b":30.79,"m":56,"x":2.11,"ac":0.79,"c":43,"n":14.74,"y":7,"ad":380,"d":11.32,"o":5,"z":1.84,"e":19,"p":1.32,"f":5.0,"q":11,"town":"Killaloe, Clare","g":84,"r":2.89,"geometry":{"type":"Point","coordinates":[-8.441556,52.806786]},"h":22.11,"s":3,"id":"a678w498iasb","lat":52.806786,"i":11,"t":0.79,"j":2.89,"u":4},{"lon":-9.509204,"k":53,"v":0.95,"a":979,"l":1.3,"w":109,"ab":279,"b":23.93,"m":350,"x":2.66,"ac":6.82,"c":537,"n":8.56,"y":169,"ad":4091,"d":13.13,"o":120,"z":4.13,"e":172,"p":2.93,"f":4.2,"q":104,"town":"Killarney, Kerry","g":1061,"r":2.54,"geometry":{"type":"Point","coordinates":[-9.509204,52.05871]},"h":25.93,"s":11,"id":"a678w494l60f","lat":52.05871,"i":108,"t":0.27,"j":2.64,"u":39},{"lon":-9.783899,"k":5,"v":0.76,"a":219,"l":0.76,"w":4,"ab":29,"b":33.38,"m":79,"x":0.61,"ac":4.42,"c":84,"n":12.04,"y":20,"ad":656,"d":12.8,"o":7,"z":3.05,"e":49,"p":1.07,"f":7.47,"q":10,"town":"Killorglin, Kerry","g":134,"r":1.52,"geometry":{"type":"Point","coordinates":[-9.783899,52.10638]},"h":20.43,"s":3,"id":"a678w4507ynu","lat":52.10638,"i":8,"t":0.46,"j":1.22,"u":5},{"lon":-8.445194,"k":6,"v":0.68,"a":97,"l":1.36,"w":6,"ab":3,"b":22.0,"m":46,"x":1.36,"ac":0.68,"c":70,"n":10.43,"y":14,"ad":441,"d":15.87,"o":5,"z":3.17,"e":10,"p":1.13,"f":2.27,"q":9,"town":"Killybegs, Donegal","g":158,"r":2.04,"geometry":{"type":"Point","coordinates":[-8.445194,54.636551]},"h":35.83,"s":0,"id":"a678w4dsor8m","lat":54.636551,"i":14,"t":0.0,"j":3.17,"u":3},{"lon":-8.573311,"k":4,"v":0.37,"a":154,"l":0.74,"w":9,"ab":7,"b":28.57,"m":57,"x":1.67,"ac":1.3,"c":80,"n":10.58,"y":15,"ad":539,"d":14.84,"o":5,"z":2.78,"e":15,"p":0.93,"f":2.78,"q":10,"town":"Kilmallock, Limerick","g":156,"r":1.86,"geometry":{"type":"Point","coordinates":[-8.573311,52.398873]},"h":28.94,"s":1,"id":"a678w44ti44m","lat":52.398873,"i":24,"t":0.19,"j":4.45,"u":2},{"lon":-9.482909,"k":23,"v":0.53,"a":300,"l":2.44,"w":13,"ab":30,"b":31.81,"m":80,"x":1.38,"ac":3.18,"c":146,"n":8.48,"y":34,"ad":943,"d":15.48,"o":11,"z":3.61,"e":20,"p":1.17,"f":2.12,"q":22,"town":"Kilrush Legal Town, Clare","g":224,"r":2.33,"geometry":{"type":"Point","coordinates":[-9.482909,52.637635]},"h":23.75,"s":3,"id":"a678w45hkd9e","lat":52.637635,"i":32,"t":0.32,"j":3.39,"u":5},{"lon":-9.000119,"k":9,"v":0.48,"a":137,"l":2.16,"w":4,"ab":13,"b":32.85,"m":48,"x":0.96,"ac":3.12,"c":48,"n":11.51,"y":13,"ad":417,"d":11.51,"o":8,"z":3.12,"e":21,"p":1.92,"f":5.04,"q":7,"town":"Kiltimagh, Mayo","g":96,"r":1.68,"geometry":{"type":"Point","coordinates":[-9.000119,53.850153]},"h":23.02,"s":2,"id":"a678w4fsbn70","lat":53.850153,"i":9,"t":0.48,"j":2.16,"u":2},{"lon":-6.805775,"k":7,"v":0.67,"a":140,"l":1.17,"w":9,"ab":21,"b":23.45,"m":69,"x":1.51,"ac":3.52,"c":65,"n":11.56,"y":15,"ad":597,"d":10.89,"o":13,"z":2.51,"e":29,"p":2.18,"f":4.86,"q":15,"town":"Kingscourt, Cavan","g":179,"r":2.51,"geometry":{"type":"Point","coordinates":[-6.805775,53.904634]},"h":29.98,"s":1,"id":"a678w4dp0h4x","lat":53.904634,"i":30,"t":0.17,"j":5.03,"u":4},{"lon":-7.102609,"k":6,"v":1.27,"a":156,"l":0.76,"w":8,"ab":33,"b":19.87,"m":48,"x":1.02,"ac":4.2,"c":109,"n":6.11,"y":16,"ad":785,"d":13.89,"o":18,"z":2.04,"e":75,"p":2.29,"f":9.55,"q":14,"town":"Kinnegad, Westmeath","g":226,"r":1.78,"geometry":{"type":"Point","coordinates":[-7.102609,53.455545]},"h":28.79,"s":0,"id":"a678w4865e6g","lat":53.455545,"i":66,"t":0.0,"j":8.41,"u":10},{"lon":-8.522925,"k":18,"v":1.19,"a":438,"l":1.19,"w":19,"ab":85,"b":28.87,"m":128,"x":1.25,"ac":5.6,"c":225,"n":8.44,"y":53,"ad":1517,"d":14.83,"o":27,"z":3.49,"e":79,"p":1.78,"f":5.21,"q":25,"town":"Kinsale, Cork","g":355,"r":1.65,"geometry":{"type":"Point","coordinates":[-8.522925,51.706243]},"h":23.4,"s":3,"id":"a678w4aa5as5","lat":51.706243,"i":44,"t":0.2,"j":2.9,"u":18},{"lon":-6.175823,"k":15,"v":1.03,"a":336,"l":1.03,"w":7,"ab":85,"b":23.0,"m":135,"x":0.48,"ac":5.82,"c":119,"n":9.24,"y":41,"ad":1461,"d":8.15,"o":32,"z":2.81,"e":252,"p":2.19,"f":17.25,"q":10,"town":"Kinsealy-Drinan, Fingal","g":352,"r":0.68,"geometry":{"type":"Point","coordinates":[-6.175823,53.426057]},"h":24.09,"s":1,"id":"a678w490uy1x","lat":53.426057,"i":61,"t":0.07,"j":4.18,"u":15},{"lon":-7.989761,"k":8,"v":0.99,"a":112,"l":1.97,"w":1,"ab":11,"b":27.59,"m":52,"x":0.25,"ac":2.71,"c":75,"n":12.81,"y":5,"ad":406,"d":18.47,"o":6,"z":1.23,"e":14,"p":1.48,"f":3.45,"q":10,"town":"Lanesborough-Ballyleague, Longford/Roscommon","g":94,"r":2.46,"geometry":{"type":"Point","coordinates":[-7.989761,53.673936]},"h":23.15,"s":0,"id":"a678w4eh5q8x","lat":53.673936,"i":14,"t":0.0,"j":3.45,"u":4},{"lon":-6.244979,"k":41,"v":1.0,"a":612,"l":1.28,"w":28,"ab":47,"b":19.05,"m":244,"x":0.87,"ac":1.46,"c":537,"n":7.6,"y":30,"ad":3212,"d":16.72,"o":46,"z":0.93,"e":273,"p":1.43,"f":8.5,"q":66,"town":"Laytown-Bettystown-Mornington, Meath","g":1056,"r":2.05,"geometry":{"type":"Point","coordinates":[-6.244979,53.697588]},"h":32.88,"s":4,"id":"a678w4bjf469","lat":53.697588,"i":196,"t":0.12,"j":6.1,"u":32},{"lon":-6.486901,"k":72,"v":0.89,"a":502,"l":1.6,"w":69,"ab":181,"b":11.13,"m":440,"x":1.53,"ac":4.01,"c":549,"n":9.76,"y":76,"ad":4509,"d":12.18,"o":85,"z":1.69,"e":163,"p":1.89,"f":3.61,"q":105,"town":"Leixlip Legal Town, Kildare","g":2101,"r":2.33,"geometry":{"type":"Point","coordinates":[-6.486901,53.364379]},"h":46.6,"s":13,"id":"a678w46rmivu","lat":53.364379,"i":113,"t":0.29,"j":2.51,"u":40},{"lon":-7.730819,"k":92,"v":1.03,"a":1548,"l":1.46,"w":55,"ab":488,"b":24.59,"m":760,"x":0.87,"ac":7.75,"c":683,"n":12.07,"y":199,"ad":6296,"d":10.85,"o":108,"z":3.16,"e":311,"p":1.72,"f":4.94,"q":77,"town":"Letterkenny, Donegal","g":1722,"r":1.22,"geometry":{"type":"Point","coordinates":[-7.730819,54.951944]},"h":27.35,"s":6,"id":"a678w43swlx5","lat":54.951944,"i":182,"t":0.1,"j":2.89,"u":65},{"lon":-7.477969,"k":13,"v":1.01,"a":94,"l":2.64,"w":7,"ab":7,"b":19.07,"m":112,"x":1.42,"ac":1.42,"c":58,"n":22.72,"y":13,"ad":493,"d":11.76,"o":3,"z":2.64,"e":15,"p":0.61,"f":3.04,"q":8,"town":"Lifford, Donegal","g":141,"r":1.62,"geometry":{"type":"Point","coordinates":[-7.477969,54.834404]},"h":28.6,"s":2,"id":"a678w49gto77","lat":54.834404,"i":15,"t":0.41,"j":3.04,"u":5},{"lon":-8.626604,"k":484,"v":1.21,"a":7797,"l":1.48,"w":506,"ab":3085,"b":23.92,"m":3335,"x":1.55,"ac":9.46,"c":3945,"n":10.23,"y":1091,"ad":32598,"d":12.1,"o":624,"z":3.35,"e":1710,"p":1.91,"f":5.25,"q":574,"town":"Limerick City and Suburbs","g":8070,"r":1.76,"geometry":{"type":"Point","coordinates":[-8.626604,52.663808]},"h":24.76,"s":77,"id":"a678w4ajkh0e","lat":52.663808,"i":907,"t":0.24,"j":2.78,"u":393},{"lon":-7.922343,"k":10,"v":0.64,"a":138,"l":2.14,"w":1,"ab":5,"b":29.49,"m":39,"x":0.21,"ac":1.07,"c":71,"n":8.33,"y":19,"ad":468,"d":15.17,"o":5,"z":4.06,"e":15,"p":1.07,"f":3.21,"q":6,"town":"Lismore, Waterford","g":136,"r":1.28,"geometry":{"type":"Point","coordinates":[-7.922343,52.135789]},"h":29.06,"s":1,"id":"a678w485pkva","lat":52.135789,"i":19,"t":0.21,"j":4.06,"u":3},{"lon":-9.487408,"k":30,"v":1.12,"a":511,"l":1.77,"w":15,"ab":38,"b":30.18,"m":217,"x":0.89,"ac":2.24,"c":255,"n":12.82,"y":44,"ad":1693,"d":15.06,"o":17,"z":2.6,"e":58,"p":1.0,"f":3.43,"q":27,"town":"Listowel, Kerry","g":409,"r":1.59,"geometry":{"type":"Point","coordinates":[-9.487408,52.446982]},"h":24.16,"s":3,"id":"a678w4c46k7b","lat":52.446982,"i":50,"t":0.18,"j":2.95,"u":19},{"lon":-7.795674,"k":41,"v":1.15,"a":828,"l":1.28,"w":26,"ab":177,"b":25.84,"m":461,"x":0.81,"ac":5.52,"c":439,"n":14.39,"y":116,"ad":3204,"d":13.7,"o":68,"z":3.62,"e":136,"p":2.12,"f":4.24,"q":66,"town":"Longford, Longford","g":710,"r":2.06,"geometry":{"type":"Point","coordinates":[-7.795674,53.726815]},"h":22.16,"s":13,"id":"a678w4dcchka","lat":53.726815,"i":86,"t":0.41,"j":2.68,"u":37},{"lon":-8.569314,"k":18,"v":1.12,"a":496,"l":1.06,"w":20,"ab":86,"b":29.26,"m":208,"x":1.18,"ac":5.07,"c":214,"n":12.27,"y":66,"ad":1695,"d":12.63,"o":32,"z":3.89,"e":92,"p":1.89,"f":5.43,"q":24,"town":"Loughrea Legal Town, Galway","g":363,"r":1.42,"geometry":{"type":"Point","coordinates":[-8.569314,53.198521]},"h":21.42,"s":3,"id":"a678w40gc2o7","lat":53.198521,"i":54,"t":0.18,"j":3.19,"u":19},{"lon":-6.164884,"k":17,"v":0.93,"a":336,"l":0.88,"w":11,"ab":56,"b":17.33,"m":129,"x":0.57,"ac":2.89,"c":261,"n":6.65,"y":31,"ad":1939,"d":13.46,"o":35,"z":1.6,"e":350,"p":1.81,"f":18.05,"q":41,"town":"Lusk, Fingal","g":533,"r":2.11,"geometry":{"type":"Point","coordinates":[-6.164884,53.527053]},"h":27.49,"s":3,"id":"a678w44vdrn4","lat":53.527053,"i":118,"t":0.15,"j":6.09,"u":18},{"lon":-8.960034,"k":13,"v":0.78,"a":354,"l":1.01,"w":9,"ab":51,"b":27.55,"m":155,"x":0.7,"ac":3.97,"c":187,"n":12.06,"y":33,"ad":1285,"d":14.55,"o":22,"z":2.57,"e":45,"p":1.71,"f":3.5,"q":25,"town":"Macroom, Cork","g":351,"r":1.95,"geometry":{"type":"Point","coordinates":[-8.960034,51.90496]},"h":27.32,"s":4,"id":"a678w4ee20qn","lat":51.90496,"i":26,"t":0.31,"j":2.02,"u":10},{"lon":-9.180416,"k":10,"v":0.65,"a":100,"l":2.15,"w":1,"ab":13,"b":21.51,"m":31,"x":0.22,"ac":2.8,"c":71,"n":6.67,"y":8,"ad":465,"d":15.27,"o":6,"z":1.72,"e":37,"p":1.29,"f":7.96,"q":3,"town":"Maigh Cuilinn, Galway","g":173,"r":0.65,"geometry":{"type":"Point","coordinates":[-9.180416,53.339071]},"h":37.2,"s":1,"id":"a678w4a8lk9c","lat":53.339071,"i":8,"t":0.22,"j":1.72,"u":3},{"lon":-6.154918,"k":61,"v":0.75,"a":807,"l":1.24,"w":45,"ab":109,"b":16.35,"m":303,"x":0.91,"ac":2.21,"c":876,"n":6.14,"y":61,"ad":4935,"d":17.75,"o":63,"z":1.24,"e":177,"p":1.28,"f":3.59,"q":94,"town":"Malahide, Fingal","g":2237,"r":1.9,"geometry":{"type":"Point","coordinates":[-6.154918,53.452473]},"h":45.33,"s":6,"id":"a678w4cx06ij","lat":53.452473,"i":59,"t":0.12,"j":1.2,"u":37},{"lon":-8.64871,"k":57,"v":0.86,"a":979,"l":1.49,"w":31,"ab":102,"b":25.64,"m":409,"x":0.81,"ac":2.67,"c":565,"n":10.71,"y":94,"ad":3818,"d":14.8,"o":57,"z":2.46,"e":213,"p":1.49,"f":5.58,"q":68,"town":"Mallow, Cork","g":1090,"r":1.78,"geometry":{"type":"Point","coordinates":[-8.64871,52.13779]},"h":28.55,"s":10,"id":"a678w44o1664","lat":52.13779,"i":110,"t":0.26,"j":2.88,"u":33},{"lon":-8.174827,"k":6,"v":0.22,"a":164,"l":1.29,"w":1,"ab":27,"b":35.34,"m":40,"x":0.22,"ac":5.82,"c":60,"n":8.62,"y":14,"ad":464,"d":12.93,"o":7,"z":3.02,"e":21,"p":1.51,"f":4.53,"q":7,"town":"Manorhamilton, Leitrim","g":100,"r":1.51,"geometry":{"type":"Point","coordinates":[-8.174827,54.304099]},"h":21.55,"s":1,"id":"a678w48xvoht","lat":54.304099,"i":15,"t":0.22,"j":3.23,"u":1},{"lon":-6.590429,"k":40,"v":0.75,"a":620,"l":1.16,"w":28,"ab":588,"b":17.99,"m":181,"x":0.81,"ac":17.06,"c":340,"n":5.25,"y":101,"ad":3447,"d":9.86,"o":102,"z":2.93,"e":204,"p":2.96,"f":5.92,"q":65,"town":"Maynooth, Kildare","g":1080,"r":1.89,"geometry":{"type":"Point","coordinates":[-6.590429,53.38172]},"h":31.33,"s":7,"id":"a678w4gdjmpm","lat":53.38172,"i":65,"t":0.2,"j":1.89,"u":26},{"lon":-7.612887,"k":4,"v":1.53,"a":87,"l":1.02,"w":8,"ab":25,"b":22.25,"m":42,"x":2.05,"ac":6.39,"c":45,"n":10.74,"y":14,"ad":391,"d":11.51,"o":15,"z":3.58,"e":21,"p":3.84,"f":5.37,"q":11,"town":"Meathas Truim (or Edgeworthstown), Longford","g":93,"r":2.81,"geometry":{"type":"Point","coordinates":[-7.612887,53.697639]},"h":23.79,"s":0,"id":"a678w4evxyqn","lat":53.697639,"i":20,"t":0.0,"j":5.12,"u":6},{"lon":-8.172135,"k":49,"v":0.84,"a":758,"l":1.37,"w":33,"ab":160,"b":21.18,"m":339,"x":0.92,"ac":4.47,"c":496,"n":9.47,"y":118,"ad":3579,"d":13.86,"o":77,"z":3.3,"e":222,"p":2.15,"f":6.2,"q":76,"town":"Midleton, Cork","g":1097,"r":2.12,"geometry":{"type":"Point","coordinates":[-8.172135,51.913581]},"h":30.65,"s":11,"id":"a678w468laux","lat":51.913581,"i":113,"t":0.31,"j":3.16,"u":30},{"lon":-9.063009,"k":7,"v":0.76,"a":149,"l":1.32,"w":7,"ab":21,"b":28.17,"m":49,"x":1.32,"ac":3.97,"c":78,"n":9.26,"y":23,"ad":529,"d":14.74,"o":11,"z":4.35,"e":15,"p":2.08,"f":2.84,"q":16,"town":"Millstreet, Cork","g":140,"r":3.02,"geometry":{"type":"Point","coordinates":[-9.063009,52.059653]},"h":26.47,"s":1,"id":"a678w46md1lq","lat":52.059653,"i":8,"t":0.19,"j":1.51,"u":4},{"lon":-6.257221,"k":26,"v":0.78,"a":320,"l":2.03,"w":13,"ab":27,"b":25.0,"m":150,"x":1.02,"ac":2.11,"c":209,"n":11.72,"y":31,"ad":1280,"d":16.33,"o":14,"z":2.42,"e":42,"p":1.09,"f":3.28,"q":16,"town":"Mitchelstown, Cork","g":380,"r":1.25,"geometry":{"type":"Point","coordinates":[-6.257221,53.847342]},"h":29.69,"s":3,"id":"a678w4anf132","lat":53.847342,"i":39,"t":0.23,"j":3.05,"u":10},{"lon":-7.726242,"k":10,"v":1.49,"a":151,"l":1.49,"w":4,"ab":24,"b":22.54,"m":59,"x":0.6,"ac":3.58,"c":94,"n":8.81,"y":26,"ad":670,"d":14.03,"o":12,"z":3.88,"e":51,"p":1.79,"f":7.61,"q":12,"town":"Moate, Westmeath","g":186,"r":1.79,"geometry":{"type":"Point","coordinates":[-7.726242,53.39633]},"h":27.76,"s":5,"id":"a678w4b2x8ow","lat":53.39633,"i":26,"t":0.75,"j":3.88,"u":10},{"lon":-6.970981,"k":30,"v":1.33,"a":574,"l":1.28,"w":50,"ab":145,"b":24.58,"m":253,"x":2.14,"ac":6.21,"c":285,"n":10.84,"y":70,"ad":2335,"d":12.21,"o":68,"z":3.0,"e":87,"p":2.91,"f":3.73,"q":82,"town":"Monaghan, Monaghan","g":595,"r":3.51,"geometry":{"type":"Point","coordinates":[-6.970981,54.247205]},"h":25.48,"s":7,"id":"a678w4br3hfe","lat":54.247205,"i":58,"t":0.3,"j":2.48,"u":31},{"lon":-6.921155,"k":22,"v":0.75,"a":217,"l":2.08,"w":11,"ab":31,"b":20.47,"m":128,"x":1.04,"ac":2.92,"c":154,"n":12.08,"y":24,"ad":1060,"d":14.53,"o":18,"z":2.26,"e":85,"p":1.7,"f":8.02,"q":24,"town":"Monasterevan, Kildare","g":290,"r":2.26,"geometry":{"type":"Point","coordinates":[-6.921155,53.157249]},"h":27.36,"s":5,"id":"a678w46kbaa9","lat":53.157249,"i":43,"t":0.47,"j":4.06,"u":8},{"lon":-7.259582,"k":8,"v":0.3,"a":50,"l":2.44,"w":4,"ab":3,"b":15.24,"m":42,"x":1.22,"ac":0.91,"c":51,"n":12.8,"y":13,"ad":328,"d":15.55,"o":5,"z":3.96,"e":20,"p":1.52,"f":6.1,"q":6,"town":"Mooncoin, Kilkenny","g":108,"r":1.83,"geometry":{"type":"Point","coordinates":[-7.259582,52.295646]},"h":32.93,"s":0,"id":"a678w4d0xuwo","lat":52.295646,"i":17,"t":0.0,"j":5.18,"u":1},{"lon":-7.33003,"k":24,"v":0.64,"a":340,"l":1.71,"w":11,"ab":32,"b":24.2,"m":134,"x":0.78,"ac":2.28,"c":187,"n":9.54,"y":35,"ad":1405,"d":13.31,"o":28,"z":2.49,"e":45,"p":1.99,"f":3.2,"q":34,"town":"Mountmellick, Laoighis","g":448,"r":2.42,"geometry":{"type":"Point","coordinates":[-7.33003,53.12019]},"h":31.89,"s":2,"id":"a678w42i6q97","lat":53.12019,"i":76,"t":0.14,"j":5.41,"u":9},{"lon":-7.476402,"k":14,"v":1.15,"a":137,"l":2.67,"w":6,"ab":13,"b":26.15,"m":73,"x":1.15,"ac":2.48,"c":53,"n":13.93,"y":25,"ad":524,"d":10.11,"o":9,"z":4.77,"e":23,"p":1.72,"f":4.39,"q":12,"town":"Mountrath, Laoighis","g":134,"r":2.29,"geometry":{"type":"Point","coordinates":[-7.476402,53.000804]},"h":25.57,"s":1,"id":"a678w48eo0er","lat":53.000804,"i":18,"t":0.19,"j":3.44,"u":6},{"lon":-7.040632,"k":6,"v":0.0,"a":154,"l":1.12,"w":6,"ab":13,"b":28.79,"m":55,"x":1.12,"ac":2.43,"c":76,"n":10.28,"y":14,"ad":535,"d":14.21,"o":5,"z":2.62,"e":22,"p":0.93,"f":4.11,"q":9,"town":"Moville, Donegal","g":162,"r":1.68,"geometry":{"type":"Point","coordinates":[-7.040632,55.188768]},"h":30.28,"s":2,"id":"a678w4clg697","lat":55.188768,"i":11,"t":0.37,"j":2.06,"u":0},{"lon":-6.931726,"k":22,"v":0.73,"a":198,"l":2.29,"w":16,"ab":22,"b":20.58,"m":104,"x":1.66,"ac":2.29,"c":152,"n":10.81,"y":34,"ad":962,"d":15.8,"o":16,"z":3.53,"e":33,"p":1.66,"f":3.43,"q":20,"town":"Muinebeag, Carlow","g":297,"r":2.08,"geometry":{"type":"Point","coordinates":[-6.931726,52.837045]},"h":30.87,"s":4,"id":"a678w4026i7r","lat":52.837045,"i":37,"t":0.42,"j":3.85,"u":7},{"lon":-7.339362,"k":90,"v":0.91,"a":1530,"l":1.39,"w":89,"ab":334,"b":23.55,"m":659,"x":1.37,"ac":5.14,"c":821,"n":10.14,"y":160,"ad":6497,"d":12.64,"o":139,"z":2.46,"e":440,"p":2.14,"f":6.77,"q":142,"town":"Mullingar, Westmeath","g":1746,"r":2.19,"geometry":{"type":"Point","coordinates":[-7.339362,53.523625]},"h":26.87,"s":9,"id":"a678w461fsj1","lat":53.523625,"i":279,"t":0.14,"j":4.29,"u":59},{"lon":-6.663846,"k":69,"v":1.03,"a":1180,"l":1.06,"w":106,"ab":411,"b":18.14,"m":494,"x":1.63,"ac":6.32,"c":827,"n":7.59,"y":187,"ad":6506,"d":12.71,"o":204,"z":2.87,"e":307,"p":3.14,"f":4.72,"q":187,"town":"Naas Legal Town, Kildare","g":2289,"r":2.87,"geometry":{"type":"Point","coordinates":[-6.663846,53.217732]},"h":35.18,"s":20,"id":"a678w40wrf26","lat":53.217732,"i":158,"t":0.31,"j":2.43,"u":67},{"lon":-6.682402,"k":106,"v":1.02,"a":1589,"l":1.24,"w":116,"ab":378,"b":18.59,"m":727,"x":1.36,"ac":4.42,"c":1082,"n":8.51,"y":230,"ad":8547,"d":12.66,"o":198,"z":2.69,"e":592,"p":2.32,"f":6.93,"q":186,"town":"Navan (An Uaimh), Meath","g":2813,"r":2.18,"geometry":{"type":"Point","coordinates":[-6.682402,53.653886]},"h":32.91,"s":27,"id":"a678w408d7hr","lat":53.653886,"i":416,"t":0.32,"j":4.87,"u":87},{"lon":-8.161023,"k":42,"v":0.71,"a":831,"l":1.42,"w":31,"ab":142,"b":28.09,"m":308,"x":1.05,"ac":4.8,"c":412,"n":10.41,"y":99,"ad":2958,"d":13.93,"o":56,"z":3.35,"e":156,"p":1.89,"f":5.27,"q":74,"town":"Nenagh, North Tipperary","g":650,"r":2.5,"geometry":{"type":"Point","coordinates":[-8.161023,52.473782]},"h":21.97,"s":6,"id":"a678w45a3qf3","lat":52.473782,"i":130,"t":0.2,"j":4.39,"u":21},{"lon":-6.945573,"k":53,"v":0.67,"a":725,"l":1.86,"w":48,"ab":96,"b":25.43,"m":361,"x":1.68,"ac":3.37,"c":377,"n":12.66,"y":78,"ad":2851,"d":13.22,"o":42,"z":2.74,"e":149,"p":1.47,"f":5.23,"q":60,"town":"New Ross, Wexford/Kilkenny","g":714,"r":2.1,"geometry":{"type":"Point","coordinates":[-6.945573,52.395577]},"h":25.04,"s":7,"id":"a678w47vfvj3","lat":52.395577,"i":122,"t":0.25,"j":4.28,"u":19},{"lon":-9.059276,"k":25,"v":0.63,"a":507,"l":1.31,"w":22,"ab":106,"b":26.61,"m":175,"x":1.15,"ac":5.56,"c":244,"n":9.19,"y":82,"ad":1905,"d":12.81,"o":28,"z":4.3,"e":137,"p":1.47,"f":7.19,"q":37,"town":"Newcastle West, Limerick","g":443,"r":1.94,"geometry":{"type":"Point","coordinates":[-9.059276,52.452236]},"h":23.25,"s":7,"id":"a678w46ix4iw","lat":52.452236,"i":80,"t":0.37,"j":4.2,"u":12},{"lon":-8.682672,"k":3,"v":0.36,"a":103,"l":0.55,"w":13,"ab":21,"b":18.73,"m":17,"x":2.36,"ac":3.82,"c":99,"n":3.09,"y":9,"ad":550,"d":18.0,"o":11,"z":1.64,"e":56,"p":2.0,"f":10.18,"q":13,"town":"Newcastle, South Dublin","g":179,"r":2.36,"geometry":{"type":"Point","coordinates":[-8.682672,53.341168]},"h":32.55,"s":3,"id":"a678w48dvhnq","lat":53.341168,"i":21,"t":0.55,"j":3.82,"u":2},{"lon":-8.894814,"k":10,"v":1.1,"a":123,"l":1.83,"w":9,"ab":7,"b":22.57,"m":73,"x":1.65,"ac":1.28,"c":71,"n":13.39,"y":11,"ad":545,"d":13.03,"o":7,"z":2.02,"e":19,"p":1.28,"f":3.49,"q":13,"town":"Newmarket-on-Fergus, Clare","g":181,"r":2.39,"geometry":{"type":"Point","coordinates":[-8.894814,52.760603]},"h":33.21,"s":1,"id":"a678w45qzfu6","lat":52.760603,"i":14,"t":0.18,"j":2.57,"u":6},{"lon":-8.405712,"k":10,"v":0.83,"a":110,"l":2.08,"w":5,"ab":10,"b":22.87,"m":58,"x":1.04,"ac":2.08,"c":67,"n":12.06,"y":13,"ad":481,"d":13.93,"o":6,"z":2.7,"e":31,"p":1.25,"f":6.44,"q":10,"town":"Newport, North Tipperary","g":131,"r":2.08,"geometry":{"type":"Point","coordinates":[-8.405712,52.712014]},"h":27.23,"s":1,"id":"a678w4bk12by","lat":52.712014,"i":25,"t":0.21,"j":5.2,"u":4},{"lon":-6.112082,"k":25,"v":1.32,"a":118,"l":3.0,"w":12,"ab":16,"b":14.17,"m":96,"x":1.44,"ac":1.92,"c":105,"n":11.52,"y":21,"ad":833,"d":12.61,"o":10,"z":2.52,"e":45,"p":1.2,"f":5.4,"q":21,"town":"Newtownmountkennedy, Wicklow","g":296,"r":2.52,"geometry":{"type":"Point","coordinates":[-6.112082,53.091593]},"h":35.53,"s":0,"id":"a678w49eoqlk","lat":53.091593,"i":57,"t":0.0,"j":6.84,"u":11},{"lon":-7.162545,"k":8,"v":1.32,"a":98,"l":1.76,"w":9,"ab":22,"b":21.59,"m":61,"x":1.98,"ac":4.85,"c":52,"n":13.44,"y":14,"ad":454,"d":11.45,"o":13,"z":3.08,"e":15,"p":2.86,"f":3.3,"q":22,"town":"Oldcastle, Meath","g":110,"r":4.85,"geometry":{"type":"Point","coordinates":[-7.162545,53.769336]},"h":24.23,"s":2,"id":"a678w44srp5j","lat":53.769336,"i":22,"t":0.44,"j":4.85,"u":6},{"lon":-8.929469,"k":14,"v":0.94,"a":345,"l":1.01,"w":8,"ab":106,"b":24.91,"m":77,"x":0.58,"ac":7.65,"c":169,"n":5.56,"y":58,"ad":1385,"d":12.2,"o":40,"z":4.19,"e":168,"p":2.89,"f":12.13,"q":19,"town":"Oranmore, Galway","g":332,"r":1.37,"geometry":{"type":"Point","coordinates":[-8.929469,53.26835]},"h":23.97,"s":1,"id":"a678w4ftgrs1","lat":53.26835,"i":35,"t":0.07,"j":2.53,"u":13},{"lon":-9.319044,"k":7,"v":0.41,"a":141,"l":1.42,"w":1,"ab":11,"b":28.66,"m":51,"x":0.2,"ac":2.24,"c":76,"n":10.37,"y":8,"ad":492,"d":15.45,"o":10,"z":1.63,"e":34,"p":2.03,"f":6.91,"q":5,"town":"Oughterard, Galway","g":132,"r":1.02,"geometry":{"type":"Point","coordinates":[-9.319044,53.431671]},"h":26.83,"s":2,"id":"a678w4b3bzx5","lat":53.431671,"i":12,"t":0.41,"j":2.44,"u":2},{"lon":-8.346464,"k":26,"v":1.19,"a":375,"l":1.4,"w":28,"ab":45,"b":20.23,"m":168,"x":1.51,"ac":2.43,"c":264,"n":9.06,"y":44,"ad":1854,"d":14.24,"o":22,"z":2.37,"e":109,"p":1.19,"f":5.88,"q":32,"town":"Passage West, Cork","g":668,"r":1.73,"geometry":{"type":"Point","coordinates":[-8.346464,51.874793]},"h":36.03,"s":11,"id":"a678w41rd74e","lat":51.874793,"i":40,"t":0.59,"j":2.16,"u":22},{"lon":-7.1889,"k":30,"v":0.79,"a":577,"l":1.31,"w":26,"ab":71,"b":25.21,"m":191,"x":1.14,"ac":3.1,"c":285,"n":8.34,"y":48,"ad":2289,"d":12.45,"o":38,"z":2.1,"e":218,"p":1.66,"f":9.52,"q":55,"town":"Portarlington, Laoighis/Offaly","g":600,"r":2.4,"geometry":{"type":"Point","coordinates":[-7.1889,53.15976]},"h":26.21,"s":1,"id":"a678w4esqi7m","lat":53.15976,"i":131,"t":0.04,"j":5.72,"u":18},{"lon":-7.33565,"k":68,"v":1.08,"a":1078,"l":1.39,"w":69,"ab":222,"b":21.99,"m":444,"x":1.41,"ac":4.53,"c":601,"n":9.06,"y":162,"ad":4902,"d":12.26,"o":119,"z":3.3,"e":319,"p":2.43,"f":6.51,"q":112,"town":"Portlaoighise, Laoighis","g":1429,"r":2.28,"geometry":{"type":"Point","coordinates":[-7.33565,52.983452]},"h":29.15,"s":15,"id":"a678w4ersuci","lat":52.983452,"i":211,"t":0.31,"j":4.3,"u":53},{"lon":-7.314648,"k":9,"v":1.13,"a":103,"l":1.7,"w":4,"ab":2,"b":19.47,"m":62,"x":0.76,"ac":0.38,"c":78,"n":11.72,"y":10,"ad":529,"d":14.74,"o":6,"z":1.89,"e":43,"p":1.13,"f":8.13,"q":12,"town":"Portlaw, Waterford","g":161,"r":2.27,"geometry":{"type":"Point","coordinates":[-7.314648,52.289333]},"h":30.43,"s":1,"id":"a678w49rn38j","lat":52.289333,"i":32,"t":0.19,"j":6.05,"u":6},{"lon":-6.30137,"k":43,"v":0.37,"a":411,"l":1.45,"w":40,"ab":62,"b":13.86,"m":196,"x":1.35,"ac":2.09,"c":456,"n":6.61,"y":50,"ad":2966,"d":15.37,"o":40,"z":1.69,"e":157,"p":1.35,"f":5.29,"q":52,"town":"Portmarnock, Fingal","g":1403,"r":1.75,"geometry":{"type":"Point","coordinates":[-6.30137,53.389961]},"h":47.3,"s":3,"id":"a678w41vw45k","lat":53.389961,"i":42,"t":0.1,"j":1.42,"u":11},{"lon":-6.30137,"k":15,"v":1.9,"a":85,"l":3.57,"w":9,"ab":5,"b":20.24,"m":34,"x":2.14,"ac":1.19,"c":69,"n":8.1,"y":6,"ad":420,"d":16.43,"o":8,"z":1.43,"e":12,"p":1.9,"f":2.86,"q":12,"town":"Portrane, Fingal","g":143,"r":2.86,"geometry":{"type":"Point","coordinates":[-6.30137,53.389961]},"h":34.05,"s":1,"id":"a678w4dbwgts","lat":53.389961,"i":13,"t":0.24,"j":3.1,"u":8},{"lon":-8.220783,"k":3,"v":1.01,"a":138,"l":0.61,"w":4,"ab":28,"b":27.99,"m":52,"x":0.81,"ac":5.68,"c":66,"n":10.55,"y":9,"ad":493,"d":13.39,"o":12,"z":1.83,"e":19,"p":2.43,"f":3.85,"q":10,"town":"Portumna, Galway","g":134,"r":2.03,"geometry":{"type":"Point","coordinates":[-8.220783,53.092528]},"h":27.18,"s":0,"id":"a678w47xdzo8","lat":53.092528,"i":13,"t":0.0,"j":2.64,"u":5},{"lon":-6.756159,"k":14,"v":0.47,"a":84,"l":2.18,"w":10,"ab":9,"b":13.1,"m":68,"x":1.56,"ac":1.4,"c":116,"n":10.61,"y":12,"ad":641,"d":18.1,"o":4,"z":1.87,"e":26,"p":0.62,"f":4.06,"q":7,"town":"Prosperous, Kildare","g":269,"r":1.09,"geometry":{"type":"Point","coordinates":[-6.756159,53.288075]},"h":41.97,"s":0,"id":"a678w4dgrsdc","lat":53.288075,"i":19,"t":0.0,"j":2.96,"u":3},{"lon":-7.64904,"k":5,"v":1.21,"a":128,"l":1.21,"w":2,"ab":8,"b":30.99,"m":46,"x":0.48,"ac":1.94,"c":51,"n":11.14,"y":13,"ad":413,"d":12.35,"o":6,"z":3.15,"e":16,"p":1.45,"f":3.87,"q":9,"town":"Ramelton, Donegal","g":107,"r":2.18,"geometry":{"type":"Point","coordinates":[-7.64904,55.037395]},"h":25.91,"s":1,"id":"a678w4eha5fe","lat":55.037395,"i":16,"t":0.24,"j":3.87,"u":5},{"lon":-7.600442,"k":7,"v":1.21,"a":120,"l":1.69,"w":4,"ab":1,"b":29.06,"m":86,"x":0.97,"ac":0.24,"c":49,"n":20.82,"y":13,"ad":413,"d":11.86,"o":2,"z":3.15,"e":9,"p":0.48,"f":2.18,"q":6,"town":"Raphoe, Donegal","g":97,"r":1.45,"geometry":{"type":"Point","coordinates":[-7.600442,54.8737]},"h":23.49,"s":0,"id":"a678w4eaotha","lat":54.8737,"i":14,"t":0.0,"j":3.39,"u":5},{"lon":-6.995451,"k":9,"v":0.34,"a":110,"l":1.54,"w":5,"ab":8,"b":18.87,"m":73,"x":0.86,"ac":1.37,"c":65,"n":12.52,"y":20,"ad":583,"d":11.15,"o":6,"z":3.43,"e":29,"p":1.03,"f":4.97,"q":12,"town":"Rathangan, Kildare","g":206,"r":2.06,"geometry":{"type":"Point","coordinates":[-6.995451,53.221076]},"h":35.33,"s":2,"id":"a678w411zzhr","lat":53.221076,"i":36,"t":0.34,"j":6.17,"u":2},{"lon":-7.066478,"k":18,"v":2.02,"a":192,"l":1.73,"w":16,"ab":49,"b":18.46,"m":76,"x":1.54,"ac":4.71,"c":169,"n":7.31,"y":28,"ad":1040,"d":16.25,"o":12,"z":2.69,"e":62,"p":1.15,"f":5.96,"q":31,"town":"Rathcoole, South Dublin","g":335,"r":2.98,"geometry":{"type":"Point","coordinates":[-7.066478,53.611173]},"h":32.21,"s":2,"id":"a678w4gauksu","lat":53.611173,"i":29,"t":0.19,"j":2.79,"u":21},{"lon":-8.288448,"k":6,"v":0.73,"a":85,"l":1.45,"w":2,"ab":15,"b":20.58,"m":43,"x":0.48,"ac":3.63,"c":43,"n":10.41,"y":13,"ad":413,"d":10.41,"o":9,"z":3.15,"e":62,"p":2.18,"f":15.01,"q":7,"town":"Rathcormac, Cork","g":95,"r":1.69,"geometry":{"type":"Point","coordinates":[-8.288448,52.077475]},"h":23.0,"s":0,"id":"a678w49wk3r4","lat":52.077475,"i":30,"t":0.0,"j":7.26,"u":3},{"lon":-7.58748,"k":7,"v":0.66,"a":133,"l":1.53,"w":4,"ab":20,"b":29.1,"m":51,"x":0.88,"ac":4.38,"c":60,"n":11.16,"y":9,"ad":457,"d":13.13,"o":6,"z":1.97,"e":15,"p":1.31,"f":3.28,"q":9,"town":"Rathdowney, Laoighis","g":118,"r":1.97,"geometry":{"type":"Point","coordinates":[-7.58748,52.856914]},"h":25.82,"s":1,"id":"a678w41kjj0w","lat":52.856914,"i":21,"t":0.22,"j":4.6,"u":3},{"lon":-6.231232,"k":11,"v":0.68,"a":93,"l":2.49,"w":10,"ab":8,"b":21.04,"m":71,"x":2.26,"ac":1.81,"c":54,"n":16.06,"y":7,"ad":442,"d":12.22,"o":6,"z":1.58,"e":11,"p":1.36,"f":2.49,"q":7,"town":"Rathdrum, Wicklow","g":134,"r":1.58,"geometry":{"type":"Point","coordinates":[-6.231232,52.930588]},"h":30.32,"s":1,"id":"a678w40vd62s","lat":52.930588,"i":26,"t":0.23,"j":5.88,"u":3},{"lon":-8.938136,"k":9,"v":0.77,"a":138,"l":1.73,"w":3,"ab":7,"b":26.49,"m":59,"x":0.58,"ac":1.34,"c":75,"n":11.32,"y":20,"ad":521,"d":14.4,"o":11,"z":3.84,"e":14,"p":2.11,"f":2.69,"q":11,"town":"Rathkeale, Limerick","g":144,"r":2.11,"geometry":{"type":"Point","coordinates":[-8.938136,52.523656]},"h":27.64,"s":2,"id":"a678w4fmkum3","lat":52.523656,"i":24,"t":0.38,"j":4.61,"u":4},{"lon":-8.472774,"k":24,"v":0.71,"a":320,"l":2.14,"w":13,"ab":53,"b":28.5,"m":95,"x":1.16,"ac":4.72,"c":168,"n":8.46,"y":46,"ad":1123,"d":14.96,"o":18,"z":4.1,"e":43,"p":1.6,"f":3.83,"q":20,"town":"Rathluirc (or Charleville), Cork","g":271,"r":1.78,"geometry":{"type":"Point","coordinates":[-8.472774,51.89834]},"h":24.13,"s":3,"id":"a678w42hr3ll","lat":51.89834,"i":41,"t":0.27,"j":3.65,"u":8},{"lon":-7.552022,"k":12,"v":1.25,"a":96,"l":1.88,"w":10,"ab":8,"b":15.02,"m":98,"x":1.56,"ac":1.25,"c":52,"n":15.34,"y":18,"ad":639,"d":8.14,"o":12,"z":2.82,"e":55,"p":1.88,"f":8.61,"q":11,"town":"Rathnew, Wicklow","g":215,"r":1.72,"geometry":{"type":"Point","coordinates":[-7.552022,53.483719]},"h":33.65,"s":2,"id":"a678w4arrhyj","lat":53.483719,"i":42,"t":0.31,"j":6.57,"u":8},{"lon":-6.464948,"k":14,"v":0.61,"a":296,"l":0.61,"w":17,"ab":48,"b":12.84,"m":126,"x":0.74,"ac":2.08,"c":272,"n":5.47,"y":24,"ad":2305,"d":11.8,"o":31,"z":1.04,"e":244,"p":1.34,"f":10.59,"q":51,"town":"Ratoath, Meath","g":1055,"r":2.21,"geometry":{"type":"Point","coordinates":[-6.464948,53.5064]},"h":45.77,"s":3,"id":"a678w4ezwi2g","lat":53.5064,"i":110,"t":0.13,"j":4.77,"u":14},{"lon":-7.302637,"k":9,"v":1.5,"a":61,"l":1.92,"w":4,"ab":3,"b":13.03,"m":56,"x":0.85,"ac":0.64,"c":70,"n":11.97,"y":5,"ad":468,"d":14.96,"o":6,"z":1.07,"e":28,"p":1.28,"f":5.98,"q":10,"town":"Rochfortbridge, Westmeath","g":180,"r":2.14,"geometry":{"type":"Point","coordinates":[-7.302637,53.414949]},"h":38.46,"s":0,"id":"a678w40tnt12","lat":53.414949,"i":29,"t":0.0,"j":6.2,"u":7},{"lon":-8.189912,"k":16,"v":0.82,"a":464,"l":0.94,"w":23,"ab":91,"b":27.23,"m":137,"x":1.35,"ac":5.34,"c":233,"n":8.04,"y":51,"ad":1704,"d":13.67,"o":43,"z":2.99,"e":49,"p":2.52,"f":2.88,"q":44,"town":"Roscommon, Roscommon","g":499,"r":2.58,"geometry":{"type":"Point","coordinates":[-8.189912,53.630098]},"h":29.28,"s":4,"id":"a678w473hpm7","lat":53.630098,"i":36,"t":0.23,"j":2.11,"u":14},{"lon":-7.640475,"k":31,"v":0.87,"a":407,"l":1.81,"w":23,"ab":66,"b":23.72,"m":201,"x":1.34,"ac":3.85,"c":215,"n":11.71,"y":60,"ad":1716,"d":12.53,"o":32,"z":3.5,"e":55,"p":1.86,"f":3.21,"q":51,"town":"Roscrea, North Tipperary","g":455,"r":2.97,"geometry":{"type":"Point","coordinates":[-7.640475,53.665983]},"h":26.52,"s":4,"id":"a678w4dvenz6","lat":53.665983,"i":101,"t":0.23,"j":5.89,"u":15},{"lon":-6.38657,"k":5,"v":1.15,"a":107,"l":1.15,"w":5,"ab":22,"b":24.54,"m":49,"x":1.15,"ac":5.05,"c":85,"n":11.24,"y":8,"ad":436,"d":19.5,"o":10,"z":1.83,"e":19,"p":2.29,"f":4.36,"q":7,"town":"Rosslare, Wexford","g":88,"r":1.61,"geometry":{"type":"Point","coordinates":[-6.38657,52.273266]},"h":20.18,"s":4,"id":"a678w4aawwnh","lat":52.273266,"i":22,"t":0.92,"j":5.05,"u":5},{"lon":-6.381797,"k":40,"v":0.81,"a":461,"l":1.47,"w":41,"ab":81,"b":16.92,"m":237,"x":1.51,"ac":2.97,"c":361,"n":8.7,"y":61,"ad":2724,"d":13.25,"o":45,"z":2.24,"e":156,"p":1.65,"f":5.73,"q":69,"town":"Rush, Fingal","g":1057,"r":2.53,"geometry":{"type":"Point","coordinates":[-6.381797,53.38599]},"h":38.8,"s":12,"id":"a678w481aagv","lat":53.38599,"i":81,"t":0.44,"j":2.97,"u":22},{"lon":-6.665279,"k":16,"v":0.61,"a":233,"l":1.22,"w":5,"ab":61,"b":17.73,"m":116,"x":0.38,"ac":4.64,"c":145,"n":8.83,"y":25,"ad":1314,"d":11.04,"o":22,"z":1.9,"e":112,"p":1.67,"f":8.52,"q":21,"town":"Sallins, Kildare","g":494,"r":1.6,"geometry":{"type":"Point","coordinates":[-6.665279,53.24959]},"h":37.6,"s":0,"id":"a678w49gvqqr","lat":53.24959,"i":56,"t":0.0,"j":4.26,"u":8},{"lon":-8.882226,"k":49,"v":0.88,"a":634,"l":1.48,"w":30,"ab":175,"b":19.2,"m":347,"x":0.91,"ac":5.3,"c":541,"n":10.51,"y":72,"ad":3302,"d":16.38,"o":74,"z":2.18,"e":157,"p":2.24,"f":4.75,"q":53,"town":"Shannon, Clare","g":989,"r":1.61,"geometry":{"type":"Point","coordinates":[-8.882226,52.710215]},"h":29.95,"s":7,"id":"a678w4cjnq7y","lat":52.710215,"i":145,"t":0.21,"j":4.39,"u":29},{"lon":-8.776354,"k":11,"v":0.87,"a":85,"l":1.92,"w":6,"ab":12,"b":14.83,"m":60,"x":1.05,"ac":2.09,"c":86,"n":10.47,"y":11,"ad":573,"d":15.01,"o":9,"z":1.92,"e":39,"p":1.57,"f":6.81,"q":16,"town":"Sixmilebridge, Clare","g":200,"r":2.79,"geometry":{"type":"Point","coordinates":[-8.776354,52.740825]},"h":34.9,"s":3,"id":"a678w49iovju","lat":52.740825,"i":30,"t":0.52,"j":5.24,"u":5},{"lon":-6.30137,"k":51,"v":0.89,"a":601,"l":1.56,"w":40,"ab":62,"b":18.38,"m":343,"x":1.22,"ac":1.9,"c":478,"n":10.49,"y":50,"ad":3270,"d":14.62,"o":43,"z":1.53,"e":137,"p":1.31,"f":4.19,"q":54,"town":"Skerries, Fingal","g":1286,"r":1.65,"geometry":{"type":"Point","coordinates":[-6.30137,53.389961]},"h":39.33,"s":4,"id":"a678w47g4k6v","lat":53.389961,"i":92,"t":0.12,"j":2.81,"u":29},{"lon":-9.269799,"k":13,"v":0.5,"a":358,"l":1.3,"w":5,"ab":48,"b":35.87,"m":105,"x":0.5,"ac":4.81,"c":130,"n":10.52,"y":29,"ad":998,"d":13.03,"o":16,"z":2.91,"e":47,"p":1.6,"f":4.71,"q":12,"town":"Skibbereen Legal Town, Cork","g":196,"r":1.2,"geometry":{"type":"Point","coordinates":[-9.269799,51.549608]},"h":19.64,"s":2,"id":"a678w46jeeng","lat":51.549608,"i":32,"t":0.2,"j":3.21,"u":5},{"lon":-6.540024,"k":5,"v":1.69,"a":58,"l":1.41,"w":9,"ab":12,"b":16.34,"m":23,"x":2.54,"ac":3.38,"c":39,"n":6.48,"y":6,"ad":355,"d":10.99,"o":4,"z":1.69,"e":27,"p":1.13,"f":7.61,"q":9,"town":"Slane, Meath","g":144,"r":2.54,"geometry":{"type":"Point","coordinates":[-6.540024,53.209578]},"h":40.56,"s":0,"id":"a678w4fnc5tv","lat":53.209578,"i":13,"t":0.0,"j":3.66,"u":6},{"lon":-8.475819,"k":91,"v":0.98,"a":1950,"l":1.31,"w":73,"ab":680,"b":27.97,"m":708,"x":1.05,"ac":9.75,"c":862,"n":10.15,"y":241,"ad":6972,"d":12.36,"o":139,"z":3.46,"e":261,"p":1.99,"f":3.74,"q":114,"town":"Sligo, Sligo","g":1605,"r":1.64,"geometry":{"type":"Point","coordinates":[-8.475819,54.27223]},"h":23.02,"s":19,"id":"a678w4fv12pi","lat":54.27223,"i":161,"t":0.27,"j":2.31,"u":68},{"lon":-6.261964,"k":5,"v":0.57,"a":136,"l":0.57,"w":8,"ab":6,"b":15.53,"m":36,"x":0.91,"ac":0.68,"c":121,"n":4.11,"y":11,"ad":876,"d":13.81,"o":5,"z":1.26,"e":142,"p":0.57,"f":16.21,"q":20,"town":"Stamullen, Meath","g":306,"r":2.28,"geometry":{"type":"Point","coordinates":[-6.261964,53.628779]},"h":34.93,"s":2,"id":"a678w4b8b9rj","lat":53.628779,"i":73,"t":0.23,"j":8.33,"u":5},{"lon":-7.147476,"k":8,"v":1.31,"a":95,"l":2.09,"w":11,"ab":3,"b":24.87,"m":35,"x":2.88,"ac":0.79,"c":52,"n":9.16,"y":10,"ad":382,"d":13.61,"o":5,"z":2.62,"e":8,"p":1.31,"f":2.09,"q":6,"town":"Stradbally, Laoighis","g":132,"r":1.57,"geometry":{"type":"Point","coordinates":[-7.147476,53.016301]},"h":34.55,"s":0,"id":"a678w418vl1o","lat":53.016301,"i":12,"t":0.0,"j":3.14,"u":5},{"lon":-8.595473,"k":6,"v":0.19,"a":122,"l":1.13,"w":4,"ab":18,"b":22.98,"m":50,"x":0.75,"ac":3.39,"c":79,"n":9.42,"y":17,"ad":531,"d":14.88,"o":7,"z":3.2,"e":40,"p":1.32,"f":7.53,"q":8,"town":"Strandhill, Sligo","g":169,"r":1.51,"geometry":{"type":"Point","coordinates":[-8.595473,54.267594]},"h":31.83,"s":1,"id":"a678w4bz85tg","lat":54.267594,"i":9,"t":0.19,"j":1.69,"u":1},{"lon":-8.950064,"k":7,"v":0.53,"a":228,"l":1.23,"w":4,"ab":6,"b":40.14,"m":63,"x":0.7,"ac":1.06,"c":86,"n":11.09,"y":11,"ad":568,"d":15.14,"o":6,"z":1.94,"e":20,"p":1.06,"f":3.52,"q":5,"town":"Swinford, Mayo","g":113,"r":0.88,"geometry":{"type":"Point","coordinates":[-8.950064,53.943645]},"h":19.89,"s":2,"id":"a678w441s4xi","lat":53.943645,"i":14,"t":0.35,"j":2.46,"u":3},{"lon":-6.30137,"k":153,"v":1.12,"a":1933,"l":1.32,"w":162,"ab":815,"b":16.72,"m":1000,"x":1.4,"ac":7.05,"c":1258,"n":8.65,"y":322,"ad":11563,"d":10.88,"o":293,"z":2.78,"e":901,"p":2.53,"f":7.79,"q":226,"town":"Swords, Fingal","g":3921,"r":1.95,"geometry":{"type":"Point","coordinates":[-6.30137,53.389961]},"h":33.91,"s":30,"id":"a678w47z7md9","lat":53.389961,"i":419,"t":0.26,"j":3.62,"u":130},{"lon":-8.379544,"k":9,"v":0.9,"a":213,"l":1.15,"w":8,"ab":23,"b":27.27,"m":72,"x":1.02,"ac":2.94,"c":150,"n":9.22,"y":17,"ad":781,"d":19.21,"o":12,"z":2.18,"e":24,"p":1.54,"f":3.07,"q":16,"town":"Templemore, North Tipperary","g":207,"r":2.05,"geometry":{"type":"Point","coordinates":[-8.379544,51.905607]},"h":26.5,"s":1,"id":"a678w4em902s","lat":51.905607,"i":22,"t":0.13,"j":2.82,"u":7},{"lon":-6.231794,"k":13,"v":1.11,"a":145,"l":2.07,"w":10,"ab":24,"b":23.09,"m":52,"x":1.59,"ac":3.82,"c":89,"n":8.28,"y":23,"ad":628,"d":14.17,"o":12,"z":3.66,"e":35,"p":1.91,"f":5.57,"q":20,"town":"Thomastown, Kilkenny","g":174,"r":3.18,"geometry":{"type":"Point","coordinates":[-6.231794,52.790385]},"h":27.71,"s":1,"id":"a678w4ef9h3c","lat":52.790385,"i":23,"t":0.16,"j":3.66,"u":7},{"lon":-8.379544,"k":37,"v":0.8,"a":907,"l":1.23,"w":24,"ab":126,"b":30.22,"m":329,"x":0.8,"ac":4.2,"c":440,"n":10.96,"y":80,"ad":3001,"d":14.66,"o":49,"z":2.67,"e":112,"p":1.63,"f":3.73,"q":40,"town":"Thurles, North Tipperary","g":700,"r":1.33,"geometry":{"type":"Point","coordinates":[-8.379544,51.905607]},"h":23.33,"s":6,"id":"a678w4bfxy6f","lat":51.905607,"i":127,"t":0.2,"j":4.23,"u":24},{"lon":-7.066478,"k":36,"v":1.34,"a":573,"l":1.85,"w":21,"ab":57,"b":29.51,"m":275,"x":1.08,"ac":2.94,"c":269,"n":14.16,"y":60,"ad":1942,"d":13.85,"o":27,"z":3.09,"e":65,"p":1.39,"f":3.35,"q":33,"town":"Tipperary, South Tipperary","g":434,"r":1.7,"geometry":{"type":"Point","coordinates":[-7.066478,53.611173]},"h":22.35,"s":4,"id":"a678w434ywad","lat":53.611173,"i":62,"t":0.21,"j":3.19,"u":26},{"lon":-8.465004,"k":15,"v":0.76,"a":176,"l":1.43,"w":6,"ab":14,"b":16.79,"m":101,"x":0.57,"ac":1.34,"c":153,"n":9.64,"y":20,"ad":1048,"d":14.6,"o":13,"z":1.91,"e":56,"p":1.24,"f":5.34,"q":18,"town":"Tower, Cork","g":423,"r":1.72,"geometry":{"type":"Point","coordinates":[-8.465004,51.90134]},"h":40.36,"s":3,"id":"a678w43i8jii","lat":51.90134,"i":42,"t":0.29,"j":4.01,"u":8},{"lon":-9.704768,"k":144,"v":1.08,"a":2252,"l":1.73,"w":92,"ab":440,"b":27.1,"m":1003,"x":1.11,"ac":5.29,"c":1062,"n":12.07,"y":274,"ad":8310,"d":12.78,"o":132,"z":3.3,"e":304,"p":1.59,"f":3.66,"q":144,"town":"Tralee, Kerry","g":2117,"r":1.73,"geometry":{"type":"Point","coordinates":[-9.704768,52.269385]},"h":25.48,"s":18,"id":"a678w4339a3a","lat":52.269385,"i":238,"t":0.22,"j":2.86,"u":90},{"lon":-7.119399,"k":53,"v":0.74,"a":768,"l":1.52,"w":15,"ab":66,"b":21.97,"m":375,"x":0.43,"ac":1.89,"c":552,"n":10.73,"y":62,"ad":3496,"d":15.79,"o":38,"z":1.77,"e":196,"p":1.09,"f":5.61,"q":50,"town":"Tramore, Waterford","g":1132,"r":1.43,"geometry":{"type":"Point","coordinates":[-7.119399,52.247365]},"h":32.38,"s":4,"id":"a678w430evfc","lat":52.247365,"i":159,"t":0.11,"j":4.55,"u":26},{"lon":-6.788893,"k":37,"v":0.61,"a":453,"l":1.61,"w":33,"ab":88,"b":19.66,"m":233,"x":1.43,"ac":3.82,"c":304,"n":10.11,"y":48,"ad":2304,"d":13.19,"o":35,"z":2.08,"e":104,"p":1.52,"f":4.51,"q":52,"town":"Trim, Meath","g":792,"r":2.26,"geometry":{"type":"Point","coordinates":[-6.788893,53.557809]},"h":34.38,"s":7,"id":"a678w46wpwac","lat":53.557809,"i":104,"t":0.3,"j":4.51,"u":14},{"lon":-8.850022,"k":39,"v":0.81,"a":806,"l":1.44,"w":17,"ab":87,"b":29.79,"m":284,"x":0.63,"ac":3.22,"c":414,"n":10.5,"y":82,"ad":2706,"d":15.3,"o":54,"z":3.03,"e":164,"p":2.0,"f":6.06,"q":54,"town":"Tuam, Galway","g":614,"r":2.0,"geometry":{"type":"Point","coordinates":[-8.850022,53.515409]},"h":22.69,"s":9,"id":"a678w46cvkxi","lat":53.515409,"i":60,"t":0.33,"j":2.22,"u":22},{"lon":-8.729456,"k":5,"v":0.37,"a":154,"l":0.94,"w":6,"ab":24,"b":28.84,"m":66,"x":1.12,"ac":4.49,"c":66,"n":12.36,"y":16,"ad":534,"d":12.36,"o":7,"z":3.0,"e":34,"p":1.31,"f":6.37,"q":13,"town":"Tubbercurry, Sligo","g":127,"r":2.43,"geometry":{"type":"Point","coordinates":[-8.729456,54.051414]},"h":23.78,"s":0,"id":"a678w4bzhh3a","lat":54.051414,"i":14,"t":0.0,"j":2.62,"u":2},{"lon":-7.492164,"k":60,"v":1.14,"a":1064,"l":1.32,"w":63,"ab":227,"b":23.38,"m":457,"x":1.38,"ac":4.99,"c":605,"n":10.04,"y":190,"ad":4551,"d":13.29,"o":120,"z":4.17,"e":254,"p":2.64,"f":5.58,"q":108,"town":"Tullamore, Offaly","g":1182,"r":2.37,"geometry":{"type":"Point","coordinates":[-7.492164,53.275805]},"h":25.97,"s":9,"id":"a678w401ns88","lat":53.275805,"i":160,"t":0.2,"j":3.52,"u":52},{"lon":-6.913539,"k":23,"v":1.26,"a":274,"l":2.07,"w":20,"ab":59,"b":24.71,"m":126,"x":1.8,"ac":5.32,"c":121,"n":11.36,"y":33,"ad":1109,"d":10.91,"o":22,"z":2.98,"e":43,"p":1.98,"f":3.88,"q":25,"town":"Tullow, Carlow","g":286,"r":2.25,"geometry":{"type":"Point","coordinates":[-6.913539,52.834735]},"h":25.79,"s":6,"id":"a678w4cxv8dj","lat":52.834735,"i":57,"t":0.54,"j":5.14,"u":14},{"lon":-6.420269,"k":3,"v":0.54,"a":62,"l":0.81,"w":5,"ab":8,"b":16.76,"m":21,"x":1.35,"ac":2.16,"c":42,"n":5.68,"y":4,"ad":370,"d":11.35,"o":8,"z":1.08,"e":51,"p":2.16,"f":13.78,"q":4,"town":"Tullyallen, Louth","g":131,"r":1.08,"geometry":{"type":"Point","coordinates":[-6.420269,53.736585]},"h":35.41,"s":1,"id":"a678w49a1rj4","lat":53.736585,"i":28,"t":0.27,"j":7.57,"u":2},{"lon":-7.078825,"k":5,"v":0.75,"a":188,"l":0.75,"w":2,"ab":20,"b":28.19,"m":70,"x":0.3,"ac":3.0,"c":105,"n":10.49,"y":21,"ad":667,"d":15.74,"o":10,"z":3.15,"e":42,"p":1.5,"f":6.3,"q":12,"town":"Virginia, Cavan","g":160,"r":1.8,"geometry":{"type":"Point","coordinates":[-7.078825,53.834055]},"h":23.99,"s":0,"id":"a678w4dlpro8","lat":53.834055,"i":27,"t":0.0,"j":4.05,"u":5},{"lon":-7.129191,"k":282,"v":0.98,"a":4861,"l":1.54,"w":235,"ab":967,"b":26.49,"m":2097,"x":1.28,"ac":5.27,"c":2441,"n":11.43,"y":494,"ad":18348,"d":13.3,"o":288,"z":2.69,"e":931,"p":1.57,"f":5.07,"q":279,"town":"Waterford City and Suburbs","g":4666,"r":1.52,"geometry":{"type":"Point","coordinates":[-7.129191,52.256952]},"h":25.43,"s":31,"id":"a678w4czvw2a","lat":52.256952,"i":596,"t":0.17,"j":3.25,"u":180},{"lon":-9.522082,"k":28,"v":0.68,"a":455,"l":1.58,"w":17,"ab":150,"b":25.65,"m":200,"x":0.96,"ac":8.46,"c":264,"n":11.27,"y":50,"ad":1774,"d":14.88,"o":39,"z":2.82,"e":77,"p":2.2,"f":4.34,"q":21,"town":"Westport, Mayo","g":416,"r":1.18,"geometry":{"type":"Point","coordinates":[-9.522082,53.79843]},"h":23.45,"s":3,"id":"a678w484kwd0","lat":53.79843,"i":42,"t":0.17,"j":2.37,"u":12},{"lon":-6.458934,"k":130,"v":0.97,"a":1828,"l":1.86,"w":103,"ab":269,"b":26.18,"m":759,"x":1.48,"ac":3.85,"c":1000,"n":10.87,"y":200,"ad":6982,"d":14.32,"o":154,"z":2.86,"e":391,"p":2.21,"f":5.6,"q":125,"town":"Wexford, Wexford","g":1632,"r":1.79,"geometry":{"type":"Point","coordinates":[-6.458934,52.337347]},"h":23.37,"s":15,"id":"a678w4cx1ajf","lat":52.337347,"i":308,"t":0.21,"j":4.41,"u":68},{"lon":-6.043294,"k":53,"v":1.06,"a":598,"l":1.55,"w":38,"ab":73,"b":17.53,"m":376,"x":1.11,"ac":2.14,"c":517,"n":11.02,"y":68,"ad":3412,"d":15.15,"o":49,"z":1.99,"e":149,"p":1.44,"f":4.37,"q":76,"town":"Wicklow, Wicklow","g":1261,"r":2.23,"geometry":{"type":"Point","coordinates":[-6.043294,52.98063]},"h":36.96,"s":6,"id":"a678w43uibdz","lat":52.98063,"i":112,"t":0.18,"j":3.28,"u":36},{"lon":-7.851769,"k":40,"v":0.84,"a":599,"l":1.61,"w":23,"ab":58,"b":24.09,"m":289,"x":0.93,"ac":2.33,"c":395,"n":11.63,"y":54,"ad":2486,"d":15.89,"o":33,"z":2.17,"e":113,"p":1.33,"f":4.55,"q":34,"town":"Youghal, Cork","g":720,"r":1.37,"geometry":{"type":"Point","coordinates":[-7.851769,51.95688]},"h":28.96,"s":3,"id":"a678w42hjzr8","lat":51.95688,"i":104,"t":0.12,"j":4.18,"u":21}],"geometry_types":["point"],"unique_name":null,"name":"Central Statistics Office Ireland, Private Households by Type Occupying and by Town, Ireland, 2006","feature_count":232,"state":"complete","published":"2007-08-16T12:00:00Z","description":"This dataset has data on Private Household types throughout towns in Ireland that have a population of over 1000. The data includes numbers and percentages for the following private household types: one person, husband and wife, cohabiting couple, Husband wife children, cohabiting couple and children, father and children, mother and children, couple and others, couple children and others, father children and others, mother children and others, two or more family units, non family households and relations, and two or more non-related persons. The towns have been geolocated by their lat/lon position. For more info about the data go to cso.ie/census.\n","stats":{"lon":{"max": -6.043294, "mean": -7.65686715086207, "variance": 1.12885736840622, "stdev": 1.06247699664803, "min": -10.224143, "median": -7.477969},"k":{"max": 5124, "mean": 57.0215517241379, "variance": 118173.293905807, "stdev": 343.763427237114, "min": 2, "median": 14},"v":{"max": 2.02, "mean": 0.911939655172414, "variance": 0.113626957381699, "stdev": 0.337085979212572, "min": 0.0, "median": 0.89},"a":{"max": 89330, "mean": 950.862068965517, "variance": 35622013.0718018, "stdev": 5968.41797060174, "min": 29, "median": 217},"l":{"max": 3.91, "mean": 1.49176724137931, "variance": 0.274473486714435, "stdev": 0.523902172847598, "min": 0.32, "median": 1.44},"w":{"max": 6410, "mean": 58.3146551724138, "variance": 181505.610520227, "stdev": 426.034752714174, "min": 1, "median": 11},"ab":{"max": 27354, "mean": 254.883620689655, "variance": 3439111.38466562, "stdev": 1854.48412898726, "min": 0, "median": 31},"b":{"max": 40.37, "mean": 23.7656034482759, "variance": 31.7929520152262, "stdev": 5.63852392166834, "min": 8.68, "median": 23.94},"m":{"max": 36294, "mean": 403.366379310345, "variance": 5891077.33271757, "stdev": 2427.15416336037, "min": 13, "median": 95},"x":{"max": 3.03, "mean": 1.18443965517241, "variance": 0.265950334005075, "stdev": 0.5157037269645, "min": 0.2, "median": 1.15},"ac":{"max": 17.06, "mean": 3.58465517241379, "variance": 5.67344143902075, "stdev": 2.38189870460957, "min": 0.0, "median": 3.1},"c":{"max": 46142, "mean": 518.987068965517, "variance": 9532148.05610912, "stdev": 3087.41770029731, "min": 38, "median": 130},"n":{"max": 22.72, "mean": 10.2462068965517, "variance": 6.43174918644575, "stdev": 2.53608934906595, "min": 3.09, "median": 10.28},"y":{"max": 13839, "mean": 128.491379310345, "variance": 848112.588669951, "stdev": 920.930284370077, "min": 3, "median": 25},"ad":{"max": 373123, "mean": 4059.59482758621, "variance": 622877667.298329, "stdev": 24957.5172502861, "min": 328, "median": 968},"d":{"max": 19.5, "mean": 13.7509913793103, "variance": 3.71437000858337, "stdev": 1.92727009227648, "min": 8.14, "median": 13.67},"o":{"max": 7456, "mean": 77.6336206896552, "variance": 248128.865185102, "stdev": 498.125350875763, "min": 1, "median": 16},"z":{"max": 4.9, "mean": 2.64206896551724, "variance": 0.746438125093297, "stdev": 0.863966506927958, "min": 0.87, "median": 2.64},"e":{"max": 19614, "mean": 217.655172413793, "variance": 1705985.14464845, "stdev": 1306.1336626274, "min": 7, "median": 49},"p":{"max": 5.5, "mean": 1.70698275862069, "variance": 0.481332848186296, "stdev": 0.69378155653368, "min": 0.18, "median": 1.66},"f":{"max": 18.98, "mean": 5.49849137931034, "variance": 8.23828386139722, "stdev": 2.87024108071033, "min": 1.42, "median": 4.95},"q":{"max": 7506, "mean": 79.551724137931, "variance": 249676.00597104, "stdev": 499.675900930834, "min": 3, "median": 20},"g":{"max": 99431, "mean": 1138.13362068966, "variance": 44531819.5534968, "stdev": 6673.21658224104, "min": 80, "median": 269},"r":{"max": 5.16, "mean": 2.00831896551724, "variance": 0.449086772279445, "stdev": 0.67013936780303, "min": 0.53, "median": 1.95},"h":{"max": 61.08, "mean": 29.2207327586207, "variance": 42.9771332269742, "stdev": 6.55569471734111, "min": 19.25, "median": 27.68},"s":{"max": 945, "mean": 9.56034482758621, "variance": 3945.72794446932, "stdev": 62.8150296065306, "min": 0, "median": 2},"lat":{"max": 55.25128, "mean": 53.159270112069, "variance": 0.650164605122048, "stdev": 0.806327852130911, "min": 51.549608, "median": 53.2599},"i":{"max": 8898, "mean": 119.974137931034, "variance": 354283.289371548, "stdev": 595.217010317706, "min": 5, "median": 34},"t":{"max": 0.92, "mean": 0.232155172413793, "variance": 0.0276853784146887, "stdev": 0.166389237676866, "min": 0.0, "median": 0.22},"j":{"max": 8.41, "mean": 3.75525862068965, "variance": 2.0469644349903, "stdev": 1.43072164832657, "min": 0.99, "median": 3.47},"u":{"max": 4780, "mean": 45.1594827586207, "variance": 100922.827268995, "stdev": 317.683533204029, "min": 0, "median": 8}},"next_feature":null,"is_raster":false,"pagination":{"sort":null,"start":0,"limit":1000000,"total":232},"short_classification":"Y","is_temporal":false,"author":{"metadata":"http://beyond2020.cso.ie/Census/TableViewer/tableView.aspx?ReportId=12462","url":"http://beyond2020.cso.ie/censusasp/saps/Pages/Select_Theme_Table12_Live.asp","contact_name":"","contact_address":"","source":"Central Statistics Office Ireland - CSO","contact_phone":""},"source":"http://beyond2020.cso.ie/censusasp/saps/Pages/Select_Theme_Table12_Live.asp","data_type":"Dataset","permissions":[{"group_id":"everyone","permissions":{"download":true,"view":true}}],"classification":null,"tags":"census,cities,couples,demographics,family,households,ireland,irish,population,towns","id":4518}