{"type":"FeatureCollection","data_type":"Dataset","url_type":null,"permissions":[{"permissions":{"download":true,"view":true},"group_id":"everyone"}],"classification":null,"title":"\nTwC Members\n","count":13,"stream_id":45189,"contributor":{"url":"http://geocommons.com/users/11444","name":"platial"},"data_attributes":null,"calculation_params":null,"icon_link":null,"link":"http://geocommons.com/overlays/45189.json","extent":[-104.984,29.7631,-1.89362,52.4829],"geometry_types":["point"],"unique_name":null,"name":"\nTwC Members\n","feature_count":13,"description":"\nA Map by Connerna\n\nA map of all the members of Twincrimson.ning.com\n","next_feature":null,"is_raster":false,"short_classification":"Y","stats":{},"features":[{"properties":{"name":"B1GTED","description":"Posted by Connerna<img src=\"http://media.geocommons.com/platial/images/categories/ICON_activism_verD.gif\"> Bartlesville, OKThe badest mofo in btown<a title=\"Built for Community Mapping\" href=\"http://www.platial.com\"><img src=\"http://media.geocommons.com/platial/images/logotype_small.jpg\"></a>","id":"a6418a8avgxb"},"type":"Feature","geometry":{"type":"Point","coordinates":[-95.980556,36.747222]}},{"properties":{"name":"BigFluffyKitty","description":"Posted by Connerna<img src=\"http://media.geocommons.com/platial/images/categories/ICON_plain_pink_verD.gif\"> Bartlesville, OK<a title=\"Built for Community Mapping\" href=\"http://www.platial.com\"><img src=\"http://media.geocommons.com/platial/images/logotype_small.jpg\"></a>","id":"a6418aieztug"},"type":"Feature","geometry":{"type":"Point","coordinates":[-95.980556,36.747222]}},{"properties":{"name":"ConnerNA","description":"Posted by Connerna<img src=\"http://media.geocommons.com/platial/images/categories/ICON_recreation_verD.gif\"> Bartlesville, OK<a title=\"Built for Community Mapping\" href=\"http://www.platial.com\"><img src=\"http://media.geocommons.com/platial/images/logotype_small.jpg\"></a>","id":"a6418akphbyh"},"type":"Feature","geometry":{"type":"Point","coordinates":[-95.980556,36.747222]}},{"properties":{"name":"Elven Ivy","description":"Posted by ConnernaElkhorn, WI<a title=\"Built for Community Mapping\" href=\"http://www.platial.com\"><img src=\"http://media.geocommons.com/platial/images/logotype_small.jpg\"></a>","id":"a6418a5xetkg"},"type":"Feature","geometry":{"type":"Point","coordinates":[-88.546209,42.700928]}},{"properties":{"name":"Genera1Z0d","description":"Posted by Connerna<img src=\"http://media.geocommons.com/platial/images/categories/ICON_plain_pink_verD.gif\"> Bartlesville, OK<a title=\"Built for Community Mapping\" href=\"http://www.platial.com\"><img src=\"http://media.geocommons.com/platial/images/logotype_small.jpg\"></a>","id":"a6418ah3yast"},"type":"Feature","geometry":{"type":"Point","coordinates":[-95.980556,36.747222]}},{"properties":{"name":"J Daker","description":"Posted by ConnernaCherryvale, KS<a title=\"Built for Community Mapping\" href=\"http://www.platial.com\"><img src=\"http://media.geocommons.com/platial/images/logotype_small.jpg\"></a>","id":"a6418aljtwz1"},"type":"Feature","geometry":{"type":"Point","coordinates":[-95.552222,37.270278]}},{"properties":{"name":"Ndray13","description":"Posted by ConnernaRegina, Saskatchewan<a title=\"Built for Community Mapping\" href=\"http://www.platial.com\"><img src=\"http://media.geocommons.com/platial/images/logotype_small.jpg\"></a>","id":"a6418ahkdiaj"},"type":"Feature","geometry":{"type":"Point","coordinates":[-104.611296,50.452557]}},{"properties":{"name":"OrangeFusion7","description":"Posted by ConnernaLa Junta, Colorado<a title=\"Built for Community Mapping\" href=\"http://www.platial.com\"><img src=\"http://media.geocommons.com/platial/images/logotype_small.jpg\"></a>","id":"a6418a7yt8me"},"type":"Feature","geometry":{"type":"Point","coordinates":[-103.543333,37.985]}},{"properties":{"name":"Shakes the Eld","description":"Posted by ConnernaDenver, CO<a title=\"Built for Community Mapping\" href=\"http://www.platial.com\"><img src=\"http://media.geocommons.com/platial/images/logotype_small.jpg\"></a>","id":"a6418aio00lj"},"type":"Feature","geometry":{"type":"Point","coordinates":[-104.984167,39.739167]}},{"properties":{"name":"Volmarr","description":"Posted by ConnernaBartlesville OK<a title=\"Built for Community Mapping\" href=\"http://www.platial.com\"><img src=\"http://media.geocommons.com/platial/images/logotype_small.jpg\"></a>","id":"a6418a5q2dz2"},"type":"Feature","geometry":{"type":"Point","coordinates":[-95.980556,36.747222]}},{"properties":{"name":"sosabowski","description":"Posted by ConnernaBirmingham, UK<a title=\"Built for Community Mapping\" href=\"http://www.platial.com\"><img src=\"http://media.geocommons.com/platial/images/logotype_small.jpg\"></a>","id":"a6418a7nnpx5"},"type":"Feature","geometry":{"type":"Point","coordinates":[-1.893619,52.482921]}},{"properties":{"name":"teh big D","description":"Posted by ConnernaHouston, TX<a title=\"Built for Community Mapping\" href=\"http://www.platial.com\"><img src=\"http://media.geocommons.com/platial/images/logotype_small.jpg\"></a>","id":"a6418abfg6gs"},"type":"Feature","geometry":{"type":"Point","coordinates":[-95.363056,29.763056]}},{"properties":{"name":"watchoutnow3","description":"Posted by ConnernaBaltimore MD<a title=\"Built for Community Mapping\" href=\"http://www.platial.com\"><img src=\"http://media.geocommons.com/platial/images/logotype_small.jpg\"></a>","id":"a6418agyir0t"},"type":"Feature","geometry":{"type":"Point","coordinates":[-76.6125,39.290278]}}],"is_temporal":false,"author":{"url":"http://www.platial.com/map/13259","metadata":null,"contact_name":"connerna","contact_address":null,"source":"platial:connerna","contact_phone":null},"source":"http://www.platial.com/map/13259","pagination":{"sort":null,"start":0,"total":13,"limit":1000000},"state":"complete","tags":"platial,platial:id=13259,platial:user=connerna","published":"2010-04-26T16:00:00Z","id":45189}