{"type":"FeatureCollection","data_type":"Dataset","url_type":null,"permissions":[{"permissions":{"download":true,"view":true},"group_id":"everyone"}],"classification":null,"title":"\nsommeregger's places\n","count":13,"stream_id":48372,"contributor":{"url":"http://geocommons.com/users/11444","name":"platial"},"data_attributes":null,"calculation_params":null,"icon_link":null,"link":"http://geocommons.com/overlays/48372.json","extent":[-62.2119,-30.9077,16.37,52.5019],"geometry_types":["point"],"unique_name":null,"name":"\nsommeregger's places\n","feature_count":13,"description":"\nA Map by Sommeregger\n\n\n","next_feature":null,"is_raster":false,"short_classification":"Y","stats":{},"features":[{"properties":{"name":"Carolina","description":"Posted by Sommeregger<img src=\"http://media.geocommons.com/platial/img/2009/04/0/caro.jpg\">Argentina, Córdoba, Morteros<a title=\"Built for Community Mapping\" href=\"http://www.platial.com\"><img src=\"http://media.geocommons.com/platial/images/logotype_small.jpg\"></a>","id":"a6g5gream9cy"},"type":"Feature","geometry":{"type":"Point","coordinates":[-62.0042919,-30.7099126]}},{"properties":{"name":"Eve Sommeregger","description":"Posted by Sommereggervienna<a title=\"Built for Community Mapping\" href=\"http://www.platial.com\"><img src=\"http://media.geocommons.com/platial/images/logotype_small.jpg\"></a>","id":"a6g5grcoxrqi"},"type":"Feature","geometry":{"type":"Point","coordinates":[16.37,48.220001]}},{"properties":{"name":"Eve Sommeregger","description":"Posted by Sommeregger<img src=\"http://media.geocommons.com/platial/img/2009/06/0/n592555782_2139256_8681.jpg\">vienna<a title=\"Built for Community Mapping\" href=\"http://www.platial.com\"><img src=\"http://media.geocommons.com/platial/images/logotype_small.jpg\"></a>","id":"a6g5grbm16g4"},"type":"Feature","geometry":{"type":"Point","coordinates":[16.37,48.220001]}},{"properties":{"name":"Florian Sommeregger","description":"Posted by SommereggerhermagorGrüße aus Hermagor<a title=\"Built for Community Mapping\" href=\"http://www.platial.com\"><img src=\"http://media.geocommons.com/platial/images/logotype_small.jpg\"></a>","id":"a6g5grjnnyxs"},"type":"Feature","geometry":{"type":"Point","coordinates":[13.3711065,46.6272416]}},{"properties":{"name":"Georg Sommeregger","description":"Posted by SommereggerBaselHallo Sommereggers!<a title=\"Built for Community Mapping\" href=\"http://www.platial.com\"><img src=\"http://media.geocommons.com/platial/images/logotype_small.jpg\"></a>","id":"a6g5grkim6fm"},"type":"Feature","geometry":{"type":"Point","coordinates":[7.714897,47.447981]}},{"properties":{"name":"Gerita Sommeregger","description":"Posted by SommereggerBasel-Landschaft, Canton, Switzerland<a title=\"Built for Community Mapping\" href=\"http://www.platial.com\"><img src=\"http://media.geocommons.com/platial/images/logotype_small.jpg\"></a>","id":"a6g5grjvgh2q"},"type":"Feature","geometry":{"type":"Point","coordinates":[7.643365,47.451046]}},{"properties":{"name":"Maex","description":"Posted by Sommeregger<img src=\"http://media.geocommons.com/platial/img/2009/06/0/max3.jpg\">10245 berlinhola, gente!<a title=\"Built for Community Mapping\" href=\"http://www.platial.com\"><img src=\"http://media.geocommons.com/platial/images/logotype_small.jpg\"></a>","id":"a6g5gremeiq9"},"type":"Feature","geometry":{"type":"Point","coordinates":[13.4554471,52.5019332]}},{"properties":{"name":"Marcela Sommeregger","description":"Posted by SommereggerLa Paquita, Argentina<a title=\"Built for Community Mapping\" href=\"http://www.platial.com\"><img src=\"http://media.geocommons.com/platial/images/logotype_small.jpg\"></a>","id":"a6g5grbyh8ol"},"type":"Feature","geometry":{"type":"Point","coordinates":[-62.2118978,-30.9077249]}},{"properties":{"name":"Maria Alicia","description":"Posted by Sommeregger<img src=\"http://media.geocommons.com/platial/img/2009/06/3/DSC00679.JPG\">maryd<a title=\"Built for Community Mapping\" href=\"http://www.platial.com\"><img src=\"http://media.geocommons.com/platial/images/logotype_small.jpg\"></a>","id":"a6g5gr88rfef"},"type":"Feature","geometry":{"type":"Point","coordinates":[-3.7032498,40.4167413]}},{"properties":{"name":"Miguel, Jorge, Guillermo y Carolina","description":"Posted by SommereggerArgentina, Córdoba, Morteros<a title=\"Built for Community Mapping\" href=\"http://www.platial.com\"><img src=\"http://media.geocommons.com/platial/images/logotype_small.jpg\"></a>","id":"a6g5grc71vbw"},"type":"Feature","geometry":{"type":"Point","coordinates":[-62.0042919,-30.7099126]}},{"properties":{"name":"Sabrina Sommeregger","description":"Posted by SommereggerRorschach<a title=\"Built for Community Mapping\" href=\"http://www.platial.com\"><img src=\"http://media.geocommons.com/platial/images/logotype_small.jpg\"></a>","id":"a6g5gremzrr1"},"type":"Feature","geometry":{"type":"Point","coordinates":[9.492992,47.478298]}},{"properties":{"name":"Sabrina Sommeregger","description":"Posted by SommereggerRorschach<a title=\"Built for Community Mapping\" href=\"http://www.platial.com\"><img src=\"http://media.geocommons.com/platial/images/logotype_small.jpg\"></a>","id":"a6g5gr9wqrc5"},"type":"Feature","geometry":{"type":"Point","coordinates":[9.492992,47.478298]}},{"properties":{"name":"martina mickie sommeregger","description":"Posted by Sommeregger<img src=\"http://media.geocommons.com/platial/img/2009/06/0/mickie_l%C3%A4chelmodus.JPG\">muellnern-villach, austrianice to meet you :-)<a title=\"Built for Community Mapping\" href=\"http://www.platial.com\"><img src=\"http://media.geocommons.com/platial/images/logotype_small.jpg\"></a>","id":"a6g5grmu5cvx"},"type":"Feature","geometry":{"type":"Point","coordinates":[13.8472363,46.5698297]}}],"is_temporal":false,"author":{"url":"http://www.platial.com/map/506191","metadata":null,"contact_name":"sommeregger","contact_address":null,"source":"platial:sommeregger","contact_phone":null},"source":"http://www.platial.com/map/506191","pagination":{"sort":null,"start":0,"total":13,"limit":1000000},"state":"complete","tags":"platial,platial:id=506191,platial:user=sommeregger","published":"2010-04-27T16:00:00Z","id":48372}