{"type":"FeatureCollection","data_type":"Dataset","url_type":null,"permissions":[{"permissions":{"download":true,"view":true},"group_id":"everyone"}],"classification":null,"title":"\nAngie's Test Map\n","count":9,"stream_id":48687,"contributor":{"url":"http://geocommons.com/users/11444","name":"platial"},"data_attributes":null,"calculation_params":null,"icon_link":null,"link":"http://geocommons.com/overlays/48687.json","extent":[-105.131,40.1484,-105.092,40.1895],"geometry_types":["point"],"unique_name":null,"name":"\nAngie's Test Map\n","feature_count":9,"description":"\nA Map by Angievan\n\n\n","next_feature":null,"is_raster":false,"short_classification":"Y","stats":{},"features":[{"properties":{"name":"Coldstone","description":"Posted by Angievan1089 S Hover Rd, longmont, co<a title=\"Built for Community Mapping\" href=\"http://www.platial.com\"><img src=\"http://media.geocommons.com/platial/images/logotype_small.jpg\"></a>","id":"a6g76u5eogrf"},"type":"Feature","geometry":{"type":"Point","coordinates":[-105.130827,40.148398]}},{"properties":{"name":"Dairy Queen","description":"Posted by Angievan616 Main St, longmont, co<a title=\"Built for Community Mapping\" href=\"http://www.platial.com\"><img src=\"http://media.geocommons.com/platial/images/logotype_small.jpg\"></a>","id":"a6g76u34eld7"},"type":"Feature","geometry":{"type":"Point","coordinates":[-105.1025,40.169356]}},{"properties":{"name":"Glacier","description":"Posted by Angievan1749 Main St, Longmont, COOpening December 2006!<a title=\"Built for Community Mapping\" href=\"http://www.platial.com\"><img src=\"http://media.geocommons.com/platial/images/logotype_small.jpg\"></a>","id":"a6g76u4r0suh"},"type":"Feature","geometry":{"type":"Point","coordinates":[-105.102278,40.189503]}},{"properties":{"name":"My House","description":"Posted by Angievan1243 Martin Rd, Longmont, CO<a title=\"Built for Community Mapping\" href=\"http://www.platial.com\"><img src=\"http://media.geocommons.com/platial/images/logotype_small.jpg\"></a>","id":"a6g76twi3uh2"},"type":"Feature","geometry":{"type":"Point","coordinates":[-105.092208,40.180383]}},{"properties":{"name":"Snow Mountain Creamery","description":"Posted by Angievan1515 Main St, longmont, co<a title=\"Built for Community Mapping\" href=\"http://www.platial.com\"><img src=\"http://media.geocommons.com/platial/images/logotype_small.jpg\"></a>","id":"a6g76ttagph4"},"type":"Feature","geometry":{"type":"Point","coordinates":[-105.102314,40.185233]}},{"properties":{"name":"TCBY","description":"Posted by Angievan751 Hover Rd, longmont, co<a title=\"Built for Community Mapping\" href=\"http://www.platial.com\"><img src=\"http://media.geocommons.com/platial/images/logotype_small.jpg\"></a>","id":"a6g76u49ys5i"},"type":"Feature","geometry":{"type":"Point","coordinates":[-105.130847,40.172078]}},{"properties":{"name":"Testing video feature","description":"Posted by Angievan1749 Main St, Longmont, CO<a title=\"Built for Community Mapping\" href=\"http://www.platial.com\"><img src=\"http://media.geocommons.com/platial/images/logotype_small.jpg\"></a>","id":"a6g76tsopb7m"},"type":"Feature","geometry":{"type":"Point","coordinates":[-105.102278,40.189503]}},{"properties":{"name":"ice cream shop","description":"Posted by Angievan<img src=\"http://media.geocommons.com/platial/images/categories/ICON_shopping_verD.gif\">Â 1243 martin rd, longmont, co<a title=\"Built for Community Mapping\" href=\"http://www.platial.com\"><img src=\"http://media.geocommons.com/platial/images/logotype_small.jpg\"></a>","id":"a6g76u1zkyb8"},"type":"Feature","geometry":{"type":"Point","coordinates":[-105.092208,40.180383]}},{"properties":{"name":"www.angievan.com","description":"Posted by Angievan1243 martin rd, longmont, codescription<a title=\"Built for Community Mapping\" href=\"http://www.platial.com\"><img src=\"http://media.geocommons.com/platial/images/logotype_small.jpg\"></a>","id":"a6g76txahcyp"},"type":"Feature","geometry":{"type":"Point","coordinates":[-105.092208,40.180383]}}],"is_temporal":false,"author":{"url":"http://www.platial.com/map/11496","metadata":null,"contact_name":"angievan","contact_address":null,"source":"platial:angievan","contact_phone":null},"source":"http://www.platial.com/map/11496","pagination":{"sort":null,"start":0,"total":9,"limit":1000000},"state":"complete","tags":"platial,platial:id=11496,platial:user=angievan","published":"2010-04-27T16:00:00Z","id":48687}