{"type":"FeatureCollection","state":"complete","icon_link":null,"title":"20 Most Visited Museums ","count":20,"geometry_types":["point"],"unique_name":null,"pagination":{"sort":null,"start":0,"limit":1000000,"total":20},"feature_count":20,"data_type":"Dataset","stats":{"lon":{"max":121.548493,"mean":2.13589365,"stdev":69.7397846333057,"median":-0.126957,"variance":4863.63756069986,"min":-77.030051},"city":{"count":9,"counts_by_value":{"Shanghai":1,"Paris":3,"Taichung City":1,"London":6,"Taipei City":1,"Beijing":1,"Washington DC":4,"Vatican City":1,"New York City":2},"list":["Paris","Washington DC","Beijing","London","New York City","Vatican City","Taipei City","Shanghai","Taichung City"]},"museum":{"count":20,"counts_by_value":{"National Museum of American History":1,"Natural History Museum, London":1,"Victoria and Albert Museum":1,"National Palace Museum, Taiwan":1,"Tate Modern, London":1,"National Museum of Natural History":1,"National Air and Space Museum":1,"National Museum of Natural Science, Taiwan":1,"Shanghai Science & Technology Museum":1,"National Gallery, London":1,"Metropolitan Museum of Art, New York":1,"British Museum, London":1,"Louvre":1,"American Museum of Natural History":1,"Vatican Museums":1,"Science Museum, London":1,"Centre Pompidou":1,"National Gallery of Art, Washington":1,"Musee d’Orsay":1,"National Museum of China, Beijing":1},"list":["Louvre","National Museum of Natural History","National Museum of China, Beijing","National Air and Space Museum","British Museum, London","Metropolitan Museum of Art, New York","National Gallery, London","Vatican Museums","Natural History Museum, London","American Museum of Natural History","National Museum of American History","Tate Modern, London","National Palace Museum, Taiwan","National Gallery of Art, Washington","Centre Pompidou","Shanghai Science & Technology Museum","Musee d’Orsay","National Museum of Natural Science, Taiwan","Science Museum, London","Victoria and Albert Museum"]},"visitors in 2013 (in millions)":{"count":19,"max":9.3,"mean":5.28,"counts_by_value":{"6.3":1,"3.5":1,"4.4":1,"3.7":1,"4.9":2,"5.5":1,"3.4":1,"6.7":1,"6.0":1,"7.5":1,"5.3":1,"7.0":1,"9.3":1,"5.0":1,"3.6":1,"3.2":1,"3.3":1,"4.1":1,"8.0":1},"stdev":1.74524919047169,"list":[9.3,8.0,7.5,7.0,6.7,6.3,6.0,5.5,5.3,5.0,4.9,4.4,4.1,3.7,3.6,3.5,3.4,3.3,3.2],"median":5.0,"variance":3.0458947368421,"min":3.2},"country":{"count":6,"counts_by_value":{"United States":6,"China":2,"France":3,"Taiwan":2,"Vatican City":1,"England":6},"list":["France","United States","China","England","Vatican City","Taiwan"]},"lat":{"max":51.519413,"mean":42.7513824,"stdev":8.69989067287625,"median":41.906651,"variance":75.6880977199992,"min":24.157246}},"next_feature":null,"is_raster":false,"link":"http://geocommons.com/overlays/500503.json","short_classification":"Y","name":"20 Most Visited Museums ","is_temporal":false,"description":"20 Most Visited Museums in the world, in 2013.","permissions":[{"group_id":"everyone","permissions":{"download":true,"view":true}}],"classification":null,"published":"2015-08-29T13:36:18-04:00","extent":[-88.5226,8.48333,121.067,47.1],"features":[{"properties":{"museum":"Louvre","city":"Paris","lon":2.342348,"geo_score":0.857,"country":"France","visitors in 2013 (in millions)":9.3,"id":"atmpqwk1m4rq","geo_precision":"zip","lat":48.863893},"type":"Feature","geometry":{"type":"Point","coordinates":[4.9333333,47.1]}},{"properties":{"museum":"National Museum of Natural History","city":"Washington DC","lon":-77.026065,"geo_score":0.857,"country":"United States","visitors in 2013 (in millions)":8.0,"id":"atmpqwk0jt91","geo_precision":"zip","lat":38.891266},"type":"Feature","geometry":{"type":"Point","coordinates":[-88.5226141,44.018873]}},{"properties":{"museum":"National Museum of China, Beijing","city":"Beijing","lon":116.401583,"geo_score":0.857,"country":"China","visitors in 2013 (in millions)":7.5,"id":"atmpqwkgab0a","geo_precision":"zip","lat":39.905094},"type":"Feature","geometry":{"type":"Point","coordinates":[108.55,23.8]}},{"properties":{"museum":"National Air and Space Museum","city":"Washington DC","lon":-77.019868,"geo_score":0.857,"country":"United States","visitors in 2013 (in millions)":7.0,"id":"atmpqwo9wvnw","geo_precision":"zip","lat":38.88816},"type":"Feature","geometry":{"type":"Point","coordinates":[-88.5226141,44.018873]}},{"properties":{"museum":"British Museum, London","city":"London","lon":-0.126957,"geo_score":0.714,"country":"England","visitors in 2013 (in millions)":6.7,"id":"atmpqwuzx1xz","geo_precision":"zip","lat":51.519413},"type":"Feature","geometry":{"type":"Point","coordinates":[-80.75,8.5833333]}},{"properties":{"museum":"Metropolitan Museum of Art, New York","city":"New York City","lon":-73.963535,"geo_score":0.857,"country":"United States","visitors in 2013 (in millions)":6.3,"id":"atmpqwtf9xqy","geo_precision":"zip","lat":40.779187},"type":"Feature","geometry":{"type":"Point","coordinates":[-83.1407457,40.2803389]}},{"properties":{"museum":"National Gallery, London","city":"London","lon":-0.128299,"geo_score":0.714,"country":"England","visitors in 2013 (in millions)":6.0,"id":"atmpqwmnkktt","geo_precision":"zip","lat":51.508929},"type":"Feature","geometry":{"type":"Point","coordinates":[-80.75,8.5833333]}},{"properties":{"museum":"Vatican Museums","city":"Vatican City","lon":12.453507,"geo_score":0.714,"country":"Vatican City","visitors in 2013 (in millions)":5.5,"id":"atmpqwjf2nvf","geo_precision":"zip","lat":41.906651},"type":"Feature","geometry":{"type":"Point","coordinates":[13.4333333,8.4833333]}},{"properties":{"museum":"Natural History Museum, London","city":"London","lon":-0.176367,"geo_score":0.714,"country":"England","visitors in 2013 (in millions)":5.3,"id":"atmpqwl3bbar","geo_precision":"zip","lat":51.496715},"type":"Feature","geometry":{"type":"Point","coordinates":[-80.75,8.5833333]}},{"properties":{"museum":"American Museum of Natural History","city":"New York City","lon":-73.973988,"geo_score":0.857,"country":"United States","visitors in 2013 (in millions)":5.0,"id":"atmpqwmdc9pe","geo_precision":"zip","lat":40.781324},"type":"Feature","geometry":{"type":"Point","coordinates":[-83.1407457,40.2803389]}},{"properties":{"museum":"National Museum of American History","city":"Washington DC","lon":-77.030051,"geo_score":0.857,"country":"United States","visitors in 2013 (in millions)":4.9,"id":"atmpqwhfy830","geo_precision":"zip","lat":38.891279},"type":"Feature","geometry":{"type":"Point","coordinates":[-88.5226141,44.018873]}},{"properties":{"museum":"Tate Modern, London","city":"London","lon":-0.099194,"geo_score":0.714,"country":"England","visitors in 2013 (in millions)":4.9,"id":"atmpqwo9el0r","geo_precision":"zip","lat":51.507721},"type":"Feature","geometry":{"type":"Point","coordinates":[-80.75,8.5833333]}},{"properties":{"museum":"National Palace Museum, Taiwan","city":"Taipei City","lon":121.548493,"geo_score":0.857,"country":"Taiwan","visitors in 2013 (in millions)":4.4,"id":"atmpqwst7bjg","geo_precision":"zip","lat":25.102355},"type":"Feature","geometry":{"type":"Point","coordinates":[121.0666667,24.7]}},{"properties":{"museum":"National Gallery of Art, Washington","city":"Washington DC","lon":-77.019965,"geo_score":0.857,"country":"United States","visitors in 2013 (in millions)":4.1,"id":"atmpqws6v347","geo_precision":"zip","lat":38.891298},"type":"Feature","geometry":{"type":"Point","coordinates":[-88.5226141,44.018873]}},{"properties":{"museum":"Centre Pompidou","city":"Paris","lon":2.352245,"geo_score":0.857,"country":"France","visitors in 2013 (in millions)":3.7,"id":"atmpqwp0cndc","geo_precision":"zip","lat":48.860642},"type":"Feature","geometry":{"type":"Point","coordinates":[4.9333333,47.1]}},{"properties":{"museum":"Shanghai Science &amp; Technology Museum","city":"Shanghai","lon":121.537993,"geo_score":0.857,"country":"China","visitors in 2013 (in millions)":3.6,"id":"atmpqwggbdat","geo_precision":"zip","lat":31.222065},"type":"Feature","geometry":{"type":"Point","coordinates":[120.4277778,28.7658333]}},{"properties":{"museum":"Musee d’Orsay","city":"Paris","lon":2.326561,"geo_score":0.857,"country":"France","visitors in 2013 (in millions)":3.5,"id":"atmpqwhmozhy","geo_precision":"zip","lat":48.859961},"type":"Feature","geometry":{"type":"Point","coordinates":[4.9333333,47.1]}},{"properties":{"museum":"National Museum of Natural Science, Taiwan","city":"Taichung City","lon":120.666135,"geo_score":0.857,"country":"Taiwan","visitors in 2013 (in millions)":3.4,"id":"atmpqwp6mloa","geo_precision":"zip","lat":24.157246},"type":"Feature","geometry":{"type":"Point","coordinates":[121.0347222,24.9077778]}},{"properties":{"museum":"Science Museum, London","city":"London","lon":-0.174523,"geo_score":0.714,"country":"England","visitors in 2013 (in millions)":3.3,"id":"atmpqwf1z4tb","geo_precision":"zip","lat":51.49781},"type":"Feature","geometry":{"type":"Point","coordinates":[-80.75,8.5833333]}},{"properties":{"museum":"Victoria and Albert Museum","city":"London","lon":-0.17218,"geo_score":0.714,"country":"England","visitors in 2013 (in millions)":3.2,"id":"atmpqwk42e18","geo_precision":"zip","lat":51.496639},"type":"Feature","geometry":{"type":"Point","coordinates":[-80.75,8.5833333]}}],"url_type":null,"author":{"metadata":"","url":"","contact_name":"","contact_address":"","contact_phone":"","source":""},"source":"","stream_id":500503,"tags":"","contributor":{"url":"http://geocommons.com/users/111977","name":"kmarken"},"id":500503,"data_attributes":null,"calculation_params":[{"calculation":"filter","input":{"max":9.3,"min":3.2,"atr":"visitors in 2013 (in millions)"}}]}