{"type":"FeatureCollection","data_type":"Dataset","url_type":null,"permissions":[{"permissions":{"download":true,"view":true},"group_id":"everyone"}],"classification":null,"title":"Gab Cic","count":1702,"stream_id":5191,"contributor":{"url":"http://geocommons.com/users/1738","name":"charles.kieny"},"data_attributes":null,"calculation_params":null,"icon_link":null,"link":"http://geocommons.com/overlays/5191.json","extent":[0.02457,42.4858,7.96317,51.0785],"geometry_types":["point"],"unique_name":null,"name":"Gab Cic","feature_count":1702,"description":"liste des gab du cic","next_feature":null,"is_raster":false,"short_classification":"Y","stats":{"lon":{"max":7.96317,"mean":3.37248984723855,"variance":4.44547382735613,"stdev":2.1084292322381,"min":0.02457,"median":2.87674},"lat":{"max":51.07851,"mean":47.4393706345475,"variance":4.62405682338526,"stdev":2.1503620214711,"min":42.48582,"median":48.0159}},"features":[{"properties":{"lon":0.02457,"nom":"61 ARGENTAN (17 RUE DE LA CHAUSSEE)","id":"a67fy06hlhd7","lat":48.74188},"type":"Feature","geometry":{"type":"Point","coordinates":[0.02457,48.74188]}},{"properties":{"lon":0.03563,"nom":"14 ST PIERRE SUR DIVES (1 RUE DE FALAISE)","id":"a67fy076x1lz","lat":49.01576},"type":"Feature","geometry":{"type":"Point","coordinates":[0.03563,49.01576]}},{"properties":{"lon":0.05976,"nom":"65 TARBES (57 BOULEVARD JEAN MOULIN)","id":"a67fy06oiqra","lat":43.22178},"type":"Feature","geometry":{"type":"Point","coordinates":[0.05976,43.22178]}},{"properties":{"lon":0.07222,"nom":"14 DEAUVILLE (87 RUE EUGENE COLAS)","id":"a67fy05iql4o","lat":49.3594},"type":"Feature","geometry":{"type":"Point","coordinates":[0.07222,49.3594]}},{"properties":{"lon":0.07496,"nom":"65 TARBES (6 T RUE MARECHAL FOCH)","id":"a67fy04tfqvf","lat":43.23221},"type":"Feature","geometry":{"type":"Point","coordinates":[0.07496,43.23221]}},{"properties":{"lon":0.07499,"nom":"72 LA FLECHE (7 PLACE HENRI IV)","id":"a67fy08g1u1i","lat":47.69951},"type":"Feature","geometry":{"type":"Point","coordinates":[0.07499,47.69951]}},{"properties":{"lon":0.07891,"nom":"49 SAUMUR (35 RUE D ORLEANS)","id":"a67fy04r38ki","lat":47.25934},"type":"Feature","geometry":{"type":"Point","coordinates":[0.07891,47.25934]}},{"properties":{"lon":0.08217,"nom":"14 TROUVILLE SUR MER (148 BOULEVARD FERNAND MOUREAUX)","id":"a67fy04l2dwc","lat":49.36495},"type":"Feature","geometry":{"type":"Point","coordinates":[0.08217,49.36495]}},{"properties":{"lon":0.08352,"nom":"86 LOUDUN (1 RUE DES MARCHANDS)","id":"a67fy0frgoqz","lat":47.00834},"type":"Feature","geometry":{"type":"Point","coordinates":[0.08352,47.00834]}},{"properties":{"lon":0.08805,"nom":"61 ALENCON (61 RUE DU PONT NEUF)","id":"a67fy0c9f4x8","lat":48.42933},"type":"Feature","geometry":{"type":"Point","coordinates":[0.08805,48.42933]}},{"properties":{"lon":0.08889,"nom":"61 ALENCON (58 COURS GEORGES CLEMENCEAU)","id":"a67fy0c8adnq","lat":48.43145},"type":"Feature","geometry":{"type":"Point","coordinates":[0.08889,48.43145]}},{"properties":{"lon":0.10085,"nom":"76 LE HAVRE (3 RUE IRENE JOLIOT CURIE)","id":"a67fy0bwjlq5","lat":49.50582},"type":"Feature","geometry":{"type":"Point","coordinates":[0.10085,49.50582]}},{"properties":{"lon":0.10513,"nom":"76 LE HAVRE (30 R BERNARDIN DE SAINT PIERRE)","id":"a67fy0c3kr3o","lat":49.49014},"type":"Feature","geometry":{"type":"Point","coordinates":[0.10513,49.49014]}},{"properties":{"lon":0.11005,"nom":"76 LE HAVRE (79 BOULEVARD DE STRASBOURG)","id":"a67fy0hofvgz","lat":49.49331},"type":"Feature","geometry":{"type":"Point","coordinates":[0.11005,49.49331]}},{"properties":{"lon":0.11111,"nom":"76 LE HAVRE (38 RUE ANDRE CAPLET)","id":"a67fy0abjz6y","lat":49.49665},"type":"Feature","geometry":{"type":"Point","coordinates":[0.11111,49.49665]}},{"properties":{"lon":0.11639,"nom":"14 CABOURG (69 AVENUE DE LA MER)","id":"a67fy08esxsx","lat":49.28869},"type":"Feature","geometry":{"type":"Point","coordinates":[0.11639,49.28869]}},{"properties":{"lon":0.1211,"nom":"14 CABOURG (PROMENADE MARCEL PROUST)","id":"a67fy0g60rxn","lat":49.29302},"type":"Feature","geometry":{"type":"Point","coordinates":[0.1211,49.29302]}},{"properties":{"lon":0.1288,"nom":"72 SILLE LE GUILLAUME (34 PLACE SAINT ETIENNE)","id":"a67fy0i83up2","lat":48.1841},"type":"Feature","geometry":{"type":"Point","coordinates":[0.1288,48.1841]}},{"properties":{"lon":0.14316,"nom":"76 LE HAVRE (4 PLACE DE LA LIBERTE)","id":"a67fy0h7b1m7","lat":49.50652},"type":"Feature","geometry":{"type":"Point","coordinates":[0.14316,49.50652]}},{"properties":{"lon":0.15685,"nom":"16 ANGOULEME (11 B RUE DU CHAT)","id":"a67fy06vttgf","lat":45.65003},"type":"Feature","geometry":{"type":"Point","coordinates":[0.15685,45.65003]}},{"properties":{"lon":0.15688,"nom":"72 LE LUDE (1 PLACE DE L HOTEL DE VILLE)","id":"a67fy0ghgfw5","lat":47.64646},"type":"Feature","geometry":{"type":"Point","coordinates":[0.15688,47.64646]}},{"properties":{"lon":0.1584,"nom":"16 ANGOULEME (10 PLACE MARENGO)","id":"a67fy0a8lnhd","lat":45.64874},"type":"Feature","geometry":{"type":"Point","coordinates":[0.1584,45.64874]}},{"properties":{"lon":0.15932,"nom":"24 MONTPON MENESTEROL (2 PLACE AURELIEN BRUGERE)","id":"a67fy0it6zo6","lat":45.0094},"type":"Feature","geometry":{"type":"Point","coordinates":[0.15932,45.0094]}},{"properties":{"lon":0.16059,"nom":"72 ALLONNES (PLACE DU MAIL)","id":"a67fy08eqs3x","lat":47.9694},"type":"Feature","geometry":{"type":"Point","coordinates":[0.16059,47.9694]}},{"properties":{"lon":0.16103,"nom":"72 LE MANS (1 RUE CHARLES FABRY)","id":"a67fy05bmnvx","lat":48.02112},"type":"Feature","geometry":{"type":"Point","coordinates":[0.16103,48.02112]}},{"properties":{"lon":0.16656,"nom":"47 MARMANDE (9 PLACE GEORGES CLEMENCEAU)","id":"a67fy04r4ele","lat":44.49888},"type":"Feature","geometry":{"type":"Point","coordinates":[0.16656,44.49888]}},{"properties":{"lon":0.16897,"nom":"37 BOURGUEIL (11 RUE PASTEUR)","id":"a67fy0ei99x4","lat":47.28091},"type":"Feature","geometry":{"type":"Point","coordinates":[0.16897,47.28091]}},{"properties":{"lon":0.17178,"nom":"61 SEES (60 RUE DE LA REPUBLIQUE)","id":"a67fy08j8hkv","lat":48.60379},"type":"Feature","geometry":{"type":"Point","coordinates":[0.17178,48.60379]}},{"properties":{"lon":0.17425,"nom":"16 ANGOULEME (17 PLACE VICTOR HUGO)","id":"a67fy0hivxp9","lat":45.64877},"type":"Feature","geometry":{"type":"Point","coordinates":[0.17425,45.64877]}},{"properties":{"lon":0.18376,"nom":"72 LE MANS (237 AVENUE DE LA LIBERATION)","id":"a67fy07e39sh","lat":48.00093},"type":"Feature","geometry":{"type":"Point","coordinates":[0.18376,48.00093]}},{"properties":{"lon":0.18633,"nom":"14 PONT L EVEQUE (PLACE HENRI FEQUET)","id":"a67fy07vp6g1","lat":49.28641},"type":"Feature","geometry":{"type":"Point","coordinates":[0.18633,49.28641]}},{"properties":{"lon":0.18966,"nom":"76 HARFLEUR (15 PLACE GUY DE MAUPASSANT)","id":"a67fy08xudkr","lat":49.50874},"type":"Feature","geometry":{"type":"Point","coordinates":[0.18966,49.50874]}},{"properties":{"lon":0.1925,"nom":"76 MONTIVILLIERS (1 RUE LEON GAMBETTA)","id":"a67fy06h9x1c","lat":49.54335},"type":"Feature","geometry":{"type":"Point","coordinates":[0.1925,49.54335]}},{"properties":{"lon":0.19574,"nom":"72 LE MANS (35 T AVENUE DU GENERAL LECLERC)","id":"a67fy09ixass","lat":47.99903},"type":"Feature","geometry":{"type":"Point","coordinates":[0.19574,47.99903]}},{"properties":{"lon":0.19722,"nom":"61 VIMOUTIERS (16 RUE MARIE HAREL)","id":"a67fy0gk8mgu","lat":48.92802},"type":"Feature","geometry":{"type":"Point","coordinates":[0.19722,48.92802]}},{"properties":{"lon":0.19873,"nom":"76 HARFLEUR (10 PLACE VICTOR HUGO)","id":"a67fy03qcxcg","lat":49.50625},"type":"Feature","geometry":{"type":"Point","coordinates":[0.19873,49.50625]}},{"properties":{"lon":0.19873,"nom":"76 HARFLEUR (10 PLACE VICTOR HUGO)","id":"a67fy06irekj","lat":49.50625},"type":"Feature","geometry":{"type":"Point","coordinates":[0.19873,49.50625]}},{"properties":{"lon":0.20368,"nom":"76 ETRETAT (18 RUE DES DOCTEURS FIDELIN)","id":"a67fy07gnmy8","lat":49.70738},"type":"Feature","geometry":{"type":"Point","coordinates":[0.20368,49.70738]}},{"properties":{"lon":0.20368,"nom":"76 ETRETAT (18 RUE DES DOCTEURS FIDELIN)","id":"a67fy0belvdb","lat":49.70738},"type":"Feature","geometry":{"type":"Point","coordinates":[0.20368,49.70738]}},{"properties":{"lon":0.21152,"nom":"72 LE MANS (29 AVENUE GEORGES DURAND)","id":"a67fy0je5xj6","lat":47.9818},"type":"Feature","geometry":{"type":"Point","coordinates":[0.21152,47.9818]}},{"properties":{"lon":0.2128,"nom":"72 LE MANS (161 RUE DES MAILLETS)","id":"a67fy0gj4813","lat":48.01542},"type":"Feature","geometry":{"type":"Point","coordinates":[0.2128,48.01542]}},{"properties":{"lon":0.21611,"nom":"79 THOUARS (47 RUE PORTE DE PARIS)","id":"a67fy0gmw1ek","lat":46.97824},"type":"Feature","geometry":{"type":"Point","coordinates":[0.21611,46.97824]}},{"properties":{"lon":0.22404,"nom":"14 LISIEUX (85 RUE HENRY CHERON)","id":"a67fy0ik3uz9","lat":49.14529},"type":"Feature","geometry":{"type":"Point","coordinates":[0.22404,49.14529]}},{"properties":{"lon":0.23347,"nom":"76 GONFREVILLE L ORCHER (HYPERMARCHE LECLERC)","id":"a67fy0e5tizk","lat":49.50338},"type":"Feature","geometry":{"type":"Point","coordinates":[0.23347,49.50338]}},{"properties":{"lon":0.23531,"nom":"14 HONFLEUR (11 QUAI LEPAULMIER)","id":"a67fy09v67ah","lat":49.41842},"type":"Feature","geometry":{"type":"Point","coordinates":[0.23531,49.41842]}},{"properties":{"lon":0.24004,"nom":"37 CHINON (13 PL DU GENERAL DE GAULLE)","id":"a67fy0d3ylvf","lat":47.16647},"type":"Feature","geometry":{"type":"Point","coordinates":[0.24004,47.16647]}},{"properties":{"lon":0.24064,"nom":"33 LIBOURNE (31 PLACE DECAZES)","id":"a67fy055o4ks","lat":44.91734},"type":"Feature","geometry":{"type":"Point","coordinates":[0.24064,44.91734]}},{"properties":{"lon":0.24532,"nom":"86 NEUVILLE DE POITOU (6 PLACE JOFFRE)","id":"a67fy095zgpd","lat":46.68537},"type":"Feature","geometry":{"type":"Point","coordinates":[0.24532,46.68537]}},{"properties":{"lon":0.24922,"nom":"33 LANGON (3 PLACE DU GENERAL DE GAULLE)","id":"a67fy0c2eh59","lat":44.55667},"type":"Feature","geometry":{"type":"Point","coordinates":[0.24922,44.55667]}},{"properties":{"lon":0.25991,"nom":"14 OUISTREHAM (1 AVENUE DU GENERAL LECLERC)","id":"a67fy0iuyc1z","lat":49.28388},"type":"Feature","geometry":{"type":"Point","coordinates":[0.25991,49.28388]}},{"properties":{"lon":0.26179,"nom":"40 AIRE SUR L ADOUR (PLACE DU GENERAL DE GAULLE)","id":"a67fy0gb080s","lat":43.70228},"type":"Feature","geometry":{"type":"Point","coordinates":[0.26179,43.70228]}},{"properties":{"lon":0.27462,"nom":"16 VILLEBOIS LAVALETTE (ZAC DE SIGALAUD)","id":"a67fy0crr4it","lat":45.49239},"type":"Feature","geometry":{"type":"Point","coordinates":[0.27462,45.49239]}},{"properties":{"lon":0.27595,"nom":"49 DOUE LA FONTAINE (9 PLACE DU CHAMP DE FOIRE)","id":"a67fy0f03s9t","lat":47.19222},"type":"Feature","geometry":{"type":"Point","coordinates":[0.27595,47.19222]}},{"properties":{"lon":0.28869,"nom":"49 DOUE LA FONTAINE (31 BOULEVARD DU DOCTEUR LIONET)","id":"a67fy0alkzr2","lat":47.18838},"type":"Feature","geometry":{"type":"Point","coordinates":[0.28869,47.18838]}},{"properties":{"lon":0.30601,"nom":"86 POITIERS (256 AVENUE DU 8 MAI 1945)","id":"a67fy08v2j2h","lat":46.55377},"type":"Feature","geometry":{"type":"Point","coordinates":[0.30601,46.55377]}},{"properties":{"lon":0.32265,"nom":"65 ST LARY SOULAN (27 RUE VINCENT MIR)","id":"a67fy0ba734x","lat":42.81704},"type":"Feature","geometry":{"type":"Point","coordinates":[0.32265,42.81704]}},{"properties":{"lon":0.32593,"nom":"16 COGNAC (36 BD DENFERT ROCHEREAU)","id":"a67fy09g5p85","lat":45.6952},"type":"Feature","geometry":{"type":"Point","coordinates":[0.32593,45.6952]}},{"properties":{"lon":0.32858,"nom":"14 HEROUVILLE ST CLAIR (QUARTIER DU VAL)","id":"a67fy089c86s","lat":49.20376},"type":"Feature","geometry":{"type":"Point","coordinates":[0.32858,49.20376]}},{"properties":{"lon":0.33521,"nom":"72 SABLE SUR SARTHE (12 RUE CARNOT)","id":"a67fy0ciq9kj","lat":47.84122},"type":"Feature","geometry":{"type":"Point","coordinates":[0.33521,47.84122]}},{"properties":{"lon":0.33625,"nom":"64 PAU (8 AVENUE DU GENERAL LECLERC)","id":"a67fy0ftutgt","lat":43.30588},"type":"Feature","geometry":{"type":"Point","coordinates":[0.33625,43.30588]}},{"properties":{"lon":0.34024,"nom":"86 POITIERS (18 PLACE DU MARECHAL LECLERC)","id":"a67fy0je0150","lat":46.57997},"type":"Feature","geometry":{"type":"Point","coordinates":[0.34024,46.57997]}},{"properties":{"lon":0.35083,"nom":"14 IFS (42 AVENUE JEAN VILAR)","id":"a67fy0axk8z3","lat":49.1502},"type":"Feature","geometry":{"type":"Point","coordinates":[0.35083,49.1502]}},{"properties":{"lon":0.35397,"nom":"14 CAEN (20 RUE DE FALAISE)","id":"a67fy07qtjcq","lat":49.17364},"type":"Feature","geometry":{"type":"Point","coordinates":[0.35397,49.17364]}},{"properties":{"lon":0.35717,"nom":"76 ST ROMAIN DE COLBOSC (19 RUE DE L HOTEL DE VILLE)","id":"a67fy0e9n0q1","lat":49.52976},"type":"Feature","geometry":{"type":"Point","coordinates":[0.35717,49.52976]}},{"properties":{"lon":0.35765,"nom":"61 LA FERTE MACE (21 PLACE DU GENERAL LECLERC)","id":"a67fy075qnix","lat":48.58977},"type":"Feature","geometry":{"type":"Point","coordinates":[0.35765,48.58977]}},{"properties":{"lon":0.35841,"nom":"86 POITIERS (19 AVENUE ROBERT SCHUMAN)","id":"a67fy03o0jjx","lat":46.58966},"type":"Feature","geometry":{"type":"Point","coordinates":[0.35841,46.58966]}},{"properties":{"lon":0.359,"nom":"14 CAEN (59 RUE SAINT JEAN)","id":"a67fy04xyt4h","lat":49.18167},"type":"Feature","geometry":{"type":"Point","coordinates":[0.359,49.18167]}},{"properties":{"lon":0.3596,"nom":"14 CAEN (28 BOULEVARD DES ALLIES)","id":"a67fy0449t32","lat":49.18387},"type":"Feature","geometry":{"type":"Point","coordinates":[0.3596,49.18387]}},{"properties":{"lon":0.35992,"nom":"64 PAU (72 AVENUE LOUIS SALLENAVE)","id":"a67fy0igcx0h","lat":43.31838},"type":"Feature","geometry":{"type":"Point","coordinates":[0.35992,43.31838]}},{"properties":{"lon":0.36389,"nom":"14 CAEN (66 RUE SAINT PIERRE)","id":"a67fy0dtv5fk","lat":49.18317},"type":"Feature","geometry":{"type":"Point","coordinates":[0.36389,49.18317]}},{"properties":{"lon":0.36441,"nom":"14 CAEN (1 BOULEVARD MARECHAL JUIN)","id":"a67fy08x3wi8","lat":49.21077},"type":"Feature","geometry":{"type":"Point","coordinates":[0.36441,49.21077]}},{"properties":{"lon":0.36589,"nom":"86 POITIERS (AVENUE DU 11 NOVEMBRE)","id":"a67fy0cy31z8","lat":46.56737},"type":"Feature","geometry":{"type":"Point","coordinates":[0.36589,46.56737]}},{"properties":{"lon":0.36748,"nom":"72 MAMERS (15 PLACE DE LA REPUBLIQUE)","id":"a67fy0cx84x4","lat":48.349},"type":"Feature","geometry":{"type":"Point","coordinates":[0.36748,48.349]}},{"properties":{"lon":0.36898,"nom":"64 PAU (6 PLACE GEORGES CLEMENCEAU)","id":"a67fy0h9dkwd","lat":43.29563},"type":"Feature","geometry":{"type":"Point","coordinates":[0.36898,43.29563]}},{"properties":{"lon":0.3703,"nom":"86 FUTUROSCOPE (2 BD DES FRERES LUMIERE)","id":"a67fy0jq5ok4","lat":46.67136},"type":"Feature","geometry":{"type":"Point","coordinates":[0.3703,46.67136]}},{"properties":{"lon":0.37067,"nom":"76 GODERVILLE (10 RUE EMILE BENARD)","id":"a67fy0a4efi7","lat":49.64486},"type":"Feature","geometry":{"type":"Point","coordinates":[0.37067,49.64486]}},{"properties":{"lon":0.37155,"nom":"76 FECAMP (27 QUAI BERIGNY)","id":"a67fy0affgu1","lat":49.75953},"type":"Feature","geometry":{"type":"Point","coordinates":[0.37155,49.75953]}},{"properties":{"lon":0.37155,"nom":"76 FECAMP (27 QUAI BERIGNY)","id":"a67fy09br6b0","lat":49.75953},"type":"Feature","geometry":{"type":"Point","coordinates":[0.37155,49.75953]}},{"properties":{"lon":0.37328,"nom":"14 DOUVRES LA DELIVRANDE (68 RUE DU GENERAL DE GAULLE)","id":"a67fy0gzvk87","lat":49.29812},"type":"Feature","geometry":{"type":"Point","coordinates":[0.37328,49.29812]}},{"properties":{"lon":0.3762,"nom":"64 PAU (15 AVENUE JEAN MERMOZ)","id":"a67fy0gj23ss","lat":43.30673},"type":"Feature","geometry":{"type":"Point","coordinates":[0.3762,43.30673]}},{"properties":{"lon":0.37727,"nom":"76 FECAMP (23 RUE ALEXANDRE LEGROS)","id":"a67fy0ey1fb5","lat":49.75626},"type":"Feature","geometry":{"type":"Point","coordinates":[0.37727,49.75626]}},{"properties":{"lon":0.38505,"nom":"65 LANNEMEZAN (15 RUE MARECHAL JUIN)","id":"a67fy0bpm8lq","lat":43.12378},"type":"Feature","geometry":{"type":"Point","coordinates":[0.38505,43.12378]}},{"properties":{"lon":0.39208,"nom":"14 CAEN (6 RUE ALFRED KASTLER)","id":"a67fy0fv9ik2","lat":49.20208},"type":"Feature","geometry":{"type":"Point","coordinates":[0.39208,49.20208]}},{"properties":{"lon":0.39239,"nom":"14 CAEN (38 AVENUE HENRY CHERON)","id":"a67fy07qb7me","lat":49.17348},"type":"Feature","geometry":{"type":"Point","coordinates":[0.39239,49.17348]}},{"properties":{"lon":0.40193,"nom":"64 BILLERE (86 ROUTE DE BAYONNE)","id":"a67fy072linr","lat":43.30533},"type":"Feature","geometry":{"type":"Point","coordinates":[0.40193,43.30533]}},{"properties":{"lon":0.40302,"nom":"14 CAEN (4 RUE DE L EGLISE)","id":"a67fy0dr3fu9","lat":49.18708},"type":"Feature","geometry":{"type":"Point","coordinates":[0.40302,49.18708]}},{"properties":{"lon":0.4066,"nom":"14 ORBEC (59 RUE GRANDE)","id":"a67fy0dxjdt0","lat":49.02221},"type":"Feature","geometry":{"type":"Point","coordinates":[0.4066,49.02221]}},{"properties":{"lon":0.41878,"nom":"72 CHATEAU DU LOIR (4 RUE DE L HOTEL DE VILLE)","id":"a67fy0ct91n2","lat":47.69539},"type":"Feature","geometry":{"type":"Point","coordinates":[0.41878,47.69539]}},{"properties":{"lon":0.42567,"nom":"17 JONZAC (ZAC VAL DE SEUGNE)","id":"a67fy0iagaxr","lat":45.43961},"type":"Feature","geometry":{"type":"Point","coordinates":[0.42567,45.43961]}},{"properties":{"lon":0.42753,"nom":"33 ST LOUBES (74 AVENUE DE LA REPUBLIQUE)","id":"a67fy08nxk6g","lat":44.91707},"type":"Feature","geometry":{"type":"Point","coordinates":[0.42753,44.91707]}},{"properties":{"lon":0.44349,"nom":"33 ST ANDRE DE CUBZAC (4 ALLEE DU CHAMP DE FOIRE)","id":"a67fy0gzm55k","lat":44.99513},"type":"Feature","geometry":{"type":"Point","coordinates":[0.44349,44.99513]}},{"properties":{"lon":0.45787,"nom":"79 NIORT (1 AV MARTYRS RESISTANCE)","id":"a67fy0946jdx","lat":46.32402},"type":"Feature","geometry":{"type":"Point","coordinates":[0.45787,46.32402]}},{"properties":{"lon":0.46176,"nom":"79 NIORT (44 RUE VICTOR HUGO)","id":"a67fy09afpoz","lat":46.32445},"type":"Feature","geometry":{"type":"Point","coordinates":[0.46176,46.32445]}},{"properties":{"lon":0.46573,"nom":"79 NIORT (22 PLACE SAINT JEAN)","id":"a67fy05ewanu","lat":46.32098},"type":"Feature","geometry":{"type":"Point","coordinates":[0.46573,46.32098]}},{"properties":{"lon":0.47278,"nom":"76 BOLBEC (64 RUE DE LA REPUBLIQUE)","id":"a67fy0isa6ss","lat":49.57244},"type":"Feature","geometry":{"type":"Point","coordinates":[0.47278,49.57244]}},{"properties":{"lon":0.48366,"nom":"24 BERGERAC (3 RUE DE LA RESISTANCE)","id":"a67fy06lamdq","lat":44.85325},"type":"Feature","geometry":{"type":"Point","coordinates":[0.48366,44.85325]}},{"properties":{"lon":0.49199,"nom":"79 BRESSUIRE (15 PLACE NOTRE DAME)","id":"a67fy06srj0i","lat":46.84146},"type":"Feature","geometry":{"type":"Point","coordinates":[0.49199,46.84146]}},{"properties":{"lon":0.50117,"nom":"40 MONT DE MARSAN (44 RUE LEON GAMBETTA)","id":"a67fy05f7rfb","lat":43.88973},"type":"Feature","geometry":{"type":"Point","coordinates":[0.50117,43.88973]}},{"properties":{"lon":0.5104,"nom":"33 CENON (38 AVENUE HUBERT DUBEDOUT)","id":"a67fy09mq9r3","lat":44.84703},"type":"Feature","geometry":{"type":"Point","coordinates":[0.5104,44.84703]}},{"properties":{"lon":0.51383,"nom":"27 PONT AUDEMER (9 PLACE VICTOR HUGO)","id":"a67fy0f2fhnw","lat":49.35462},"type":"Feature","geometry":{"type":"Point","coordinates":[0.51383,49.35462]}},{"properties":{"lon":0.52653,"nom":"49 ANGERS (16 PLACE DES JUSTICES)","id":"a67fy09v6h8c","lat":47.45265},"type":"Feature","geometry":{"type":"Point","coordinates":[0.52653,47.45265]}},{"properties":{"lon":0.52714,"nom":"61 ST LANGIS LES MORTAGNE (ROUTE D ALENCON)","id":"a67fy09cmxn0","lat":48.52941},"type":"Feature","geometry":{"type":"Point","coordinates":[0.52714,48.52941]}},{"properties":{"lon":0.52772,"nom":"33 LA BREDE (15 PLACE SAINT JEAN D ETAMPES)","id":"a67fy0gybhkc","lat":44.68147},"type":"Feature","geometry":{"type":"Point","coordinates":[0.52772,44.68147]}},{"properties":{"lon":0.53328,"nom":"76 LILLEBONNE (8 PLACE DU GENERAL DE GAULLE)","id":"a67fy05zo13k","lat":49.51906},"type":"Feature","geometry":{"type":"Point","coordinates":[0.53328,49.51906]}},{"properties":{"lon":0.54183,"nom":"49 ANGERS (30 BD ST MICHEL)","id":"a67fy0bc6lkr","lat":47.47347},"type":"Feature","geometry":{"type":"Point","coordinates":[0.54183,47.47347]}},{"properties":{"lon":0.54574,"nom":"86 CHATELLERAULT (32 BOULEVARD BLOSSAC)","id":"a67fy09d5uyx","lat":46.81596},"type":"Feature","geometry":{"type":"Point","coordinates":[0.54574,46.81596]}},{"properties":{"lon":0.54863,"nom":"49 ANGERS (53 BOULEVARD JOSEPH BEDIER)","id":"a67fy0gcy02s","lat":47.45114},"type":"Feature","geometry":{"type":"Point","coordinates":[0.54863,47.45114]}},{"properties":{"lon":0.54993,"nom":"49 ANGERS (34 RUE BRESSIGNY)","id":"a67fy06yojyt","lat":47.46737},"type":"Feature","geometry":{"type":"Point","coordinates":[0.54993,47.46737]}},{"properties":{"lon":0.5506,"nom":"14 CONDE SUR NOIREAU (26 RUE DU VIEUX CHATEAU)","id":"a67fy0c2leld","lat":48.84957},"type":"Feature","geometry":{"type":"Point","coordinates":[0.5506,48.84957]}},{"properties":{"lon":0.55114,"nom":"49 ANGERS (32-34 BOULEVARD AYRAULT)","id":"a67fy04pdhjr","lat":47.47633},"type":"Feature","geometry":{"type":"Point","coordinates":[0.55114,47.47633]}},{"properties":{"lon":0.55179,"nom":"49 ANGERS (4 RUE FRANKLIN ROOSEVELT)","id":"a67fy0950cnp","lat":47.4702},"type":"Feature","geometry":{"type":"Point","coordinates":[0.55179,47.4702]}},{"properties":{"lon":0.5595,"nom":"33 BORDEAUX (9 PLACE STALINGRAD)","id":"a67fy0cbld7b","lat":44.84013},"type":"Feature","geometry":{"type":"Point","coordinates":[0.5595,44.84013]}},{"properties":{"lon":0.56082,"nom":"33 BORDEAUX (201 COURS DE LA MARNE)","id":"a67fy0efi2x4","lat":44.8282},"type":"Feature","geometry":{"type":"Point","coordinates":[0.56082,44.8282]}},{"properties":{"lon":0.56155,"nom":"53 MESLAY DU MAINE (85 ROUTE DE LAVAL)","id":"a67fy0fswpo7","lat":47.95445},"type":"Feature","geometry":{"type":"Point","coordinates":[0.56155,47.95445]}},{"properties":{"lon":0.5623,"nom":"33 BEGLES (102 COURS VICTOR HUGO)","id":"a67fy04fp93y","lat":44.80947},"type":"Feature","geometry":{"type":"Point","coordinates":[0.5623,44.80947]}},{"properties":{"lon":0.56506,"nom":"49 ANGERS (17 PLACE DU DOCTEUR BICHON)","id":"a67fy0ed3tyb","lat":47.47848},"type":"Feature","geometry":{"type":"Point","coordinates":[0.56506,47.47848]}},{"properties":{"lon":0.56648,"nom":"33 VILLENAVE D ORNON (548 ROUTE DE TOULOUSE)","id":"a67fy048zs1u","lat":44.78775},"type":"Feature","geometry":{"type":"Point","coordinates":[0.56648,44.78775]}},{"properties":{"lon":0.56673,"nom":"33 BORDEAUX (AV JEAN GABRIEL DOMERGUE)","id":"a67fy0fpsfbm","lat":44.88941},"type":"Feature","geometry":{"type":"Point","coordinates":[0.56673,44.88941]}},{"properties":{"lon":0.56673,"nom":"33 BORDEAUX (AV JEAN GABRIEL DOMERGUE)","id":"a67fy09l3j7c","lat":44.88941},"type":"Feature","geometry":{"type":"Point","coordinates":[0.56673,44.88941]}},{"properties":{"lon":0.56673,"nom":"33 BORDEAUX (AV JEAN GABRIEL DOMERGUE)","id":"a67fy0ca5zgw","lat":44.88941},"type":"Feature","geometry":{"type":"Point","coordinates":[0.56673,44.88941]}},{"properties":{"lon":0.56673,"nom":"33 BORDEAUX (AV JEAN GABRIEL DOMERGUE)","id":"a67fy0a39ztk","lat":44.88941},"type":"Feature","geometry":{"type":"Point","coordinates":[0.56673,44.88941]}},{"properties":{"lon":0.56935,"nom":"61 FLERS (8 RUE DE LA BOULE)","id":"a67fy0g6u4e6","lat":48.74924},"type":"Feature","geometry":{"type":"Point","coordinates":[0.56935,48.74924]}},{"properties":{"lon":0.57014,"nom":"33 BORDEAUX (20 QUAI DES CHARTRONS)","id":"a67fy0h2aqy0","lat":44.84974},"type":"Feature","geometry":{"type":"Point","coordinates":[0.57014,44.84974]}},{"properties":{"lon":0.57217,"nom":"33 BORDEAUX (61 COURS PORTAL)","id":"a67fy06b1tkc","lat":44.85443},"type":"Feature","geometry":{"type":"Point","coordinates":[0.57217,44.85443]}},{"properties":{"lon":0.57241,"nom":"33 BORDEAUX (264 COURS DE LA SOMME)","id":"a67fy0jsp6ku","lat":44.82058},"type":"Feature","geometry":{"type":"Point","coordinates":[0.57241,44.82058]}},{"properties":{"lon":0.57287,"nom":"33 BORDEAUX (42 COURS DU CHAPEAU ROUGE)","id":"a67fy0clfkxz","lat":44.84241},"type":"Feature","geometry":{"type":"Point","coordinates":[0.57287,44.84241]}},{"properties":{"lon":0.57338,"nom":"33 BORDEAUX (15 PLACE DE LA VICTOIRE)","id":"a67fy09i11uq","lat":44.83064},"type":"Feature","geometry":{"type":"Point","coordinates":[0.57338,44.83064]}},{"properties":{"lon":0.57499,"nom":"72 LA CHARTRE SUR LE LOIR (2 PLACE DE LA REPUBLIQUE)","id":"a67fy0jvyf3e","lat":47.72783},"type":"Feature","geometry":{"type":"Point","coordinates":[0.57499,47.72783]}},{"properties":{"lon":0.57614,"nom":"33 BORDEAUX (LES HANGARS DES QUAIS)","id":"a67fy0jicuph","lat":44.83737},"type":"Feature","geometry":{"type":"Point","coordinates":[0.57614,44.83737]}},{"properties":{"lon":0.57669,"nom":"33 BORDEAUX (36 COURS DE VERDUN)","id":"a67fy0iy0fss","lat":44.84708},"type":"Feature","geometry":{"type":"Point","coordinates":[0.57669,44.84708]}},{"properties":{"lon":0.57811,"nom":"33 BORDEAUX (21 PLACE PEY BERLAND)","id":"a67fy070kft7","lat":44.83808},"type":"Feature","geometry":{"type":"Point","coordinates":[0.57811,44.83808]}},{"properties":{"lon":0.57849,"nom":"33 BORDEAUX (16 RUE MARECHAL JOFFRE)","id":"a67fy0cexu07","lat":44.83567},"type":"Feature","geometry":{"type":"Point","coordinates":[0.57849,44.83567]}},{"properties":{"lon":0.57937,"nom":"33 LE BOUSCAT (138 AVENUE MARCELIN BERTHELOT)","id":"a67fy04ng5qu","lat":44.86484},"type":"Feature","geometry":{"type":"Point","coordinates":[0.57937,44.86484]}},{"properties":{"lon":0.58,"nom":"33 BORDEAUX (21 PLACE GAMBETTA)","id":"a67fy088usri","lat":44.84064},"type":"Feature","geometry":{"type":"Point","coordinates":[0.58,44.84064]}},{"properties":{"lon":0.5854,"nom":"49 AVRILLE (38 AVENUE PIERRE MENDES FRANCE)","id":"a67fy04rvneo","lat":47.50256},"type":"Feature","geometry":{"type":"Point","coordinates":[0.5854,47.50256]}},{"properties":{"lon":0.58921,"nom":"33 BORDEAUX (232 RUE DE PESSAC)","id":"a67fy0etpf7b","lat":44.82538},"type":"Feature","geometry":{"type":"Point","coordinates":[0.58921,44.82538]}},{"properties":{"lon":0.58972,"nom":"79 COULONGES SUR L AUTIZE (RUE DE NIORT)","id":"a67fy07rh4ti","lat":46.47796},"type":"Feature","geometry":{"type":"Point","coordinates":[0.58972,46.47796]}},{"properties":{"lon":0.59309,"nom":"76 FAUVILLE EN CAUX (734 RUE CHARLES DE GAULLE)","id":"a67fy0hy08se","lat":49.65203},"type":"Feature","geometry":{"type":"Point","coordinates":[0.59309,49.65203]}},{"properties":{"lon":0.59406,"nom":"49 ANGERS (RUE DU GRAND LAUNAY)","id":"a67fy0f473ug","lat":47.46665},"type":"Feature","geometry":{"type":"Point","coordinates":[0.59406,47.46665]}},{"properties":{"lon":0.59412,"nom":"33 LE BOUSCAT (16 AVENUE DE LA LIBERATION)","id":"a67fy0irrqyg","lat":44.85425},"type":"Feature","geometry":{"type":"Point","coordinates":[0.59412,44.85425]}},{"properties":{"lon":0.59501,"nom":"33 TALENCE (316 COURS DE LA LIBERATION)","id":"a67fy0awyw4k","lat":44.80097},"type":"Feature","geometry":{"type":"Point","coordinates":[0.59501,44.80097]}},{"properties":{"lon":0.59662,"nom":"27 BERNAY (24 RUE THIERS)","id":"a67fy0hkjdnb","lat":49.08988},"type":"Feature","geometry":{"type":"Point","coordinates":[0.59662,49.08988]}},{"properties":{"lon":0.60056,"nom":"33 LEOGNAN (9 COURS DU MARECHAL LECLERC)","id":"a67fy07ik42i","lat":44.73033},"type":"Feature","geometry":{"type":"Point","coordinates":[0.60056,44.73033]}},{"properties":{"lon":0.61262,"nom":"64 OLORON STE MARIE (10 AVENUE DE LA GARE)","id":"a67fy04j07k8","lat":43.19295},"type":"Feature","geometry":{"type":"Point","coordinates":[0.61262,43.19295]}},{"properties":{"lon":0.61332,"nom":"33 MERIGNAC (167 RUE EMILE COMBES)","id":"a67fy0cyoixw","lat":44.83176},"type":"Feature","geometry":{"type":"Point","coordinates":[0.61332,44.83176]}},{"properties":{"lon":0.61405,"nom":"33 BORDEAUX (3 RUE DE L EGLISE)","id":"a67fy0cv8cr0","lat":44.85094},"type":"Feature","geometry":{"type":"Point","coordinates":[0.61405,44.85094]}},{"properties":{"lon":0.61414,"nom":"33 GRADIGNAN (132 COURS DU GENERAL DE GAULLE)","id":"a67fy043hqco","lat":44.77299},"type":"Feature","geometry":{"type":"Point","coordinates":[0.61414,44.77299]}},{"properties":{"lon":0.62024,"nom":"53 MAYENNE (24 PLACE GEORGES CLEMENCEAU)","id":"a67fy0ed6408","lat":48.30309},"type":"Feature","geometry":{"type":"Point","coordinates":[0.62024,48.30309]}},{"properties":{"lon":0.6208,"nom":"47 AGEN (90 BOULEVARD DE LA REPUBLIQUE)","id":"a67fy03m36nh","lat":44.20536},"type":"Feature","geometry":{"type":"Point","coordinates":[0.6208,44.20536]}},{"properties":{"lon":0.62769,"nom":"61 L AIGLE (16 PLACE SAINT MARTIN)","id":"a67fy03j3e0e","lat":48.76479},"type":"Feature","geometry":{"type":"Point","coordinates":[0.62769,48.76479]}},{"properties":{"lon":0.63144,"nom":"17 SAINTES (17 COURS NATIONAL)","id":"a67fy05jf0iz","lat":45.74713},"type":"Feature","geometry":{"type":"Point","coordinates":[0.63144,45.74713]}},{"properties":{"lon":0.63232,"nom":"33 PESSAC (15 AVENUE PASTEUR)","id":"a67fy09dr1me","lat":44.806},"type":"Feature","geometry":{"type":"Point","coordinates":[0.63232,44.806]}},{"properties":{"lon":0.63575,"nom":"76 CANY BARVILLE (92 RUE DU GENERAL DE GAULLE)","id":"a67fy0c53c4d","lat":49.78726},"type":"Feature","geometry":{"type":"Point","coordinates":[0.63575,49.78726]}},{"properties":{"lon":0.63808,"nom":"33 BLANQUEFORT (3 AVENUE DU GENERAL DE GAULLE)","id":"a67fy0bet5r6","lat":44.90979},"type":"Feature","geometry":{"type":"Point","coordinates":[0.63808,44.90979]}},{"properties":{"lon":0.63941,"nom":"33 EYSINES (76 AVENUE DU MEDOC)","id":"a67fy0ahgpah","lat":44.88617},"type":"Feature","geometry":{"type":"Point","coordinates":[0.63941,44.88617]}},{"properties":{"lon":0.64456,"nom":"61 DOMFRONT (13 RUE DU MARECHAL FOCH)","id":"a67fy0hjpnk4","lat":48.59164},"type":"Feature","geometry":{"type":"Point","coordinates":[0.64456,48.59164]}},{"properties":{"lon":0.6475,"nom":"33 MERIGNAC (5 PLACE CHARLES DE GAULLE)","id":"a67fy06xqvjz","lat":44.84268},"type":"Feature","geometry":{"type":"Point","coordinates":[0.6475,44.84268]}},{"properties":{"lon":0.65355,"nom":"72 LA FERTE BERNARD (19 RUE DENFERT ROCHEREAU)","id":"a67fy04891sn","lat":48.1869},"type":"Feature","geometry":{"type":"Point","coordinates":[0.65355,48.1869]}},{"properties":{"lon":0.66132,"nom":"33 BLAYE (31 T COURS DE LA REPUBLIQUE)","id":"a67fy0bhf9o2","lat":45.12987},"type":"Feature","geometry":{"type":"Point","coordinates":[0.66132,45.12987]}},{"properties":{"lon":0.66274,"nom":"37 JOUE LES TOURS (13 RUE GAMARD)","id":"a67fy0fw8gw3","lat":47.35028},"type":"Feature","geometry":{"type":"Point","coordinates":[0.66274,47.35028]}},{"properties":{"lon":0.66542,"nom":"47 BOE (1664 AV DU DOCTEUR JEAN NOGUES)","id":"a67fy0hr0cio","lat":44.18465},"type":"Feature","geometry":{"type":"Point","coordinates":[0.66542,44.18465]}},{"properties":{"lon":0.66739,"nom":"33 PESSAC (25 AVENUE DU GENERAL LECLERC)","id":"a67fy0ixbcwe","lat":44.79587},"type":"Feature","geometry":{"type":"Point","coordinates":[0.66739,44.79587]}},{"properties":{"lon":0.66971,"nom":"79 CERIZAY (1 PLACE ST PIERRE)","id":"a67fy092u1jm","lat":46.82148},"type":"Feature","geometry":{"type":"Point","coordinates":[0.66971,46.82148]}},{"properties":{"lon":0.67045,"nom":"37 ST CYR SUR LOIRE (119 BOULEVARD CHARLES DE GAULLE)","id":"a67fy08ice1f","lat":47.41408},"type":"Feature","geometry":{"type":"Point","coordinates":[0.67045,47.41408]}},{"properties":{"lon":0.67703,"nom":"37 TOURS (110 RUE GIRAUDEAU)","id":"a67fy0g7kuz5","lat":47.38328},"type":"Feature","geometry":{"type":"Point","coordinates":[0.67703,47.38328]}},{"properties":{"lon":0.68138,"nom":"37 TOURS (PLACE GASTON PAILLHOU)","id":"a67fy099eewp","lat":47.3916},"type":"Feature","geometry":{"type":"Point","coordinates":[0.68138,47.3916]}},{"properties":{"lon":0.68177,"nom":"37 TOURS (7 PLACE PLUMEREAU)","id":"a67fy07rl9c1","lat":47.39453},"type":"Feature","geometry":{"type":"Point","coordinates":[0.68177,47.39453]}},{"properties":{"lon":0.68202,"nom":"37 TOURS (2 RUE DU CHANGE)","id":"a67fy0cl6q12","lat":47.39416},"type":"Feature","geometry":{"type":"Point","coordinates":[0.68202,47.39416]}},{"properties":{"lon":0.68486,"nom":"37 TOURS (1 AVENUE DE LA REPUBLIQUE)","id":"a67fy0f40zae","lat":47.41196},"type":"Feature","geometry":{"type":"Point","coordinates":[0.68486,47.41196]}},{"properties":{"lon":0.6852,"nom":"33 CESTAS (22 PLACE DU SOUVENIR)","id":"a67fy0iaujz1","lat":44.74233},"type":"Feature","geometry":{"type":"Point","coordinates":[0.6852,44.74233]}},{"properties":{"lon":0.68711,"nom":"37 TOURS (14 BOULEVARD BERANGER)","id":"a67fy0b0stgd","lat":47.38983},"type":"Feature","geometry":{"type":"Point","coordinates":[0.68711,47.38983]}},{"properties":{"lon":0.69467,"nom":"37 TOURS (201 AVENUE GRAMMONT)","id":"a67fy05v84ac","lat":47.37598},"type":"Feature","geometry":{"type":"Point","coordinates":[0.69467,47.37598]}},{"properties":{"lon":0.69571,"nom":"37 TOURS (34 RUE EDOUARD VAILLANT)","id":"a67fy08bj2wo","lat":47.38909},"type":"Feature","geometry":{"type":"Point","coordinates":[0.69571,47.38909]}},{"properties":{"lon":0.70671,"nom":"14 BAYEUX (68 RUE SAINT MALO)","id":"a67fy0bgrloz","lat":49.27844},"type":"Feature","geometry":{"type":"Point","coordinates":[0.70671,49.27844]}},{"properties":{"lon":0.70722,"nom":"53 CHATEAU GONTIER (26 PLACE PAUL DOUMER)","id":"a67fy0528jhp","lat":47.82705},"type":"Feature","geometry":{"type":"Point","coordinates":[0.70722,47.82705]}},{"properties":{"lon":0.70803,"nom":"47 VILLENEUVE SUR LOT (6 BOULEVARD BERNARD PALISSY)","id":"a67fy0f9bb81","lat":44.40798},"type":"Feature","geometry":{"type":"Point","coordinates":[0.70803,44.40798]}},{"properties":{"lon":0.7127,"nom":"76 ST VALERY EN CAUX (2 PLACE DU MARCHE)","id":"a67fy0iurq2v","lat":49.86837},"type":"Feature","geometry":{"type":"Point","coordinates":[0.7127,49.86837]}},{"properties":{"lon":0.71624,"nom":"76 ST VALERY EN CAUX (LIEU DIT LE PERREY)","id":"a67fy0dhbisc","lat":49.86964},"type":"Feature","geometry":{"type":"Point","coordinates":[0.71624,49.86964]}},{"properties":{"lon":0.7171,"nom":"33 ST MEDARD EN JALLES (5 AVENUE DE MONTESQUIEU)","id":"a67fy0a0q2ta","lat":44.89554},"type":"Feature","geometry":{"type":"Point","coordinates":[0.7171,44.89554]}},{"properties":{"lon":0.71948,"nom":"27 BRIONNE (15 RUE DU MARECHAL FOCH)","id":"a67fy0dgc58h","lat":49.19562},"type":"Feature","geometry":{"type":"Point","coordinates":[0.71948,49.19562]}},{"properties":{"lon":0.71962,"nom":"24 PERIGUEUX (1 RUE GAMBETTA)","id":"a67fy0gdljhb","lat":45.18543},"type":"Feature","geometry":{"type":"Point","coordinates":[0.71962,45.18543]}},{"properties":{"lon":0.72449,"nom":"31 ST GAUDENS (21 RUE MATHE)","id":"a67fy052x66l","lat":43.10919},"type":"Feature","geometry":{"type":"Point","coordinates":[0.72449,43.10919]}},{"properties":{"lon":0.72688,"nom":"37 ST AVERTIN (3 AVENUE DU GENERAL DE GAULLE)","id":"a67fy0cqskv2","lat":47.35617},"type":"Feature","geometry":{"type":"Point","coordinates":[0.72688,47.35617]}},{"properties":{"lon":0.72924,"nom":"49 CHEMILLE (172 RUE NATIONALE)","id":"a67fy0jbtg72","lat":47.21565},"type":"Feature","geometry":{"type":"Point","coordinates":[0.72924,47.21565]}},{"properties":{"lon":0.73116,"nom":"61 TINCHEBRAY (56 GRANDE RUE)","id":"a67fy0645mkm","lat":48.76417},"type":"Feature","geometry":{"type":"Point","coordinates":[0.73116,48.76417]}},{"properties":{"lon":0.73507,"nom":"37 ST AVERTIN (1044 AVENUE DU GENERAL DE GAULLE)","id":"a67fy06sq7bu","lat":47.35752},"type":"Feature","geometry":{"type":"Point","coordinates":[0.73507,47.35752]}},{"properties":{"lon":0.74748,"nom":"33 PAUILLAC (2 RUE ARISTIDE BRIAND)","id":"a67fy09mlzuq","lat":45.19891},"type":"Feature","geometry":{"type":"Point","coordinates":[0.74748,45.19891]}},{"properties":{"lon":0.74942,"nom":"17 SURGERES (16 AVENUE DE LA LIBERATION)","id":"a67fy07zsxsz","lat":46.1057},"type":"Feature","geometry":{"type":"Point","coordinates":[0.74942,46.1057]}},{"properties":{"lon":0.75421,"nom":"76 YVETOT (9 RUE DU CHATEAU)","id":"a67fy0i0zuds","lat":49.61729},"type":"Feature","geometry":{"type":"Point","coordinates":[0.75421,49.61729]}},{"properties":{"lon":0.75509,"nom":"14 PORT EN BESSIN HUPPAIN (14 QUAI FELIX FAURE)","id":"a67fy0c7slf8","lat":49.34768},"type":"Feature","geometry":{"type":"Point","coordinates":[0.75509,49.34768]}},{"properties":{"lon":0.76544,"nom":"53 LAVAL (1 AVENUE ROBERT BURON)","id":"a67fy03iyzov","lat":48.07114},"type":"Feature","geometry":{"type":"Point","coordinates":[0.76544,48.07114]}},{"properties":{"lon":0.77212,"nom":"53 LAVAL (14 RUE DE STRASBOURG)","id":"a67fy0iwexru","lat":48.07147},"type":"Feature","geometry":{"type":"Point","coordinates":[0.77212,48.07147]}},{"properties":{"lon":0.77774,"nom":"27 BEAUMONT LE ROGER (13 PLACE DE CLERCQ)","id":"a67fy09b1hop","lat":49.08135},"type":"Feature","geometry":{"type":"Point","coordinates":[0.77774,49.08135]}},{"properties":{"lon":0.7985,"nom":"28 NOGENT LE ROTROU (AVENUE KENNEDY)","id":"a67fy07n4ics","lat":48.32481},"type":"Feature","geometry":{"type":"Point","coordinates":[0.7985,48.32481]}},{"properties":{"lon":0.80636,"nom":"85 FONTENAY LE COMTE (1RUE GEORGES CLEMENCEAU BP129)","id":"a67fy0i8ovg5","lat":46.46628},"type":"Feature","geometry":{"type":"Point","coordinates":[0.80636,46.46628]}},{"properties":{"lon":0.82134,"nom":"28 NOGENT LE ROTROU (112 RUE SAINT HILAIRE)","id":"a67fy07xt3yg","lat":48.32332},"type":"Feature","geometry":{"type":"Point","coordinates":[0.82134,48.32332]}},{"properties":{"lon":0.82334,"nom":"86 LA ROCHE POSAY (86 AVENUE GEORGES DELOFFRE)","id":"a67fy0hq4ea9","lat":46.78115},"type":"Feature","geometry":{"type":"Point","coordinates":[0.82334,46.78115]}},{"properties":{"lon":0.82724,"nom":"37 MONTLOUIS SUR LOIRE (2 RUE DE LA REPUBLIQUE)","id":"a67fy0d9srm2","lat":47.388},"type":"Feature","geometry":{"type":"Point","coordinates":[0.82724,47.388]}},{"properties":{"lon":0.83676,"nom":"85 POUZAUGES (7 PLACE DE L EGLISE)","id":"a67fy0gs4kxk","lat":46.78326},"type":"Feature","geometry":{"type":"Point","coordinates":[0.83676,46.78326]}},{"properties":{"lon":0.84944,"nom":"33 MARCHEPRIME (3 AVENUE D AQUITAINE)","id":"a67fy0chj3ro","lat":44.69512},"type":"Feature","geometry":{"type":"Point","coordinates":[0.84944,44.69512]}},{"properties":{"lon":0.87075,"nom":"49 CHOLET (6 RUE MAISONNEUVE)","id":"a67fy0fundcv","lat":47.05024},"type":"Feature","geometry":{"type":"Point","coordinates":[0.87075,47.05024]}},{"properties":{"lon":0.871,"nom":"49 CHOLET (13-15 RUE SADI CARNOT)","id":"a67fy0imus9q","lat":47.06106},"type":"Feature","geometry":{"type":"Point","coordinates":[0.871,47.06106]}},{"properties":{"lon":0.87236,"nom":"14 LE MOLAY LITTRY (4 ROUTE DE BALLEROY)","id":"a67fy046qhgb","lat":49.23925},"type":"Feature","geometry":{"type":"Point","coordinates":[0.87236,49.23925]}},{"properties":{"lon":0.87402,"nom":"27 BOURGTHEROULDE INFREVILLE (75 GRANDE RUE)","id":"a67fy03imjvp","lat":49.29863},"type":"Feature","geometry":{"type":"Point","coordinates":[0.87402,49.29863]}},{"properties":{"lon":0.87936,"nom":"49 CHOLET (65 PLACE TRAVOT)","id":"a67fy08vkb4e","lat":47.06136},"type":"Feature","geometry":{"type":"Point","coordinates":[0.87936,47.06136]}},{"properties":{"lon":0.88535,"nom":"49 CHOLET (8 AVENUE DE LA MARNE)","id":"a67fy07pwded","lat":47.05126},"type":"Feature","geometry":{"type":"Point","coordinates":[0.88535,47.05126]}},{"properties":{"lon":0.88921,"nom":"14 VIRE (3 RUE AIGNAUX)","id":"a67fy0fwepi8","lat":48.8396},"type":"Feature","geometry":{"type":"Point","coordinates":[0.88921,48.8396]}},{"properties":{"lon":0.90326,"nom":"27 LE NEUBOURG (41 RUE DUPONT DE L EURE)","id":"a67fy04ps4kn","lat":49.14898},"type":"Feature","geometry":{"type":"Point","coordinates":[0.90326,49.14898]}},{"properties":{"lon":0.91168,"nom":"76 LUNERAY (PLACE RENE COTY)","id":"a67fy0h8z1t6","lat":49.82855},"type":"Feature","geometry":{"type":"Point","coordinates":[0.91168,49.82855]}},{"properties":{"lon":0.91417,"nom":"27 BRETEUIL SUR ITON (82 PLACE LAFFITTE)","id":"a67fy0c6yl2f","lat":48.83604},"type":"Feature","geometry":{"type":"Point","coordinates":[0.91417,48.83604]}},{"properties":{"lon":0.92547,"nom":"17 SAUJON (30 RUE CARNOT)","id":"a67fy0861ke3","lat":45.67391},"type":"Feature","geometry":{"type":"Point","coordinates":[0.92547,45.67391]}},{"properties":{"lon":0.92861,"nom":"27 VERNEUIL SUR AVRE (24 RUE GEORGES CLEMENCEAU)","id":"a67fy0d6yuri","lat":48.73972},"type":"Feature","geometry":{"type":"Point","coordinates":[0.92861,48.73972]}},{"properties":{"lon":0.94093,"nom":"33 LESPARRE MEDOC (13 PLACE GAMBETTA)","id":"a67fy0jkwf5o","lat":45.30747},"type":"Feature","geometry":{"type":"Point","coordinates":[0.94093,45.30747]}},{"properties":{"lon":0.94138,"nom":"27 CONCHES EN OUCHE (29 PLACE CARNOT)","id":"a67fy07li2m2","lat":48.96375},"type":"Feature","geometry":{"type":"Point","coordinates":[0.94138,48.96375]}},{"properties":{"lon":0.95349,"nom":"76 BARENTIN (4 RUE DU GENERAL GIRAUD)","id":"a67fy06unxl1","lat":49.54559},"type":"Feature","geometry":{"type":"Point","coordinates":[0.95349,49.54559]}},{"properties":{"lon":0.95839,"nom":"31 SALIES DU SALAT (16 AVENUE DE LA PAIX)","id":"a67fy0asgljz","lat":43.10283},"type":"Feature","geometry":{"type":"Point","coordinates":[0.95839,43.10283]}},{"properties":{"lon":0.96333,"nom":"31 SALIES DU SALAT (AVENUE DE TOULOUSE)","id":"a67fy0ema39v","lat":43.11028},"type":"Feature","geometry":{"type":"Point","coordinates":[0.96333,43.11028]}},{"properties":{"lon":0.96796,"nom":"17 ROCHEFORT (40 AVENUE LAFAYETTE)","id":"a67fy0917709","lat":45.93895},"type":"Feature","geometry":{"type":"Point","coordinates":[0.96796,45.93895]}},{"properties":{"lon":0.97308,"nom":"37 AMBOISE (3 QUAI DU GENERAL DE GAULLE)","id":"a67fy06fiv6x","lat":47.41001},"type":"Feature","geometry":{"type":"Point","coordinates":[0.97308,47.41001]}},{"properties":{"lon":0.98969,"nom":"49 BEAUPREAU (5 RUE DU MARECHAL FOCH)","id":"a67fy05sf4s5","lat":47.20186},"type":"Feature","geometry":{"type":"Point","coordinates":[0.98969,47.20186]}},{"properties":{"lon":1.0068,"nom":"76 ELBEUF (4 PLACE ARISTIDE BRIAND)","id":"a67fy063yvt4","lat":49.29147},"type":"Feature","geometry":{"type":"Point","coordinates":[1.0068,49.29147]}},{"properties":{"lon":1.00854,"nom":"76 GRAND COURONNE (57 RUE GEORGES CLEMENCEAU)","id":"a67fy0gknx38","lat":49.35763},"type":"Feature","geometry":{"type":"Point","coordinates":[1.00854,49.35763]}},{"properties":{"lon":1.01433,"nom":"85 LES HERBIERS (13 RUE DE L EGLISE)","id":"a67fy0d55gvt","lat":46.87107},"type":"Feature","geometry":{"type":"Point","coordinates":[1.01433,46.87107]}},{"properties":{"lon":1.0292,"nom":"17 ROYAN (6 BD ARISTIDE BRIAND)","id":"a67fy070evco","lat":45.62502},"type":"Feature","geometry":{"type":"Point","coordinates":[1.0292,45.62502]}},{"properties":{"lon":1.03714,"nom":"49 CANDE (3 PLACE DES HALLES)","id":"a67fy0ed673e","lat":47.56012},"type":"Feature","geometry":{"type":"Point","coordinates":[1.03714,47.56012]}},{"properties":{"lon":1.04369,"nom":"76 DEVILLE LES ROUEN (28 RUE DE LA REPUBLIQUE)","id":"a67fy07ivam3","lat":49.47012},"type":"Feature","geometry":{"type":"Point","coordinates":[1.04369,49.47012]}},{"properties":{"lon":1.04468,"nom":"49 MONTREVAULT (15 PLACE DE LA POSTE)","id":"a67fy03jb9nv","lat":47.26358},"type":"Feature","geometry":{"type":"Point","coordinates":[1.04468,47.26358]}},{"properties":{"lon":1.04511,"nom":"14 GRANDCAMP MAISY (5 RUE ARISTIDE BRIAND)","id":"a67fy0fj9riv","lat":49.3878},"type":"Feature","geometry":{"type":"Point","coordinates":[1.04511,49.3878]}},{"properties":{"lon":1.04835,"nom":"76 OFFRANVILLE (GRAND PLACE)","id":"a67fy04vfxlf","lat":49.87181},"type":"Feature","geometry":{"type":"Point","coordinates":[1.04835,49.87181]}},{"properties":{"lon":1.04852,"nom":"76 NOTRE DAME DE BONDEVILLE (45 ROUTE DE DIEPPE)","id":"a67fy0hbkshx","lat":49.48657},"type":"Feature","geometry":{"type":"Point","coordinates":[1.04852,49.48657]}},{"properties":{"lon":1.05027,"nom":"76 LE GRAND QUEVILLY (150 AVENUE DES PROVINCES)","id":"a67fy07581c7","lat":49.40749},"type":"Feature","geometry":{"type":"Point","coordinates":[1.05027,49.40749]}},{"properties":{"lon":1.05027,"nom":"76 LE GRAND QUEVILLY (150 AVENUE DES PROVINCES)","id":"a67fy0a5cay3","lat":49.40749},"type":"Feature","geometry":{"type":"Point","coordinates":[1.05027,49.40749]}},{"properties":{"lon":1.05027,"nom":"76 LE GRAND QUEVILLY (150 AVENUE DES PROVINCES)","id":"a67fy09lrbw5","lat":49.40749},"type":"Feature","geometry":{"type":"Point","coordinates":[1.05027,49.40749]}},{"properties":{"lon":1.05032,"nom":"85 CHANTONNAY (12 PLACE DE L HOTEL DE VILLE)","id":"a67fy0jul398","lat":46.68684},"type":"Feature","geometry":{"type":"Point","coordinates":[1.05032,46.68684]}},{"properties":{"lon":1.0513,"nom":"40 ST PAUL LES DAX (23 AVENUE DE LA RESISTANCE)","id":"a67fy0fp9acr","lat":43.72382},"type":"Feature","geometry":{"type":"Point","coordinates":[1.0513,43.72382]}},{"properties":{"lon":1.05139,"nom":"76 LE GRAND QUEVILLY (RUE DU BOIS CANY)","id":"a67fy0542l07","lat":49.4178},"type":"Feature","geometry":{"type":"Point","coordinates":[1.05139,49.4178]}},{"properties":{"lon":1.05265,"nom":"17 ROYAN (2 ESPLANADE DE PONTAILLAC)","id":"a67fy0gxp0yg","lat":45.62741},"type":"Feature","geometry":{"type":"Point","coordinates":[1.05265,45.62741]}},{"properties":{"lon":1.05742,"nom":"40 DAX (2 AV EUGENE MILLIES LACROIX)","id":"a67fy0hqojei","lat":43.71071},"type":"Feature","geometry":{"type":"Point","coordinates":[1.05742,43.71071]}},{"properties":{"lon":1.06605,"nom":"41 VENDOME (1 RUE GUESNAULT)","id":"a67fy0igt9tf","lat":47.79113},"type":"Feature","geometry":{"type":"Point","coordinates":[1.06605,47.79113]}},{"properties":{"lon":1.07133,"nom":"41 VENDOME (IMPASSE DE LA PIERRE LEVEE)","id":"a67fy0bzjg32","lat":47.78255},"type":"Feature","geometry":{"type":"Point","coordinates":[1.07133,47.78255]}},{"properties":{"lon":1.07823,"nom":"76 DIEPPE (14 PLACE NATIONALE)","id":"a67fy0al2tfj","lat":49.9267},"type":"Feature","geometry":{"type":"Point","coordinates":[1.07823,49.9267]}},{"properties":{"lon":1.0788,"nom":"76 ROUEN (40 AVENUE PASTEUR)","id":"a67fy0iqzb0v","lat":49.44404},"type":"Feature","geometry":{"type":"Point","coordinates":[1.0788,49.44404]}},{"properties":{"lon":1.08057,"nom":"76 MONT ST AIGNAN (CTRE CIAL DES COQUETS)","id":"a67fy0dk85un","lat":49.46214},"type":"Feature","geometry":{"type":"Point","coordinates":[1.08057,49.46214]}},{"properties":{"lon":1.08364,"nom":"50 ST LO (1 RUE DU NEUFBOURG)","id":"a67fy0dlys8r","lat":49.11558},"type":"Feature","geometry":{"type":"Point","coordinates":[1.08364,49.11558]}},{"properties":{"lon":1.08508,"nom":"31 CAZERES (1 RUE DE LA CASE)","id":"a67fy0cpxybz","lat":43.20719},"type":"Feature","geometry":{"type":"Point","coordinates":[1.08508,43.20719]}},{"properties":{"lon":1.0853,"nom":"82 MOISSAC (12 PLACE DES RECOLLETS)","id":"a67fy07o9rb9","lat":44.10344},"type":"Feature","geometry":{"type":"Point","coordinates":[1.0853,44.10344]}},{"properties":{"lon":1.08631,"nom":"76 ROUEN (RUE DU VIEUX PALAIS)","id":"a67fy0bnjxqm","lat":49.44178},"type":"Feature","geometry":{"type":"Point","coordinates":[1.08631,49.44178]}},{"properties":{"lon":1.08802,"nom":"76 ROUEN (23 PLACE DU VIEUX MARCHE)","id":"a67fy050xylw","lat":49.44276},"type":"Feature","geometry":{"type":"Point","coordinates":[1.08802,49.44276]}},{"properties":{"lon":1.0889,"nom":"76 ROUEN (46 RUE SAINT SEVER)","id":"a67fy07bexw8","lat":49.43393},"type":"Feature","geometry":{"type":"Point","coordinates":[1.0889,49.43393]}},{"properties":{"lon":1.08964,"nom":"17 CHATELAILLON PLAGE (42 BOULEVARD DE LA LIBERATION)","id":"a67fy0e8qn2v","lat":46.07298},"type":"Feature","geometry":{"type":"Point","coordinates":[1.08964,46.07298]}},{"properties":{"lon":1.09096,"nom":"76 SOTTEVILLE LES ROUEN (5 PLACE DE L HOTEL DE VILLE)","id":"a67fy0hxhitq","lat":49.41549},"type":"Feature","geometry":{"type":"Point","coordinates":[1.09096,49.41549]}},{"properties":{"lon":1.09177,"nom":"17 CHATELAILLON PLAGE (96 BOULEVARD DE LA REPUBLIQUE)","id":"a67fy06s5yod","lat":46.07663},"type":"Feature","geometry":{"type":"Point","coordinates":[1.09177,46.07663]}},{"properties":{"lon":1.09198,"nom":"76 ROUEN (4 PLACE JACQUES LELIEUR)","id":"a67fy0h44smq","lat":49.43987},"type":"Feature","geometry":{"type":"Point","coordinates":[1.09198,49.43987]}},{"properties":{"lon":1.09198,"nom":"76 ROUEN (4 PLACE JACQUES LELIEUR)","id":"a67fy0d27gut","lat":49.43987},"type":"Feature","geometry":{"type":"Point","coordinates":[1.09198,49.43987]}},{"properties":{"lon":1.09198,"nom":"76 ROUEN (4 PLACE JACQUES LELIEUR)","id":"a67fy0fm0rr2","lat":49.43987},"type":"Feature","geometry":{"type":"Point","coordinates":[1.09198,49.43987]}},{"properties":{"lon":1.09203,"nom":"50 ST HILAIRE DU HARCOUET (1 RUE DU BASSIN)","id":"a67fy09jar2d","lat":48.57771},"type":"Feature","geometry":{"type":"Point","coordinates":[1.09203,48.57771]}},{"properties":{"lon":1.09585,"nom":"76 BOIS GUILLAUME (RUE DU CHAMP DES OISEAUX)","id":"a67fy08l9sa0","lat":49.45637},"type":"Feature","geometry":{"type":"Point","coordinates":[1.09585,49.45637]}},{"properties":{"lon":1.09762,"nom":"76 MONT ST AIGNAN (RUE DE LA VATINE)","id":"a67fy073656n","lat":49.46988},"type":"Feature","geometry":{"type":"Point","coordinates":[1.09762,49.46988]}},{"properties":{"lon":1.09785,"nom":"76 OISSEL (28 RUE DU MARECHAL FOCH)","id":"a67fy07yonmd","lat":49.34168},"type":"Feature","geometry":{"type":"Point","coordinates":[1.09785,49.34168]}},{"properties":{"lon":1.09857,"nom":"33 ANDERNOS LES BAINS (149 BOULEVARD DE LA REPUBLIQUE)","id":"a67fy09qv62t","lat":44.74212},"type":"Feature","geometry":{"type":"Point","coordinates":[1.09857,44.74212]}},{"properties":{"lon":1.10097,"nom":"76 ROUEN (29 PLACE SAINT MARC)","id":"a67fy03i8lt5","lat":49.43914},"type":"Feature","geometry":{"type":"Point","coordinates":[1.10097,49.43914]}},{"properties":{"lon":1.10182,"nom":"14 ISIGNY SUR MER (13 PLACE DU GENERAL DE GAULLE)","id":"a67fy08f1zpm","lat":49.31809},"type":"Feature","geometry":{"type":"Point","coordinates":[1.10182,49.31809]}},{"properties":{"lon":1.1061,"nom":"76 BIHOREL (218 ROUTE DE NEUFCHATEL)","id":"a67fy0i8r1da","lat":49.45498},"type":"Feature","geometry":{"type":"Point","coordinates":[1.1061,49.45498]}},{"properties":{"lon":1.10763,"nom":"82 CASTELSARRASIN (10 PLACE DE LA LIBERTE)","id":"a67fy07dpez2","lat":44.03944},"type":"Feature","geometry":{"type":"Point","coordinates":[1.10763,44.03944]}},{"properties":{"lon":1.10813,"nom":"76 BOIS GUILLAUME (AVENUE DE L EUROPE)","id":"a67fy05dsmom","lat":49.47479},"type":"Feature","geometry":{"type":"Point","coordinates":[1.10813,49.47479]}},{"properties":{"lon":1.11707,"nom":"17 PUILBOREAU (CENTRE COMMERCIAL BEAULIEU)","id":"a67fy08ptmor","lat":46.17533},"type":"Feature","geometry":{"type":"Point","coordinates":[1.11707,46.17533]}},{"properties":{"lon":1.12649,"nom":"76 BONSECOURS (54 ROUTE DE PARIS)","id":"a67fy0abo9ar","lat":49.42187},"type":"Feature","geometry":{"type":"Point","coordinates":[1.12649,49.42187]}},{"properties":{"lon":1.14349,"nom":"76 LE MESNIL ESNARD (63 A ROUTE DE PARIS)","id":"a67fy0636kab","lat":49.40951},"type":"Feature","geometry":{"type":"Point","coordinates":[1.14349,49.40951]}},{"properties":{"lon":1.14525,"nom":"33 LA TESTE DE BUCH (PLACE JEAN HAMEAU)","id":"a67fy0e9zinw","lat":44.63284},"type":"Feature","geometry":{"type":"Point","coordinates":[1.14525,44.63284]}},{"properties":{"lon":1.14569,"nom":"09 ST GIRONS (3 RUE GAMBETTA)","id":"a67fy0j2mcdc","lat":42.98457},"type":"Feature","geometry":{"type":"Point","coordinates":[1.14569,42.98457]}},{"properties":{"lon":1.14904,"nom":"27 EVREUX (47 RUE DU DOCTEUR OURSEL)","id":"a67fy0iyzsku","lat":49.02692},"type":"Feature","geometry":{"type":"Point","coordinates":[1.14904,49.02692]}},{"properties":{"lon":1.15181,"nom":"27 EVREUX (6 R FRANKLIN DELANO ROOSEVELT)","id":"a67fy0fsftqr","lat":49.02211},"type":"Feature","geometry":{"type":"Point","coordinates":[1.15181,49.02211]}},{"properties":{"lon":1.15202,"nom":"17 LA ROCHELLE (42 QUAI DUPERRE)","id":"a67fy04x11t9","lat":46.15815},"type":"Feature","geometry":{"type":"Point","coordinates":[1.15202,46.15815]}},{"properties":{"lon":1.15303,"nom":"17 LA ROCHELLE (9 PLACE DE VERDUN)","id":"a67fy0j96spv","lat":46.16288},"type":"Feature","geometry":{"type":"Point","coordinates":[1.15303,46.16288]}},{"properties":{"lon":1.15357,"nom":"17 LA ROCHELLE (8 COURS DES DAMES)","id":"a67fy0cbhd37","lat":46.15796},"type":"Feature","geometry":{"type":"Point","coordinates":[1.15357,46.15796]}},{"properties":{"lon":1.16315,"nom":"17 LA ROCHELLE (15 ALLEES DU MAIL)","id":"a67fy0dbafkz","lat":46.15617},"type":"Feature","geometry":{"type":"Point","coordinates":[1.16315,46.15617]}},{"properties":{"lon":1.16471,"nom":"40 BISCARROSSE (101 AVENUE GEORGES CLEMENCEAU)","id":"a67fy0dx86rf","lat":44.39532},"type":"Feature","geometry":{"type":"Point","coordinates":[1.16471,44.39532]}},{"properties":{"lon":1.16511,"nom":"49 POUANCE (4 RUE GRAND PREE)","id":"a67fy0cnao1p","lat":47.74316},"type":"Feature","geometry":{"type":"Point","coordinates":[1.16511,47.74316]}},{"properties":{"lon":1.16544,"nom":"85 LUCON (25 PLACE DES ACACIAS)","id":"a67fy0jso3sa","lat":46.45488},"type":"Feature","geometry":{"type":"Point","coordinates":[1.16544,46.45488]}},{"properties":{"lon":1.16984,"nom":"33 ARCACHON (20 COURS LAMARQUE DE PLAISANCE)","id":"a67fy0c55j2m","lat":44.66106},"type":"Feature","geometry":{"type":"Point","coordinates":[1.16984,44.66106]}},{"properties":{"lon":1.17004,"nom":"27 LOUVIERS (46 RUE DU MARECHAL FOCH)","id":"a67fy0cioid2","lat":49.21234},"type":"Feature","geometry":{"type":"Point","coordinates":[1.17004,49.21234]}},{"properties":{"lon":1.17813,"nom":"44 ANCENIS (12 PLACE ALSACE LORRAINE)","id":"a67fy0ht4s3g","lat":47.36549},"type":"Feature","geometry":{"type":"Point","coordinates":[1.17813,47.36549]}},{"properties":{"lon":1.18473,"nom":"41 MONTRICHARD (PLACE DU GENERAL DE GAULLE)","id":"a67fy04hubf0","lat":47.34419},"type":"Feature","geometry":{"type":"Point","coordinates":[1.18473,47.34419]}},{"properties":{"lon":1.18527,"nom":"76 QUINCAMPOIX (310 PLACE DE LA MAIRIE)","id":"a67fy08ezy5i","lat":49.52308},"type":"Feature","geometry":{"type":"Point","coordinates":[1.18527,49.52308]}},{"properties":{"lon":1.19763,"nom":"17 LE CHATEAU D OLERON (9 RUE REYTRES FRERES)","id":"a67fy09r47ez","lat":45.88713},"type":"Feature","geometry":{"type":"Point","coordinates":[1.19763,45.88713]}},{"properties":{"lon":1.19846,"nom":"35 FOUGERES (29 BOULEVARD JEAN JAURES)","id":"a67fy0gttx8i","lat":48.35193},"type":"Feature","geometry":{"type":"Point","coordinates":[1.19846,48.35193]}},{"properties":{"lon":1.21097,"nom":"35 VITRE (1 RUE DE LA LIBERTE)","id":"a67fy0bh2jty","lat":48.12315},"type":"Feature","geometry":{"type":"Point","coordinates":[1.21097,48.12315]}},{"properties":{"lon":1.21569,"nom":"24 SARLAT LA CANEDA (2 RUE DE LA REPUBLIQUE)","id":"a67fy0f2z7ft","lat":44.88951},"type":"Feature","geometry":{"type":"Point","coordinates":[1.21569,44.88951]}},{"properties":{"lon":1.22189,"nom":"50 VILLEDIEU LES POELES (2 PLACE DE LA REPUBLIQUE)","id":"a67fy0h9rzhc","lat":48.83839},"type":"Feature","geometry":{"type":"Point","coordinates":[1.22189,48.83839]}},{"properties":{"lon":1.22922,"nom":"87 LIMOGES (149 BOULEVARD DE VANTEAUX)","id":"a67fy09qvygz","lat":45.82158},"type":"Feature","geometry":{"type":"Point","coordinates":[1.22922,45.82158]}},{"properties":{"lon":1.25017,"nom":"87 LIMOGES (41 PLACE DES CARMES)","id":"a67fy0b6bxjf","lat":45.83002},"type":"Feature","geometry":{"type":"Point","coordinates":[1.25017,45.83002]}},{"properties":{"lon":1.25534,"nom":"87 LIMOGES (28 RUE OTHON PECONNET)","id":"a67fy07m6hm9","lat":45.83013},"type":"Feature","geometry":{"type":"Point","coordinates":[1.25534,45.83013]}},{"properties":{"lon":1.25786,"nom":"87 LIMOGES (79 AVENUE GARIBALDI)","id":"a67fy0glqu4m","lat":45.83966},"type":"Feature","geometry":{"type":"Point","coordinates":[1.25786,45.83966]}},{"properties":{"lon":1.26042,"nom":"87 LIMOGES (14 RUE JEAN JAURES)","id":"a67fy0hdudk6","lat":45.82988},"type":"Feature","geometry":{"type":"Point","coordinates":[1.26042,45.82988]}},{"properties":{"lon":1.26581,"nom":"44 VALLET (16 PLACE CHARLES DE GAULLE)","id":"a67fy0idziue","lat":47.16107},"type":"Feature","geometry":{"type":"Point","coordinates":[1.26581,47.16107]}},{"properties":{"lon":1.27164,"nom":"87 LIMOGES (22 AV MAL D LATTRE DE TASSIGNY)","id":"a67fy0d6cis6","lat":45.82547},"type":"Feature","geometry":{"type":"Point","coordinates":[1.27164,45.82547]}},{"properties":{"lon":1.2832,"nom":"44 CLISSON (1 PLACE SAINT JACQUES)","id":"a67fy0j8z3m8","lat":47.08815},"type":"Feature","geometry":{"type":"Point","coordinates":[1.2832,47.08815]}},{"properties":{"lon":1.29282,"nom":"31 GRENADE (35 A RUE GAMBETTA)","id":"a67fy0fb62mz","lat":43.7725},"type":"Feature","geometry":{"type":"Point","coordinates":[1.29282,43.7725]}},{"properties":{"lon":1.3006,"nom":"41 VILLEBAROU (ROUTE DE VENDOME)","id":"a67fy0c6a8pk","lat":47.61732},"type":"Feature","geometry":{"type":"Point","coordinates":[1.3006,47.61732]}},{"properties":{"lon":1.30165,"nom":"24 TERRASSON LAVILLEDIEU (6 AVENUE VICTOR HUGO)","id":"a67fy0dmucsy","lat":45.12978},"type":"Feature","geometry":{"type":"Point","coordinates":[1.30165,45.12978]}},{"properties":{"lon":1.30637,"nom":"40 ST VINCENT DE TYROSSE (19 AVENUE NATIONALE)","id":"a67fy0f6gyz7","lat":43.66026},"type":"Feature","geometry":{"type":"Point","coordinates":[1.30637,43.66026]}},{"properties":{"lon":1.30728,"nom":"17 ST PIERRE D OLERON (13 PLACE GAMBETTA)","id":"a67fy03m7h4p","lat":45.94258},"type":"Feature","geometry":{"type":"Point","coordinates":[1.30728,45.94258]}},{"properties":{"lon":1.31194,"nom":"85 MONTAIGU (65 PLACE DU CHAMP DE FOIRE)","id":"a67fy03txwg0","lat":46.97803},"type":"Feature","geometry":{"type":"Point","coordinates":[1.31194,46.97803]}},{"properties":{"lon":1.31315,"nom":"41 BLOIS (23 AVENUE DU MARECHAL FOCH)","id":"a67fy06ljasl","lat":47.57946},"type":"Feature","geometry":{"type":"Point","coordinates":[1.31315,47.57946]}},{"properties":{"lon":1.32506,"nom":"31 MURET (11 B ALLEES NIEL)","id":"a67fy06qco3q","lat":43.46022},"type":"Feature","geometry":{"type":"Point","coordinates":[1.32506,43.46022]}},{"properties":{"lon":1.33038,"nom":"31 COLOMIERS (10 PLACE DU LANGUEDOC)","id":"a67fy08nefl8","lat":43.61081},"type":"Feature","geometry":{"type":"Point","coordinates":[1.33038,43.61081]}},{"properties":{"lon":1.33062,"nom":"41 BLOIS (5 RUE GALLOIS)","id":"a67fy074qpqw","lat":47.58834},"type":"Feature","geometry":{"type":"Point","coordinates":[1.33062,47.58834]}},{"properties":{"lon":1.33075,"nom":"28 CHATEAUDUN (19 RUE DE LA REPUBLIQUE)","id":"a67fy090cqpm","lat":48.07034},"type":"Feature","geometry":{"type":"Point","coordinates":[1.33075,48.07034]}},{"properties":{"lon":1.33154,"nom":"17 STE MARIE DE RE (COURS DES ECOLES)","id":"a67fy0iwmncw","lat":46.15622},"type":"Feature","geometry":{"type":"Point","coordinates":[1.33154,46.15622]}},{"properties":{"lon":1.33282,"nom":"27 GAILLON (23 RUE GENERAL DE GAULLE)","id":"a67fy0gl3tsk","lat":49.16033},"type":"Feature","geometry":{"type":"Point","coordinates":[1.33282,49.16033]}},{"properties":{"lon":1.33346,"nom":"40 SOUSTONS (2 ROUTE DE TOSSE)","id":"a67fy0ipbx4b","lat":43.74605},"type":"Feature","geometry":{"type":"Point","coordinates":[1.33346,43.74605]}},{"properties":{"lon":1.33662,"nom":"41 BLOIS (32 T AVENUE DU MARECHAL MAUNOURY)","id":"a67fy0d6cj03","lat":47.59175},"type":"Feature","geometry":{"type":"Point","coordinates":[1.33662,47.59175]}},{"properties":{"lon":1.3402,"nom":"44 LA CHAPELLE BASSE MER (BOULEVARD PASTEUR)","id":"a67fy048vwts","lat":47.26753},"type":"Feature","geometry":{"type":"Point","coordinates":[1.3402,47.26753]}},{"properties":{"lon":1.34182,"nom":"41 BLOIS (37 AVENUE DU PRESIDENT WILSON)","id":"a67fy0bzmczb","lat":47.58228},"type":"Feature","geometry":{"type":"Point","coordinates":[1.34182,47.58228]}},{"properties":{"lon":1.34378,"nom":"31 CUGNAUX (1 PLACE DE L EUROPE)","id":"a67fy0ckmdd6","lat":43.53698},"type":"Feature","geometry":{"type":"Point","coordinates":[1.34378,43.53698]}},{"properties":{"lon":1.34664,"nom":"31 TOURNEFEUILLE (1 AVENUE DE LA RESISTANCE)","id":"a67fy0guaacl","lat":43.5852},"type":"Feature","geometry":{"type":"Point","coordinates":[1.34664,43.5852]}},{"properties":{"lon":1.34722,"nom":"82 MONTAUBAN (127 AVENUE ARISTIDE BRIAND)","id":"a67fy0fiagz4","lat":44.0167},"type":"Feature","geometry":{"type":"Point","coordinates":[1.34722,44.0167]}},{"properties":{"lon":1.35908,"nom":"82 MONTAUBAN (1 PLACE ALEXANDRE 1ER)","id":"a67fy0c8hawg","lat":44.01774},"type":"Feature","geometry":{"type":"Point","coordinates":[1.35908,44.01774]}},{"properties":{"lon":1.36115,"nom":"50 AVRANCHES (3 RUE DE LA CONSTITUTION)","id":"a67fy0d7jd9j","lat":48.68621},"type":"Feature","geometry":{"type":"Point","coordinates":[1.36115,48.68621]}},{"properties":{"lon":1.36472,"nom":"28 DREUX (6 B PLACE MESIRARD)","id":"a67fy0gfckzp","lat":48.73446},"type":"Feature","geometry":{"type":"Point","coordinates":[1.36472,48.73446]}},{"properties":{"lon":1.36771,"nom":"17 ST MARTIN DE RE (9 QUAI DE LA POITHEVINIERE)","id":"a67fy0jd55fg","lat":46.20459},"type":"Feature","geometry":{"type":"Point","coordinates":[1.36771,46.20459]}},{"properties":{"lon":1.37634,"nom":"44 CHATEAUBRIANT (41 RUE ARISTIDE BRIAND)","id":"a67fy07w4ze1","lat":47.71821},"type":"Feature","geometry":{"type":"Point","coordinates":[1.37634,47.71821]}},{"properties":{"lon":1.38077,"nom":"27 PACY SUR EURE (77 RUE EDOUARD ISAMBARD)","id":"a67fy0fmk3c9","lat":49.01406},"type":"Feature","geometry":{"type":"Point","coordinates":[1.38077,49.01406]}},{"properties":{"lon":1.38892,"nom":"31 FRONTON (1 RUE DE LA REPUBLIQUE)","id":"a67fy04rsi1j","lat":43.84084},"type":"Feature","geometry":{"type":"Point","coordinates":[1.38892,43.84084]}},{"properties":{"lon":1.39788,"nom":"31 BLAGNAC (8 RUE LAVIGNE)","id":"a67fy0h5jfvs","lat":43.63447},"type":"Feature","geometry":{"type":"Point","coordinates":[1.39788,43.63447]}},{"properties":{"lon":1.40053,"nom":"40 VIEUX BOUCAU LES BAINS (PLACE DE LA MAIRIE)","id":"a67fy0g4t8tn","lat":43.78597},"type":"Feature","geometry":{"type":"Point","coordinates":[1.40053,43.78597]}},{"properties":{"lon":1.40248,"nom":"64 CAMBO LES BAINS (14 ALLEE EDMOND ROSTAND)","id":"a67fy06xhj8t","lat":43.36174},"type":"Feature","geometry":{"type":"Point","coordinates":[1.40248,43.36174]}},{"properties":{"lon":1.40799,"nom":"31 PORTET SUR GARONNE (1 PLACE DE LA REPUBLIQUE)","id":"a67fy0b10sfx","lat":43.52216},"type":"Feature","geometry":{"type":"Point","coordinates":[1.40799,43.52216]}},{"properties":{"lon":1.41833,"nom":"27 LES ANDELYS (10 PLACE NICOLAS POUSSIN)","id":"a67fy0h4f0v7","lat":49.24748},"type":"Feature","geometry":{"type":"Point","coordinates":[1.41833,49.24748]}},{"properties":{"lon":1.4236,"nom":"31 TOULOUSE (73 AVENUE ETIENNE BILLIERES)","id":"a67fy0b36z7p","lat":43.59655},"type":"Feature","geometry":{"type":"Point","coordinates":[1.4236,43.59655]}},{"properties":{"lon":1.42407,"nom":"85 LA ROCHE SUR YON (10 PLACE DU MARCHE)","id":"a67fy0hccil4","lat":46.67014},"type":"Feature","geometry":{"type":"Point","coordinates":[1.42407,46.67014]}},{"properties":{"lon":1.42409,"nom":"40 LABENNE (RUE DES GRILLONS)","id":"a67fy0dcextk","lat":43.59417},"type":"Feature","geometry":{"type":"Point","coordinates":[1.42409,43.59417]}},{"properties":{"lon":1.42431,"nom":"31 TOULOUSE (2 ROUTE D ESPAGNE)","id":"a67fy04yjrby","lat":43.57156},"type":"Feature","geometry":{"type":"Point","coordinates":[1.42431,43.57156]}},{"properties":{"lon":1.42902,"nom":"85 LA ROCHE SUR YON (8 RUE MARECHAL NEY)","id":"a67fy0j45bi6","lat":46.67524},"type":"Feature","geometry":{"type":"Point","coordinates":[1.42902,46.67524]}},{"properties":{"lon":1.42935,"nom":"85 LA ROCHE SUR YON (3 RUE GEORGES CLEMENCEAU)","id":"a67fy08jzw8b","lat":46.66998},"type":"Feature","geometry":{"type":"Point","coordinates":[1.42935,46.66998]}},{"properties":{"lon":1.43086,"nom":"40 SEIGNOSSE (9 PLACE VICTOR GENTILLE)","id":"a67fy09yrzco","lat":43.70777},"type":"Feature","geometry":{"type":"Point","coordinates":[1.43086,43.70777]}},{"properties":{"lon":1.4312,"nom":"31 TOULOUSE (418 AVENUE DE FRONTON)","id":"a67fy09olwzl","lat":43.6623},"type":"Feature","geometry":{"type":"Point","coordinates":[1.4312,43.6623]}},{"properties":{"lon":1.43215,"nom":"40 CAPBRETON (2 RUE DU GENERAL DE GAULLE)","id":"a67fy098akrl","lat":43.64163},"type":"Feature","geometry":{"type":"Point","coordinates":[1.43215,43.64163]}},{"properties":{"lon":1.43574,"nom":"31 TOULOUSE (69 AVENUE DES MINIMES)","id":"a67fy06qkbuj","lat":43.62062},"type":"Feature","geometry":{"type":"Point","coordinates":[1.43574,43.62062]}},{"properties":{"lon":1.4383,"nom":"28 ANET (10 RUE DIANE DE POITIERS)","id":"a67fy0hdi4gh","lat":48.8576},"type":"Feature","geometry":{"type":"Point","coordinates":[1.4383,48.8576]}},{"properties":{"lon":1.43835,"nom":"85 LA TRANCHE SUR MER (16 AVENUE DE LA PLAGE)","id":"a67fy0ew1f9v","lat":46.34285},"type":"Feature","geometry":{"type":"Point","coordinates":[1.43835,46.34285]}},{"properties":{"lon":1.43849,"nom":"31 TOULOUSE (9 PLACE ARNAUD BERNARD)","id":"a67fy05a3a02","lat":43.61145},"type":"Feature","geometry":{"type":"Point","coordinates":[1.43849,43.61145]}},{"properties":{"lon":1.44109,"nom":"44 THOUARE SUR LOIRE (1 PLACE DE LA REPUBLIQUE)","id":"a67fy0fs8l5i","lat":47.26673},"type":"Feature","geometry":{"type":"Point","coordinates":[1.44109,47.26673]}},{"properties":{"lon":1.44183,"nom":"76 NEUFCHATEL EN BRAY (11 PLACE NOTRE DAME)","id":"a67fy0hnq4j9","lat":49.73181},"type":"Feature","geometry":{"type":"Point","coordinates":[1.44183,49.73181]}},{"properties":{"lon":1.4443,"nom":"31 TOULOUSE (25 PLACE DES CARMES)","id":"a67fy03wwb99","lat":43.59784},"type":"Feature","geometry":{"type":"Point","coordinates":[1.4443,43.59784]}},{"properties":{"lon":1.44479,"nom":"50 COUTANCES (2 RUE TANCREDE)","id":"a67fy0egd571","lat":49.04807},"type":"Feature","geometry":{"type":"Point","coordinates":[1.44479,49.04807]}},{"properties":{"lon":1.44578,"nom":"40 CAPBRETON (BOULEVARD DU FRONT DE MER)","id":"a67fy0gluc93","lat":43.64856},"type":"Feature","geometry":{"type":"Point","coordinates":[1.44578,43.64856]}},{"properties":{"lon":1.44694,"nom":"31 TOULOUSE (20 RUE DES ARTS)","id":"a67fy0jai9ny","lat":43.60168},"type":"Feature","geometry":{"type":"Point","coordinates":[1.44694,43.60168]}},{"properties":{"lon":1.44733,"nom":"31 TOULOUSE (1 GRANDE RUE SAINT MICHEL)","id":"a67fy0g9mu7r","lat":43.5857},"type":"Feature","geometry":{"type":"Point","coordinates":[1.44733,43.5857]}},{"properties":{"lon":1.45082,"nom":"31 TOULOUSE (65 BOULEVARD LAZARE CARNOT)","id":"a67fy0dhdgl0","lat":43.60357},"type":"Feature","geometry":{"type":"Point","coordinates":[1.45082,43.60357]}},{"properties":{"lon":1.45763,"nom":"31 TOULOUSE (79 RUE DU FAUBOURG BONNEFOY)","id":"a67fy0cd4wki","lat":43.62077},"type":"Feature","geometry":{"type":"Point","coordinates":[1.45763,43.62077]}},{"properties":{"lon":1.46176,"nom":"44 BASSE GOULAINE (ROUTE DE CLISSON)","id":"a67fy07s3pdl","lat":47.18596},"type":"Feature","geometry":{"type":"Point","coordinates":[1.46176,47.18596]}},{"properties":{"lon":1.46239,"nom":"28 LUCE (96 RUE DE LA REPUBLIQUE)","id":"a67fy0gy5lzc","lat":48.43962},"type":"Feature","geometry":{"type":"Point","coordinates":[1.46239,48.43962]}},{"properties":{"lon":1.46437,"nom":"31 TOULOUSE (72 AVENUE CAMILLE PUJOL)","id":"a67fy0fe67tv","lat":43.60061},"type":"Feature","geometry":{"type":"Point","coordinates":[1.46437,43.60061]}},{"properties":{"lon":1.46858,"nom":"64 BAYONNE (17 BOULEVARD ALSACE LORRAINE)","id":"a67fy08i83e5","lat":43.49469},"type":"Feature","geometry":{"type":"Point","coordinates":[1.46858,43.49469]}},{"properties":{"lon":1.46966,"nom":"50 VALOGNES (8 PLACE VICQ D AZIR)","id":"a67fy09wbmdp","lat":49.50816},"type":"Feature","geometry":{"type":"Point","coordinates":[1.46966,49.50816]}},{"properties":{"lon":1.46982,"nom":"31 TOULOUSE (16 AV ANTOINE DE ST EXUPERY)","id":"a67fy0gw5bve","lat":43.58395},"type":"Feature","geometry":{"type":"Point","coordinates":[1.46982,43.58395]}},{"properties":{"lon":1.46982,"nom":"31 TOULOUSE (233 AV ANTOINE DE ST EXUPERY)","id":"a67fy0h0sgst","lat":43.58395},"type":"Feature","geometry":{"type":"Point","coordinates":[1.46982,43.58395]}},{"properties":{"lon":1.47259,"nom":"28 LUISANT (23 AVENUE DE LA REPUBLIQUE)","id":"a67fy03lnx6o","lat":48.42707},"type":"Feature","geometry":{"type":"Point","coordinates":[1.47259,48.42707]}},{"properties":{"lon":1.47327,"nom":"44 VERTOU (11 BIS PLACE SAINT-MARTIN BP2115)","id":"a67fy0d97521","lat":47.16851},"type":"Feature","geometry":{"type":"Point","coordinates":[1.47327,47.16851]}},{"properties":{"lon":1.47598,"nom":"64 BAYONNE (1 RUE BERNEDE)","id":"a67fy0jjfp9q","lat":43.49357},"type":"Feature","geometry":{"type":"Point","coordinates":[1.47598,43.49357]}},{"properties":{"lon":1.48219,"nom":"27 VERNON (13 PLACE D EVREUX)","id":"a67fy09j5uxd","lat":49.09192},"type":"Feature","geometry":{"type":"Point","coordinates":[1.48219,49.09192]}},{"properties":{"lon":1.48394,"nom":"31 L UNION (CCAL SAINT CAPRAIS)","id":"a67fy05775an","lat":43.65839},"type":"Feature","geometry":{"type":"Point","coordinates":[1.48394,43.65839]}},{"properties":{"lon":1.48768,"nom":"28 CHARTRES (9 PLACE MARCEAU)","id":"a67fy07qbesn","lat":48.44499},"type":"Feature","geometry":{"type":"Point","coordinates":[1.48768,48.44499]}},{"properties":{"lon":1.49047,"nom":"44 CARQUEFOU (2 RUE HARROUYS)","id":"a67fy0hcyr9s","lat":47.29741},"type":"Feature","geometry":{"type":"Point","coordinates":[1.49047,47.29741]}},{"properties":{"lon":1.49698,"nom":"31 BALMA (38 AVENUE DE TOULOUSE)","id":"a67fy042vxru","lat":43.6099},"type":"Feature","geometry":{"type":"Point","coordinates":[1.49698,43.6099]}},{"properties":{"lon":1.50163,"nom":"44 NANTES (17 ROUTE DE PARIS)","id":"a67fy0bg8av9","lat":47.2595},"type":"Feature","geometry":{"type":"Point","coordinates":[1.50163,47.2595]}},{"properties":{"lon":1.50498,"nom":"31 VILLEMUR SUR TARN (1 PLACE CHARLES OURGAUT)","id":"a67fy0idmm8e","lat":43.86536},"type":"Feature","geometry":{"type":"Point","coordinates":[1.50498,43.86536]}},{"properties":{"lon":1.50561,"nom":"44 ST SEBASTIEN SUR LOIRE (16 RUE MAURICE DANIEL)","id":"a67fy03zoofx","lat":47.20679},"type":"Feature","geometry":{"type":"Point","coordinates":[1.50561,47.20679]}},{"properties":{"lon":1.50812,"nom":"64 ANGLET (62 AVENUE DE BAYONNE)","id":"a67fy05zlnzt","lat":43.48193},"type":"Feature","geometry":{"type":"Point","coordinates":[1.50812,43.48193]}},{"properties":{"lon":1.51026,"nom":"50 PONTORSON (98 RUE COUESNON)","id":"a67fy060rohk","lat":48.55299},"type":"Feature","geometry":{"type":"Point","coordinates":[1.51026,48.55299]}},{"properties":{"lon":1.53293,"nom":"19 BRIVE LA GAILLARDE (2 AVENUE DE PARIS)","id":"a67fy0490cxm","lat":45.16109},"type":"Feature","geometry":{"type":"Point","coordinates":[1.53293,45.16109]}},{"properties":{"lon":1.53306,"nom":"31 ST ORENS DE GAMEVILLE (1 PLACE DE LA POSTE)","id":"a67fy03haxie","lat":43.55523},"type":"Feature","geometry":{"type":"Point","coordinates":[1.53306,43.55523]}},{"properties":{"lon":1.53595,"nom":"44 NANTES (2 RUE DU GENERAL BUAT)","id":"a67fy098t3ei","lat":47.23382},"type":"Feature","geometry":{"type":"Point","coordinates":[1.53595,47.23382]}},{"properties":{"lon":1.53819,"nom":"82 CAUSSADE (30 BOULEVARD DIDIER REY)","id":"a67fy07ffd0x","lat":44.1618},"type":"Feature","geometry":{"type":"Point","coordinates":[1.53819,44.1618]}},{"properties":{"lon":1.54046,"nom":"41 SELLES SUR CHER (LES GRANDS PANTALONS)","id":"a67fy0exohvi","lat":47.28588},"type":"Feature","geometry":{"type":"Point","coordinates":[1.54046,47.28588]}},{"properties":{"lon":1.54353,"nom":"44 NANTES (5 RUE DE VALMY)","id":"a67fy03vh5f8","lat":47.21379},"type":"Feature","geometry":{"type":"Point","coordinates":[1.54353,47.21379]}},{"properties":{"lon":1.5436,"nom":"44 NANTES (2 AV JEAN CLAUDE BONDUELLE)","id":"a67fy0429b7a","lat":47.21198},"type":"Feature","geometry":{"type":"Point","coordinates":[1.5436,47.21198]}},{"properties":{"lon":1.5436,"nom":"44 NANTES (2 AVENUE J.C. BONDUELLE)","id":"a67fy0acq8np","lat":47.21198},"type":"Feature","geometry":{"type":"Point","coordinates":[1.5436,47.21198]}},{"properties":{"lon":1.54772,"nom":"44 NANTES (38 RUE MARECHAL JOFFRE)","id":"a67fy0ett0n4","lat":47.22146},"type":"Feature","geometry":{"type":"Point","coordinates":[1.54772,47.22146]}},{"properties":{"lon":1.5478,"nom":"44 REZE (37 PL MARTYRS RESISTANCE)","id":"a67fy08uyp6k","lat":47.19162},"type":"Feature","geometry":{"type":"Point","coordinates":[1.5478,47.19162]}},{"properties":{"lon":1.55069,"nom":"44 LA CHAPELLE SUR ERDRE (7 RUE MARTIN LUTHER KING)","id":"a67fy0bgjfnr","lat":47.29853},"type":"Feature","geometry":{"type":"Point","coordinates":[1.55069,47.29853]}},{"properties":{"lon":1.55192,"nom":"44 NANTES (7 CHAUSSEE DE LA MADELEINE)","id":"a67fy082rf68","lat":47.21138},"type":"Feature","geometry":{"type":"Point","coordinates":[1.55192,47.21138]}},{"properties":{"lon":1.55458,"nom":"44 NANTES (4 PLACE DE LA REPUBLIQUE)","id":"a67fy08seang","lat":47.20492},"type":"Feature","geometry":{"type":"Point","coordinates":[1.55458,47.20492]}},{"properties":{"lon":1.55547,"nom":"44 NANTES (14 RUE DE LA BARILLERIE)","id":"a67fy0chm02q","lat":47.21525},"type":"Feature","geometry":{"type":"Point","coordinates":[1.55547,47.21525]}},{"properties":{"lon":1.5591,"nom":"44 NANTES (15 RUE DE BEL AIR)","id":"a67fy0gen4rq","lat":47.22131},"type":"Feature","geometry":{"type":"Point","coordinates":[1.5591,47.22131]}},{"properties":{"lon":1.55911,"nom":"64 BIARRITZ (1 AVENUE DU MARECHAL FOCH)","id":"a67fy084ai6r","lat":43.4816},"type":"Feature","geometry":{"type":"Point","coordinates":[1.55911,43.4816]}},{"properties":{"lon":1.55939,"nom":"44 NANTES (5 RUE PIERRE CHEREAU)","id":"a67fy06xscls","lat":47.21693},"type":"Feature","geometry":{"type":"Point","coordinates":[1.55939,47.21693]}},{"properties":{"lon":1.56347,"nom":"44 NANTES (4 RUE VOLTAIRE)","id":"a67fy073xu4p","lat":47.21274},"type":"Feature","geometry":{"type":"Point","coordinates":[1.56347,47.21274]}},{"properties":{"lon":1.56464,"nom":"44 NANTES (228 RUE PAUL BELLAMY)","id":"a67fy03muu99","lat":47.23177},"type":"Feature","geometry":{"type":"Point","coordinates":[1.56464,47.23177]}},{"properties":{"lon":1.56612,"nom":"62 BERCK (AVENUE DU GENERAL DE GAULLE)","id":"a67fy0ajprl1","lat":50.40772},"type":"Feature","geometry":{"type":"Point","coordinates":[1.56612,50.40772]}},{"properties":{"lon":1.56749,"nom":"50 JULLOUVILLE (1 AVENUE DU MARECHAL LECLERC)","id":"a67fy07xr1vr","lat":48.77545},"type":"Feature","geometry":{"type":"Point","coordinates":[1.56749,48.77545]}},{"properties":{"lon":1.56952,"nom":"44 NANTES (39 RUE DE LA BASTILLE)","id":"a67fy0aezte6","lat":47.21909},"type":"Feature","geometry":{"type":"Point","coordinates":[1.56952,47.21909]}},{"properties":{"lon":1.57457,"nom":"44 NANTES (2 PLACE CANCLAUX)","id":"a67fy0bggmvz","lat":47.21468},"type":"Feature","geometry":{"type":"Point","coordinates":[1.57457,47.21468]}},{"properties":{"lon":1.57459,"nom":"62 LE PORTEL (4 PLACE DE L EGLISE)","id":"a67fy04cbuvl","lat":50.70688},"type":"Feature","geometry":{"type":"Point","coordinates":[1.57459,50.70688]}},{"properties":{"lon":1.57724,"nom":"80 FRESSENNEVILLE (2 RUE ROGER SALENGRO)","id":"a67fy05ape3g","lat":50.06979},"type":"Feature","geometry":{"type":"Point","coordinates":[1.57724,50.06979]}},{"properties":{"lon":1.57734,"nom":"44 NANTES (90 ROUTE DE RENNES)","id":"a67fy0cyzqmw","lat":47.24818},"type":"Feature","geometry":{"type":"Point","coordinates":[1.57734,47.24818]}},{"properties":{"lon":1.57997,"nom":"62 NEUFCHATEL HARDELOT (AVENUE DE LA CONCORDE)","id":"a67fy07qjewu","lat":50.63254},"type":"Feature","geometry":{"type":"Point","coordinates":[1.57997,50.63254]}},{"properties":{"lon":1.58312,"nom":"44 NANTES (63 65 ROUTE DE VANNES)","id":"a67fy0byizli","lat":47.2353},"type":"Feature","geometry":{"type":"Point","coordinates":[1.58312,47.2353]}},{"properties":{"lon":1.58345,"nom":"62 LE TOUQUET PARIS PLAGE (28 RUE SAINT AMAND)","id":"a67fy0f7ngx7","lat":50.52198},"type":"Feature","geometry":{"type":"Point","coordinates":[1.58345,50.52198]}},{"properties":{"lon":1.58725,"nom":"44 BOUGUENAIS (6 RUE DE LA CHAPELLE)","id":"a67fy0780afb","lat":47.18033},"type":"Feature","geometry":{"type":"Point","coordinates":[1.58725,47.18033]}},{"properties":{"lon":1.58809,"nom":"44 NANTES (1 RUE DE LA CONSTITUTION)","id":"a67fy0friyyi","lat":47.20608},"type":"Feature","geometry":{"type":"Point","coordinates":[1.58809,47.20608]}},{"properties":{"lon":1.59549,"nom":"50 GRANVILLE (10 RUE COURAYE)","id":"a67fy07k1d8t","lat":48.83712},"type":"Feature","geometry":{"type":"Point","coordinates":[1.59549,48.83712]}},{"properties":{"lon":1.59591,"nom":"62 BERCK (40 AVENUE DE VERDUN)","id":"a67fy0fcul4m","lat":50.40509},"type":"Feature","geometry":{"type":"Point","coordinates":[1.59591,50.40509]}},{"properties":{"lon":1.59677,"nom":"44 ORVAULT (28 AVENUE ALEXANDRE GOUPIL)","id":"a67fy09zupow","lat":47.25344},"type":"Feature","geometry":{"type":"Point","coordinates":[1.59677,47.25344]}},{"properties":{"lon":1.59777,"nom":"50 AGON COUTAINVILLE (23 PLACE DU 28 JUILLET)","id":"a67fy07gglht","lat":49.04814},"type":"Feature","geometry":{"type":"Point","coordinates":[1.59777,49.04814]}},{"properties":{"lon":1.59996,"nom":"44 BOUGUENAIS (RUE CLEMENT ADER)","id":"a67fy05q8zgk","lat":47.15533},"type":"Feature","geometry":{"type":"Point","coordinates":[1.59996,47.15533]}},{"properties":{"lon":1.60176,"nom":"78 HOUDAN (67 GRANDE RUE)","id":"a67fy0726e41","lat":48.78958},"type":"Feature","geometry":{"type":"Point","coordinates":[1.60176,48.78958]}},{"properties":{"lon":1.60365,"nom":"62 BOULOGNE SUR MER (26 RUE LOUIS FAIDHERBE)","id":"a67fy084z8tb","lat":50.72423},"type":"Feature","geometry":{"type":"Point","coordinates":[1.60365,50.72423]}},{"properties":{"lon":1.605,"nom":"44 ST HERBLAIN (5 AVENUE DES THEBAUDIERES)","id":"a67fy04tbif6","lat":47.24584},"type":"Feature","geometry":{"type":"Point","coordinates":[1.605,47.24584]}},{"properties":{"lon":1.60545,"nom":"35 CESSON SEVIGNE (1 RUE SAINT MARTIN)","id":"a67fy0hxscby","lat":48.11771},"type":"Feature","geometry":{"type":"Point","coordinates":[1.60545,48.11771]}},{"properties":{"lon":1.60712,"nom":"62 BOULOGNE SUR MER (32 36 PLACE DALTON)","id":"a67fy0f0ybmj","lat":50.72292},"type":"Feature","geometry":{"type":"Point","coordinates":[1.60712,50.72292]}},{"properties":{"lon":1.61052,"nom":"09 PAMIERS (2 RUE DE LA REPUBLIQUE)","id":"a67fy0aszohk","lat":43.11613},"type":"Feature","geometry":{"type":"Point","coordinates":[1.61052,43.11613]}},{"properties":{"lon":1.61072,"nom":"62 CAMIERS (1 RUE DE SAINTE CECILE)","id":"a67fy0ga52yx","lat":50.57537},"type":"Feature","geometry":{"type":"Point","coordinates":[1.61072,50.57537]}},{"properties":{"lon":1.61151,"nom":"62 WIMEREUX (55 RUE CARNOT)","id":"a67fy08k2ko3","lat":50.76779},"type":"Feature","geometry":{"type":"Point","coordinates":[1.61151,50.76779]}},{"properties":{"lon":1.61812,"nom":"62 BOULOGNE SUR MER (2 AVENUE CHARLES DE GAULLE)","id":"a67fy04n9moi","lat":50.72766},"type":"Feature","geometry":{"type":"Point","coordinates":[1.61812,50.72766]}},{"properties":{"lon":1.62151,"nom":"35 CHANTEPIE (46 B AVENUE ANDRE BONNIN)","id":"a67fy05c72ko","lat":48.08922},"type":"Feature","geometry":{"type":"Point","coordinates":[1.62151,48.08922]}},{"properties":{"lon":1.62263,"nom":"50 CHERBOURG OCTEVILLE (31 RUE DU CHATEAU)","id":"a67fy0535rtf","lat":49.63863},"type":"Feature","geometry":{"type":"Point","coordinates":[1.62263,49.63863]}},{"properties":{"lon":1.62551,"nom":"50 CHERBOURG OCTEVILLE (2 PLACE DE LA FONTAINE)","id":"a67fy09252eb","lat":49.6398},"type":"Feature","geometry":{"type":"Point","coordinates":[1.62551,49.6398]}},{"properties":{"lon":1.63065,"nom":"45 BEAUGENCY (40 RUE DES VIEUX FOSSES)","id":"a67fy0fqln2u","lat":47.77696},"type":"Feature","geometry":{"type":"Point","coordinates":[1.63065,47.77696]}},{"properties":{"lon":1.64745,"nom":"50 EQUEURDREVILLE HAINNEVILLE (66 RUE GAMBETTA)","id":"a67fy05zq3k1","lat":49.64758},"type":"Feature","geometry":{"type":"Point","coordinates":[1.64745,49.64758]}},{"properties":{"lon":1.65299,"nom":"44 ST HERBLAIN (19 PLACE DE LA PAIX)","id":"a67fy0htcaka","lat":47.21132},"type":"Feature","geometry":{"type":"Point","coordinates":[1.65299,47.21132]}},{"properties":{"lon":1.65656,"nom":"35 RENNES (72 RUE DE VERN)","id":"a67fy07lt8bj","lat":48.09872},"type":"Feature","geometry":{"type":"Point","coordinates":[1.65656,48.09872]}},{"properties":{"lon":1.65854,"nom":"35 RENNES (25 BOULEVARD DE METZ)","id":"a67fy04ng3o9","lat":48.11602},"type":"Feature","geometry":{"type":"Point","coordinates":[1.65854,48.11602]}},{"properties":{"lon":1.66198,"nom":"64 ST JEAN DE LUZ (5 BOULEVARD VICTOR HUGO)","id":"a67fy0as97qt","lat":43.38722},"type":"Feature","geometry":{"type":"Point","coordinates":[1.66198,43.38722]}},{"properties":{"lon":1.66893,"nom":"35 RENNES (RUE DU MORBIHAN)","id":"a67fy0i641wk","lat":48.13261},"type":"Feature","geometry":{"type":"Point","coordinates":[1.66893,48.13261]}},{"properties":{"lon":1.67271,"nom":"35 RENNES (59 AVENUE JEAN JANVIER)","id":"a67fy0dab6je","lat":48.10489},"type":"Feature","geometry":{"type":"Point","coordinates":[1.67271,48.10489]}},{"properties":{"lon":1.67625,"nom":"35 RENNES (12 RUE DE SUEDE)","id":"a67fy0jmolv5","lat":48.08667},"type":"Feature","geometry":{"type":"Point","coordinates":[1.67625,48.08667]}},{"properties":{"lon":1.67979,"nom":"35 RENNES (3 RUE FERDINAND BUISSON CS20822)","id":"a67fy0bi3ep3","lat":48.11094},"type":"Feature","geometry":{"type":"Point","coordinates":[1.67979,48.11094]}},{"properties":{"lon":1.68065,"nom":"35 RENNES (14 PLACE SAINTE ANNE)","id":"a67fy08hmpc9","lat":48.11429},"type":"Feature","geometry":{"type":"Point","coordinates":[1.68065,48.11429]}},{"properties":{"lon":1.68073,"nom":"35 RENNES (2 RUE TRONJOLLY)","id":"a67fy09byuvg","lat":48.10676},"type":"Feature","geometry":{"type":"Point","coordinates":[1.68073,48.10676]}},{"properties":{"lon":1.68085,"nom":"35 RENNES (202 RUE SAINT MALO)","id":"a67fy0fkfikl","lat":48.11704},"type":"Feature","geometry":{"type":"Point","coordinates":[1.68085,48.11704]}},{"properties":{"lon":1.68424,"nom":"44 COUERON (48 BOULEVARD DE LA LIBERATION)","id":"a67fy07g2csy","lat":47.21525},"type":"Feature","geometry":{"type":"Point","coordinates":[1.68424,47.21525]}},{"properties":{"lon":1.686,"nom":"35 ST GREGOIRE (9 AVENUE DU GENERAL DE GAULLE)","id":"a67fy0i5ll9u","lat":48.15221},"type":"Feature","geometry":{"type":"Point","coordinates":[1.686,48.15221]}},{"properties":{"lon":1.68806,"nom":"35 RENNES (2 RUE MAUCONSEIL)","id":"a67fy0czq3j6","lat":48.09815},"type":"Feature","geometry":{"type":"Point","coordinates":[1.68806,48.09815]}},{"properties":{"lon":1.69104,"nom":"36 CHATEAUROUX (8 RUE PORTE AUX GUEDONS)","id":"a67fy0i729vo","lat":46.81109},"type":"Feature","geometry":{"type":"Point","coordinates":[1.69104,46.81109]}},{"properties":{"lon":1.69471,"nom":"35 RENNES (12 BOULEVARD VOLTAIRE)","id":"a67fy05zeb92","lat":48.10506},"type":"Feature","geometry":{"type":"Point","coordinates":[1.69471,48.10506]}},{"properties":{"lon":1.70827,"nom":"36 DEOLS (LE GRAND VERGER)","id":"a67fy0eqb8h5","lat":46.84453},"type":"Feature","geometry":{"type":"Point","coordinates":[1.70827,46.84453]}},{"properties":{"lon":1.71967,"nom":"78 MANTES LA JOLIE (1 RUE AUGUSTE GOUST)","id":"a67fy0e5xdee","lat":48.99112},"type":"Feature","geometry":{"type":"Point","coordinates":[1.71967,48.99112]}},{"properties":{"lon":1.72346,"nom":"76 GOURNAY EN BRAY (1 PLACE NATIONALE)","id":"a67fy08w8bvs","lat":49.48229},"type":"Feature","geometry":{"type":"Point","coordinates":[1.72346,49.48229]}},{"properties":{"lon":1.72629,"nom":"44 COUERON (2 RUE JEAN JAURES)","id":"a67fy0hflm4i","lat":47.21127},"type":"Feature","geometry":{"type":"Point","coordinates":[1.72629,47.21127]}},{"properties":{"lon":1.74621,"nom":"41 ROMORANTIN LANTHENAY (23 RUE DE LA SIRENE)","id":"a67fy08cizj5","lat":47.35972},"type":"Feature","geometry":{"type":"Point","coordinates":[1.74621,47.35972]}},{"properties":{"lon":1.74656,"nom":"35 BRUZ (15 PLACE DU DOCTEUR JOLY)","id":"a67fy0gbci2e","lat":48.02424},"type":"Feature","geometry":{"type":"Point","coordinates":[1.74656,48.02424]}},{"properties":{"lon":1.74964,"nom":"85 CHATEAU D OLONNE (67 RUE DES PLESSES)","id":"a67fy0jk46nq","lat":46.49272},"type":"Feature","geometry":{"type":"Point","coordinates":[1.74964,46.49272]}},{"properties":{"lon":1.77069,"nom":"35 PACE (18 BD P DUMAINE DE LA JOSSERIE)","id":"a67fy0bx9lz2","lat":48.14495},"type":"Feature","geometry":{"type":"Point","coordinates":[1.77069,48.14495]}},{"properties":{"lon":1.77231,"nom":"19 TULLE (17 QUAI ALFRED DE CHAMMARD)","id":"a67fy0fkrrt0","lat":45.2676},"type":"Feature","geometry":{"type":"Point","coordinates":[1.77231,45.2676]}},{"properties":{"lon":1.77298,"nom":"64 HENDAYE (58 BD DU GENERAL LECLERC)","id":"a67fy0fewt4r","lat":43.37147},"type":"Feature","geometry":{"type":"Point","coordinates":[1.77298,43.37147]}},{"properties":{"lon":1.77591,"nom":"27 GISORS (1 RUE DE VIENNE)","id":"a67fy0d7dz3q","lat":49.27989},"type":"Feature","geometry":{"type":"Point","coordinates":[1.77591,49.27989]}},{"properties":{"lon":1.78291,"nom":"85 LES SABLES D OLONNE (1 AVENUE CARNOT)","id":"a67fy0de7e5s","lat":46.49759},"type":"Feature","geometry":{"type":"Point","coordinates":[1.78291,46.49759]}},{"properties":{"lon":1.78393,"nom":"85 LES SABLES D OLONNE (4 PLACE DU MARECHAL FOCH)","id":"a67fy08eguhq","lat":46.49452},"type":"Feature","geometry":{"type":"Point","coordinates":[1.78393,46.49452]}},{"properties":{"lon":1.78726,"nom":"95 MAGNY EN VEXIN (24 PLACE DE LA HALLE)","id":"a67fy099l2e0","lat":49.15523},"type":"Feature","geometry":{"type":"Point","coordinates":[1.78726,49.15523]}},{"properties":{"lon":1.79199,"nom":"85 LES SABLES D OLONNE (3 BD FRANKLIN ROOSEVELT)","id":"a67fy0bsfq3x","lat":46.49487},"type":"Feature","geometry":{"type":"Point","coordinates":[1.79199,46.49487]}},{"properties":{"lon":1.80701,"nom":"50 LES PIEUX (14 RUE CENTRALE)","id":"a67fy0gxdasl","lat":49.51441},"type":"Feature","geometry":{"type":"Point","coordinates":[1.80701,49.51441]}},{"properties":{"lon":1.80857,"nom":"62 COQUELLES (1","id":"a67fy0h2e5tl","lat":50.92734},"type":"Feature","geometry":{"type":"Point","coordinates":[1.80857,50.92734]}},{"properties":{"lon":1.81611,"nom":"81 LAVAUR (25 GRAND RUE)","id":"a67fy04xu5ue","lat":43.69876},"type":"Feature","geometry":{"type":"Point","coordinates":[1.81611,43.69876]}},{"properties":{"lon":1.83439,"nom":"80 ABBEVILLE (5 RUE DES LINGERS)","id":"a67fy0d9n7s2","lat":50.10673},"type":"Feature","geometry":{"type":"Point","coordinates":[1.83439,50.10673]}},{"properties":{"lon":1.83805,"nom":"45 LA CHAPELLE ST MESMIN (20 RUE NATIONALE)","id":"a67fy0brmupg","lat":47.88989},"type":"Feature","geometry":{"type":"Point","coordinates":[1.83805,47.88989]}},{"properties":{"lon":1.84187,"nom":"45 GIDY (AIRE D AUTOROUTE A10)","id":"a67fy0cb178d","lat":47.98592},"type":"Feature","geometry":{"type":"Point","coordinates":[1.84187,47.98592]}},{"properties":{"lon":1.84202,"nom":"62 CALAIS (51 DIGUE GASTON BERTHE)","id":"a67fy0gvjclp","lat":50.96622},"type":"Feature","geometry":{"type":"Point","coordinates":[1.84202,50.96622]}},{"properties":{"lon":1.84814,"nom":"35 MORDELLES (18 PLACE SAINT PIERRE)","id":"a67fy0fhlkeo","lat":48.07301},"type":"Feature","geometry":{"type":"Point","coordinates":[1.84814,48.07301]}},{"properties":{"lon":1.85214,"nom":"62 CALAIS (85 BOULEVARD LA FAYETTE)","id":"a67fy05gdi25","lat":50.95786},"type":"Feature","geometry":{"type":"Point","coordinates":[1.85214,50.95786]}},{"properties":{"lon":1.86997,"nom":"23 GUERET (18 BOULEVARD CARNOT)","id":"a67fy0ci397e","lat":46.17},"type":"Feature","geometry":{"type":"Point","coordinates":[1.86997,46.17]}},{"properties":{"lon":1.87689,"nom":"45 ST JEAN DE LA RUELLE (64 RUE CHARLES BEAUHAIRE)","id":"a67fy056x6at","lat":47.91192},"type":"Feature","geometry":{"type":"Point","coordinates":[1.87689,47.91192]}},{"properties":{"lon":1.87733,"nom":"45 SARAN (230 RUE DU BOURG)","id":"a67fy0ckn3mw","lat":47.9509},"type":"Feature","geometry":{"type":"Point","coordinates":[1.87733,47.9509]}},{"properties":{"lon":1.87922,"nom":"85 CHALLANS (7 PLACE ARISTIDE BRIAND)","id":"a67fy0akxb65","lat":46.84615},"type":"Feature","geometry":{"type":"Point","coordinates":[1.87922,46.84615]}},{"properties":{"lon":1.89852,"nom":"81 GAILLAC (70 PLACE DE LA LIBERATION)","id":"a67fy078jn2u","lat":43.89994},"type":"Feature","geometry":{"type":"Point","coordinates":[1.89852,43.89994]}},{"properties":{"lon":1.89995,"nom":"45 ORLEANS (93 RUE DU FAUBOURG BANNIER)","id":"a67fy09v3kve","lat":47.91275},"type":"Feature","geometry":{"type":"Point","coordinates":[1.89995,47.91275]}},{"properties":{"lon":1.90137,"nom":"45 OLIVET (226 RUE MARCEL BELOT)","id":"a67fy03sbcki","lat":47.8657},"type":"Feature","geometry":{"type":"Point","coordinates":[1.90137,47.8657]}},{"properties":{"lon":1.90386,"nom":"45 ORLEANS (24 PLACE DU MARTROI)","id":"a67fy08vcyl4","lat":47.90217},"type":"Feature","geometry":{"type":"Point","coordinates":[1.90386,47.90217]}},{"properties":{"lon":1.90634,"nom":"45 ORLEANS (PLACE DU CHATELET)","id":"a67fy07i1m44","lat":47.89892},"type":"Feature","geometry":{"type":"Point","coordinates":[1.90634,47.89892]}},{"properties":{"lon":1.91457,"nom":"45 ST JEAN LE BLANC (1 T RUE DU GENERAL DE GAULLE)","id":"a67fy0fv9938","lat":47.89371},"type":"Feature","geometry":{"type":"Point","coordinates":[1.91457,47.89371]}},{"properties":{"lon":1.9167,"nom":"45 FLEURY LES AUBRAIS (42 RUE ABBE PASTY)","id":"a67fy0c392w4","lat":47.92842},"type":"Feature","geometry":{"type":"Point","coordinates":[1.9167,47.92842]}},{"properties":{"lon":1.93416,"nom":"85 ST GILLES CROIX DE VIE (1 QUAI DU PORT FIDELE)","id":"a67fy05enrwq","lat":46.69609},"type":"Feature","geometry":{"type":"Point","coordinates":[1.93416,46.69609]}},{"properties":{"lon":1.93904,"nom":"85 ST GILLES CROIX VIE (49 RUE DU GENERAL DE GAULLE)","id":"a67fy0jax7bd","lat":46.69612},"type":"Feature","geometry":{"type":"Point","coordinates":[1.93904,46.69612]}},{"properties":{"lon":1.94437,"nom":"78 MAUREPAS (1 ALLEE DE LA COTE D OR)","id":"a67fy0dgu1wy","lat":48.76094},"type":"Feature","geometry":{"type":"Point","coordinates":[1.94437,48.76094]}},{"properties":{"lon":1.95471,"nom":"11 CASTELNAUDARY (42 RUE DE DUNKERQUE)","id":"a67fy0d5d201","lat":43.31783},"type":"Feature","geometry":{"type":"Point","coordinates":[1.95471,43.31783]}},{"properties":{"lon":1.96949,"nom":"45 ST JEAN DE BRAYE (11 RUE DE LA PLANCHE DE PIERRE)","id":"a67fy0ext6mn","lat":47.91061},"type":"Feature","geometry":{"type":"Point","coordinates":[1.96949,47.91061]}},{"properties":{"lon":1.97642,"nom":"78 ORGEVAL (21 PLACE DE L EGLISE)","id":"a67fy0dxzq0s","lat":48.91965},"type":"Feature","geometry":{"type":"Point","coordinates":[1.97642,48.91965]}},{"properties":{"lon":1.98365,"nom":"36 LA CHATRE (137 RUE NATIONALE)","id":"a67fy05detzj","lat":46.57625},"type":"Feature","geometry":{"type":"Point","coordinates":[1.98365,46.57625]}},{"properties":{"lon":1.99108,"nom":"78 LES CLAYES SOUS BOIS (42 RUE MAURICE JOUET)","id":"a67fy0hkik8i","lat":48.82356},"type":"Feature","geometry":{"type":"Point","coordinates":[1.99108,48.82356]}},{"properties":{"lon":1.99133,"nom":"36 ISSOUDUN (6-8 RUE DANIELE CASANOVA)","id":"a67fy04mk2ed","lat":46.94942},"type":"Feature","geometry":{"type":"Point","coordinates":[1.99133,46.94942]}},{"properties":{"lon":2.00283,"nom":"31 REVEL (23 BOULEVARD DE LA REPUBLIQUE)","id":"a67fy04oxq9e","lat":43.45986},"type":"Feature","geometry":{"type":"Point","coordinates":[2.00283,43.45986]}},{"properties":{"lon":2.00375,"nom":"78 TRIEL SUR SEINE (174 RUE PAUL DOUMER)","id":"a67fy09ieep9","lat":48.98029},"type":"Feature","geometry":{"type":"Point","coordinates":[2.00375,48.98029]}},{"properties":{"lon":2.00731,"nom":"35 ST MALO (8 BD VILLEBOIS-MAREUIL)","id":"a67fy0fi9m6u","lat":48.65077},"type":"Feature","geometry":{"type":"Point","coordinates":[2.00731,48.65077]}},{"properties":{"lon":2.01271,"nom":"91 DOURDAN (1 PLACE DU MARCHE AUX HERBES)","id":"a67fy0eoevd8","lat":48.52904},"type":"Feature","geometry":{"type":"Point","coordinates":[2.01271,48.52904]}},{"properties":{"lon":2.01674,"nom":"35 ST MALO (80 RUE GEORGES CLEMENCEAU)","id":"a67fy0ezhxmd","lat":48.63795},"type":"Feature","geometry":{"type":"Point","coordinates":[2.01674,48.63795]}},{"properties":{"lon":2.01991,"nom":"35 ST MALO (2 CHAUSSEE DU SILLON)","id":"a67fy03rixra","lat":48.65177},"type":"Feature","geometry":{"type":"Point","coordinates":[2.01991,48.65177]}},{"properties":{"lon":2.02052,"nom":"95 VAUREAL (1 PLACE DU RENDEZ VOUS)","id":"a67fy060p7b9","lat":49.03263},"type":"Feature","geometry":{"type":"Point","coordinates":[2.02052,49.03263]}},{"properties":{"lon":2.02411,"nom":"41 LAMOTTE BEUVRON (26 AVENUE DE L HOTEL DE VILLE)","id":"a67fy0j347il","lat":47.60011},"type":"Feature","geometry":{"type":"Point","coordinates":[2.02411,47.60011]}},{"properties":{"lon":2.02942,"nom":"46 FIGEAC (7 AVENUE FERNAND PEZET)","id":"a67fy0inqjfo","lat":44.60886},"type":"Feature","geometry":{"type":"Point","coordinates":[2.02942,44.60886]}},{"properties":{"lon":2.03692,"nom":"12 VILLEFRANCHE DE ROUERGUE (14 B BOULEVARD CHARLES DE GAULLE)","id":"a67fy0gyuufl","lat":44.3513},"type":"Feature","geometry":{"type":"Point","coordinates":[2.03692,44.3513]}},{"properties":{"lon":2.04038,"nom":"78 POISSY (31 RUE DU GENERAL DE GAULLE)","id":"a67fy0hmix9s","lat":48.93069},"type":"Feature","geometry":{"type":"Point","coordinates":[2.04038,48.93069]}},{"properties":{"lon":2.04162,"nom":"78 MONTIGNY LE BRETONNEUX (22 B PLACE ETIENNE MARCEL)","id":"a67fy056xj5y","lat":48.78114},"type":"Feature","geometry":{"type":"Point","coordinates":[2.04162,48.78114]}},{"properties":{"lon":2.04902,"nom":"22 DINAN (19 RUE THIERS)","id":"a67fy0hap4yn","lat":48.45547},"type":"Feature","geometry":{"type":"Point","coordinates":[2.04902,48.45547]}},{"properties":{"lon":2.05359,"nom":"45 NEUVILLE AUX BOIS (4 PLACE DU GENERAL LECLERC)","id":"a67fy0jk84k5","lat":48.06953},"type":"Feature","geometry":{"type":"Point","coordinates":[2.05359,48.06953]}},{"properties":{"lon":2.0546,"nom":"35 DINARD (14 BOULEVARD FEART)","id":"a67fy0dlptrd","lat":48.63367},"type":"Feature","geometry":{"type":"Point","coordinates":[2.0546,48.63367]}},{"properties":{"lon":2.06234,"nom":"85 ST JEAN DE MONTS (2 RUE DE LA PLAGE)","id":"a67fy0fp1zxs","lat":46.79326},"type":"Feature","geometry":{"type":"Point","coordinates":[2.06234,46.79326]}},{"properties":{"lon":2.07879,"nom":"95 CERGY (11 PLACE DE LA FONTAINE)","id":"a67fy0c1sofm","lat":49.03699},"type":"Feature","geometry":{"type":"Point","coordinates":[2.07879,49.03699]}},{"properties":{"lon":2.08209,"nom":"60 BEAUVAIS (23","id":"a67fy04hyqlw","lat":49.42884},"type":"Feature","geometry":{"type":"Point","coordinates":[2.08209,49.42884]}},{"properties":{"lon":2.08405,"nom":"60 BEAUVAIS (5","id":"a67fy0c95379","lat":49.43106},"type":"Feature","geometry":{"type":"Point","coordinates":[2.08405,49.43106]}},{"properties":{"lon":2.0894,"nom":"78 ST GERMAIN EN LAYE (64 RUE DE POISSY)","id":"a67fy07uzwib","lat":48.89803},"type":"Feature","geometry":{"type":"Point","coordinates":[2.0894,48.89803]}},{"properties":{"lon":2.09047,"nom":"44 PONTCHATEAU (10 B PLACE DU MARCHE)","id":"a67fy08vb5nb","lat":47.4349},"type":"Feature","geometry":{"type":"Point","coordinates":[2.09047,47.4349]}},{"properties":{"lon":2.09213,"nom":"78 CONFLANS STE HONORINE (29 RUE MAURICE BERTEAUX)","id":"a67fy06e5yjd","lat":48.99247},"type":"Feature","geometry":{"type":"Point","coordinates":[2.09213,48.99247]}},{"properties":{"lon":2.09446,"nom":"78 MARLY LE ROI (18 AVENUE DE SAINT GERMAIN)","id":"a67fy0az1ot4","lat":48.87431},"type":"Feature","geometry":{"type":"Point","coordinates":[2.09446,48.87431]}},{"properties":{"lon":2.09532,"nom":"44 PORNIC (48 RUE DU GENERAL DE GAULLE)","id":"a67fy0cgpq15","lat":47.11404},"type":"Feature","geometry":{"type":"Point","coordinates":[2.09532,47.11404]}},{"properties":{"lon":2.09655,"nom":"95 PONTOISE (3 PLACE DU PETIT MARTROY)","id":"a67fy0h55joq","lat":49.05067},"type":"Feature","geometry":{"type":"Point","coordinates":[2.09655,49.05067]}},{"properties":{"lon":2.10187,"nom":"44 PORNIC (50 QUAI LERAY)","id":"a67fy04ornde","lat":47.11485},"type":"Feature","geometry":{"type":"Point","coordinates":[2.10187,47.11485]}},{"properties":{"lon":2.10187,"nom":"44 PORNIC (40 QUAI LERAY)","id":"a67fy0fhi02v","lat":47.11485},"type":"Feature","geometry":{"type":"Point","coordinates":[2.10187,47.11485]}},{"properties":{"lon":2.10443,"nom":"59 GRAND FORT PHILIPPE (3 PLACE JOSEPH LEPRETRE)","id":"a67fy0jzkkpg","lat":51.00123},"type":"Feature","geometry":{"type":"Point","coordinates":[2.10443,51.00123]}},{"properties":{"lon":2.12558,"nom":"59 GRAVELINES (PLACE CHARLES VALENTIN)","id":"a67fy0c7jthf","lat":50.98607},"type":"Feature","geometry":{"type":"Point","coordinates":[2.12558,50.98607]}},{"properties":{"lon":2.1323,"nom":"78 VERSAILLES (26 AVENUE DE SAINT CLOUD)","id":"a67fy0d4ro21","lat":48.80472},"type":"Feature","geometry":{"type":"Point","coordinates":[2.1323,48.80472]}},{"properties":{"lon":2.13253,"nom":"44 PORNIC (13 BD DE LINZ SAINTE MARIE)","id":"a67fy0gdpast","lat":47.11286},"type":"Feature","geometry":{"type":"Point","coordinates":[2.13253,47.11286]}},{"properties":{"lon":2.13253,"nom":"44 PORNIC (BD DE LINZ SAINTE MARIE)","id":"a67fy0jhcnhh","lat":47.11286},"type":"Feature","geometry":{"type":"Point","coordinates":[2.13253,47.11286]}},{"properties":{"lon":2.134,"nom":"78 VERSAILLES (49 RUE DU MARECHAL FOCH)","id":"a67fy04n3q1t","lat":48.80979},"type":"Feature","geometry":{"type":"Point","coordinates":[2.134,48.80979]}},{"properties":{"lon":2.13505,"nom":"78 LE VESINET (23 RUE DU MARECHAL FOCH)","id":"a67fy083tbp3","lat":48.89326},"type":"Feature","geometry":{"type":"Point","coordinates":[2.13505,48.89326]}},{"properties":{"lon":2.13595,"nom":"78 VERSAILLES (2 RUE DES CHANTIERS)","id":"a67fy08pqej1","lat":48.79643},"type":"Feature","geometry":{"type":"Point","coordinates":[2.13595,48.79643]}},{"properties":{"lon":2.14529,"nom":"78 MAISONS LAFFITTE (32 AVENUE LONGUEIL)","id":"a67fy091paua","lat":48.94608},"type":"Feature","geometry":{"type":"Point","coordinates":[2.14529,48.94608]}},{"properties":{"lon":2.14765,"nom":"81 ALBI (4 PLACE DU VIGAN)","id":"a67fy0a17zy2","lat":43.92734},"type":"Feature","geometry":{"type":"Point","coordinates":[2.14765,43.92734]}},{"properties":{"lon":2.15497,"nom":"78 CHATOU (28 PLACE MAURICE BERTEAUX)","id":"a67fy09jvjwz","lat":48.88653},"type":"Feature","geometry":{"type":"Point","coordinates":[2.15497,48.88653]}},{"properties":{"lon":2.15946,"nom":"78 SARTROUVILLE (54 B AVENUE JEAN JAURES)","id":"a67fy0cfb212","lat":48.93992},"type":"Feature","geometry":{"type":"Point","coordinates":[2.15946,48.93992]}},{"properties":{"lon":2.16325,"nom":"91 ETAMPES (44 RUE SAINTE CROIX)","id":"a67fy0hjc5uw","lat":48.43392},"type":"Feature","geometry":{"type":"Point","coordinates":[2.16325,48.43392]}},{"properties":{"lon":2.16645,"nom":"44 ST BREVIN LES PINS (4 PLACE DE LA VICTOIRE)","id":"a67fy0dnn4vb","lat":47.24682},"type":"Feature","geometry":{"type":"Point","coordinates":[2.16645,47.24682]}},