{"type":"FeatureCollection","data_type":"Dataset","url_type":null,"permissions":[{"permissions":{"download":true,"view":true},"group_id":"everyone"}],"classification":null,"title":"Washington DC Companies from CrossMine","count":300,"stream_id":53951,"contributor":{"url":"http://geocommons.com/users/159","name":"ajturner"},"data_attributes":null,"calculation_params":null,"icon_link":null,"link":"http://geocommons.com/overlays/53951.json","extent":[-77.4611,38.6523,-76.707,39.2366],"geometry_types":["point"],"unique_name":null,"name":"Washington DC Companies from CrossMine","feature_count":300,"description":"Locations and links to companies located around the Washington DC Metro area. ","next_feature":null,"is_raster":false,"short_classification":"Y","stats":{"latitude":{"max":39.23657,"mean":38.9923883716667,"variance":0.0101655156292853,"stdev":0.100824181768489,"min":38.652308,"median":38.962429},"longitude":{"max":-76.70702,"mean":-77.1724466096666,"variance":0.0278340171579177,"stdev":0.166835299495993,"min":-77.461088,"median":-77.193077}},"features":[{"properties":{"name":"eSolutions360,LLC","latitude":38.652308,"description":"<a href=\"/companies/411\">eSolutions360,LLC</a>    3108 PS Business Center, Woodbridge, Virginia 22192, USA","longitude":-77.302645,"id":"a62j803ie590"},"type":"Feature","geometry":{"type":"Point","coordinates":[-77.302645,38.652308]}},{"properties":{"name":"WhyGoSolo","latitude":38.765256,"description":"<a href=\"/companies/420\">WhyGoSolo</a>    7001 Loisdale Road, Suite C, Springfield, VA 22150 , USA","longitude":-77.182455,"id":"a62j80gapcpa"},"type":"Feature","geometry":{"type":"Point","coordinates":[-77.182455,38.765256]}},{"properties":{"name":"Digital Signal Corporation","latitude":38.798856,"description":"<a href=\"/companies/238\">Digital Signal Corporation</a>    5568 General Washington Drive, Suite A-200, Alexandria, VA 22312, USA","longitude":-77.1637,"id":"a62j80bxpnrq"},"type":"Feature","geometry":{"type":"Point","coordinates":[-77.1637,38.798856]}},{"properties":{"name":"H2Gen Innovations, Inc.","latitude":38.803441,"description":"<a href=\"/companies/220\">H2Gen Innovations, Inc.</a>    4740 Eisenhower Ave., Alexandria, VA 22304, USA","longitude":-77.11689,"id":"a62j808qve5z"},"type":"Feature","geometry":{"type":"Point","coordinates":[-77.11689,38.803441]}},{"properties":{"name":"Previstar, Inc.","latitude":38.807221,"description":"<a href=\"/companies/85\">Previstar, Inc.</a>    1729 King Street, Suite 300 , Alexandria, VA 22314, USA","longitude":-77.058146,"id":"a62j800lh4hj"},"type":"Feature","geometry":{"type":"Point","coordinates":[-77.058146,38.807221]}},{"properties":{"name":"Quintura, Inc.","latitude":38.814208,"description":"<a href=\"/companies/320\">Quintura, Inc.</a>    901 N. Pitt Street, Suite 325, Alexandria, VA 22314, USA","longitude":-77.042423,"id":"a62j80dj0cgi"},"type":"Feature","geometry":{"type":"Point","coordinates":[-77.042423,38.814208]}},{"properties":{"name":"YellowBrix, Inc.","latitude":38.814329,"description":"<a href=\"/companies/197\">YellowBrix, Inc.</a>    44 Canal Center Plaza, Alexandria, VA 22314, USA","longitude":-77.038605,"id":"a62j8049trlh"},"type":"Feature","geometry":{"type":"Point","coordinates":[-77.038605,38.814329]}},{"properties":{"name":"RideCharge, Inc","latitude":38.814329,"description":"<a href=\"/companies/413\">RideCharge, Inc</a>    44 Canal Center Plaza, Suite 550, Alexandria, VA 22314, USA","longitude":-77.038605,"id":"a62j8051fjyj"},"type":"Feature","geometry":{"type":"Point","coordinates":[-77.038605,38.814329]}},{"properties":{"name":"CERATECH, Inc.","latitude":38.832549,"description":"<a href=\"/companies/70\">CERATECH, Inc.</a>    1500 North Beauregard St., Suite 320, Alexandria, VA 22311, USA","longitude":-77.124344,"id":"a62j809bdygf"},"type":"Feature","geometry":{"type":"Point","coordinates":[-77.124344,38.832549]}},{"properties":{"name":"Zigron Inc","latitude":38.835546,"description":"<a href=\"/companies/435\">Zigron Inc</a>    3001 Park Center Dr., Suit # 1414, Alexandria, VA 22302, USA","longitude":-77.104079,"id":"a62j80duzwgy"},"type":"Feature","geometry":{"type":"Point","coordinates":[-77.104079,38.835546]}},{"properties":{"name":"Icx Technologies, Inc.","latitude":38.855186,"description":"<a href=\"/companies/125\">Icx Technologies, Inc.</a>    2100 Crystal Drive\\nSuite 650, Arlington, VA 22202, USA","longitude":-77.049367,"id":"a62j80cm2pjw"},"type":"Feature","geometry":{"type":"Point","coordinates":[-77.049367,38.855186]}},{"properties":{"name":"Bent Systems, Inc.","latitude":38.857378,"description":"<a href=\"/companies/27\">Bent Systems, Inc.</a>    11350 Random Hills Road, Suite 800, Fairfax, VA 22030, USA","longitude":-77.339031,"id":"a62j80gqbea5"},"type":"Feature","geometry":{"type":"Point","coordinates":[-77.339031,38.857378]}},{"properties":{"name":"Privaris, Inc.","latitude":38.857658,"description":"<a href=\"/companies/26\">Privaris, Inc.</a>    11200 Waples Mill Road, #103, Fairfax, VA 22030, USA","longitude":-77.335308,"id":"a62j807w5ao3"},"type":"Feature","geometry":{"type":"Point","coordinates":[-77.335308,38.857658]}},{"properties":{"name":"Eko Systems, Inc.","latitude":38.860512,"description":"<a href=\"/companies/170\">Eko Systems, Inc.</a>    3141 Fairview Park Drive\\nSuite 525, Falls Church, VA 22042, USA","longitude":-77.216113,"id":"a62j806avxox"},"type":"Feature","geometry":{"type":"Point","coordinates":[-77.216113,38.860512]}},{"properties":{"name":"ServiceBench, Inc.","latitude":38.861576,"description":"<a href=\"/companies/183\">ServiceBench, Inc.</a>    3877 Fairfax Ridge Road Suite 205, Fairfax, VA 22030, USA","longitude":-77.337331,"id":"a62j803akl0a"},"type":"Feature","geometry":{"type":"Point","coordinates":[-77.337331,38.861576]}},{"properties":{"name":"SRA International, Inc.","latitude":38.863995,"description":"<a href=\"/companies/395\">SRA International, Inc.</a>    4300 Fair Lakes Court, Fairfax, VA 22033, USA","longitude":-77.379474,"id":"a62j80g6uqik"},"type":"Feature","geometry":{"type":"Point","coordinates":[-77.379474,38.863995]}},{"properties":{"name":"Broadmargin","latitude":38.867719,"description":"<a href=\"/companies/309\">Broadmargin</a>    8500 Executive Ave, Fairfax, VA 22031, USA","longitude":-77.238882,"id":"a62j800lw563"},"type":"Feature","geometry":{"type":"Point","coordinates":[-77.238882,38.867719]}},{"properties":{"name":"Rivermine Software, Inc.","latitude":38.872668,"description":"<a href=\"/companies/188\">Rivermine Software, Inc.</a>    3975 Fair Ridge Drive, Fairfax, VA 22033, USA","longitude":-77.367981,"id":"a62j80aysy9r"},"type":"Feature","geometry":{"type":"Point","coordinates":[-77.367981,38.872668]}},{"properties":{"name":"Razorsight, Inc.","latitude":38.872668,"description":"<a href=\"/companies/187\">Razorsight, Inc.</a>    3975 Fair Ridge Drive, Fairfax, VA 22033, USA","longitude":-77.367981,"id":"a62j801vn4xx"},"type":"Feature","geometry":{"type":"Point","coordinates":[-77.367981,38.872668]}},{"properties":{"name":"Webversa, Inc.","latitude":38.877548,"description":"<a href=\"/companies/164\">Webversa, Inc.</a>    2730 Prosperity Avenue, Suite 150, Fairfax, VA 22031, USA","longitude":-77.238353,"id":"a62j802arv08"},"type":"Feature","geometry":{"type":"Point","coordinates":[-77.238353,38.877548]}},{"properties":{"name":"Fortisphere,  Inc.","latitude":38.87804,"description":"<a href=\"/companies/203\">Fortisphere,  Inc.</a>    4530 Walney Road, Suite 203, Chantilly, VA 20151, USA","longitude":-77.436151,"id":"a62j80f4wq2j"},"type":"Feature","geometry":{"type":"Point","coordinates":[-77.436151,38.87804]}},{"properties":{"name":"Applied Predictive Tech.","latitude":38.881529,"description":"<a href=\"/companies/321\">Applied Predictive Tech.</a>    901 North Stuart Street, Suite 1100, Arlington, VA 22203, USA","longitude":-77.111315,"id":"a62j805s11kn"},"type":"Feature","geometry":{"type":"Point","coordinates":[-77.111315,38.881529]}},{"properties":{"name":"CadenceQuest","latitude":38.882537,"description":"<a href=\"/companies/417\">CadenceQuest</a>    4501 N. Fairfax Drive, Suite 920, Arlington, Virginia 22203, USA","longitude":-77.115341,"id":"a62j80cwvbpj"},"type":"Feature","geometry":{"type":"Point","coordinates":[-77.115341,38.882537]}},{"properties":{"name":"Group Logic, Inc.","latitude":38.883505,"description":"<a href=\"/companies/400\">Group Logic, Inc.</a>    1100 N. Glebe Rd, Suite 800, Arlington, VA 22201, USA","longitude":-77.117836,"id":"a62j809m4fiu"},"type":"Feature","geometry":{"type":"Point","coordinates":[-77.117836,38.883505]}},{"properties":{"name":"Gridpoint, Inc.","latitude":38.888629,"description":"<a href=\"/companies/167\">Gridpoint, Inc.</a>    2801 Clarendon Blvd., Arlington, VA 22201, USA","longitude":-77.091993,"id":"a62j80bjdp84"},"type":"Feature","geometry":{"type":"Point","coordinates":[-77.091993,38.888629]}},{"properties":{"name":"Book of Cooks","latitude":38.888696,"description":"<a href=\"/companies/446\">Book of Cooks</a>    1301 N Troy St #912, Arlington, Virginia 22201, USA","longitude":-77.082353,"id":"a62j80dhuwtx"},"type":"Feature","geometry":{"type":"Point","coordinates":[-77.082353,38.888696]}},{"properties":{"name":"Proteus, Inc.","latitude":38.889416,"description":"<a href=\"/companies/116\">Proteus, Inc.</a>    2020 14th St North, Arlington, VA 22201, USA","longitude":-77.083309,"id":"a62j806qop4z"},"type":"Feature","geometry":{"type":"Point","coordinates":[-77.083309,38.889416]}},{"properties":{"name":"M2Z Networks, Inc.","latitude":38.889538,"description":"<a href=\"/companies/112\">M2Z Networks, Inc.</a>    2000 N. 14th Street , Suite 600, Arlington, VA 22201, USA","longitude":-77.082117,"id":"a62j80cne7tl"},"type":"Feature","geometry":{"type":"Point","coordinates":[-77.082117,38.889538]}},{"properties":{"name":"Sybase Business Intelligence Solutions","latitude":38.890448,"description":"<a href=\"/companies/201\">Sybase Business Intelligence Solutions</a>    4511 Singer Court, Chantilly, VA 20152, USA","longitude":-77.455587,"id":"a62j801kvasw"},"type":"Feature","geometry":{"type":"Point","coordinates":[-77.455587,38.890448]}},{"properties":{"name":"Fanzak.com","latitude":38.890541,"description":"<a href=\"/companies/414\">Fanzak.com</a>    1415 North Taft Street, Arlington, VA 22201, USA","longitude":-77.081414,"id":"a62j807ml5uj"},"type":"Feature","geometry":{"type":"Point","coordinates":[-77.081414,38.890541]}},{"properties":{"name":"Sophia Wireless, Inc","latitude":38.89076,"description":"<a href=\"/companies/59\">Sophia Wireless, Inc</a>    14225-C Sullyfield Circle, Chantilly, VA 20151, USA","longitude":-77.439278,"id":"a62j8068oald"},"type":"Feature","geometry":{"type":"Point","coordinates":[-77.439278,38.89076]}},{"properties":{"name":"TARP, Ltd","latitude":38.890761,"description":"<a href=\"/companies/159\">TARP, Ltd</a>    2425 Wilson Boulevard\\nSuite 400, Arlington, VA 22201, USA","longitude":-77.088133,"id":"a62j805sm10r"},"type":"Feature","geometry":{"type":"Point","coordinates":[-77.088133,38.890761]}},{"properties":{"name":"FortiusOne, Inc.","latitude":38.890838,"description":"<a href=\"/companies/141\">FortiusOne, Inc.</a>    2200 Wilson Blvd, Suite 307, Arlington, VA 22201, USA","longitude":-77.086146,"id":"a62j800ox3m5"},"type":"Feature","geometry":{"type":"Point","coordinates":[-77.086146,38.890838]}},{"properties":{"name":"Blue Ridge Networks, Inc.","latitude":38.892684,"description":"<a href=\"/companies/58\">Blue Ridge Networks, Inc.</a>    14120 Parke Long Ct. #103, Chantilly, VA 20151, USA","longitude":-77.436196,"id":"a62j80am8sr8"},"type":"Feature","geometry":{"type":"Point","coordinates":[-77.436196,38.892684]}},{"properties":{"name":"Compressus","latitude":38.893029,"description":"<a href=\"/companies/5\">Compressus</a>    101 Constitution Avenue, NW, Suite 800, Washington, DC 20001, USA","longitude":-77.013054,"id":"a62j802kmb3m"},"type":"Feature","geometry":{"type":"Point","coordinates":[-77.013054,38.893029]}},{"properties":{"name":"buySAFE, Inc.","latitude":38.894007,"description":"<a href=\"/companies/80\">buySAFE, Inc.</a>    1600 Wilson Blvd, Suite 600, Arlington, VA 22209, USA","longitude":-77.077156,"id":"a62j80ecopf8"},"type":"Feature","geometry":{"type":"Point","coordinates":[-77.077156,38.894007]}},{"properties":{"name":"Priva Technologies, Inc.","latitude":38.894101,"description":"<a href=\"/companies/290\">Priva Technologies, Inc.</a>    7932 Tire Swing Road, Dunn Loring, VA 22027, USA","longitude":-77.220684,"id":"a62j808epzch"},"type":"Feature","geometry":{"type":"Point","coordinates":[-77.220684,38.894101]}},{"properties":{"name":"Intersections, Inc.","latitude":38.894335,"description":"<a href=\"/companies/385\">Intersections, Inc.</a>    14901 Bogle Drive, Suite 300, Chantilly, VA 20153, USA","longitude":-77.461088,"id":"a62j8012hyyb"},"type":"Feature","geometry":{"type":"Point","coordinates":[-77.461088,38.894335]}},{"properties":{"name":"The HealthCentral Network","latitude":38.894403,"description":"<a href=\"/companies/82\">The HealthCentral Network</a>    1655 N Fort Myer Drive \\nSuite 400, Arlington, VA 22209, USA","longitude":-77.068267,"id":"a62j801tkt8f"},"type":"Feature","geometry":{"type":"Point","coordinates":[-77.068267,38.894403]}},{"properties":{"name":"Cyveillance, Inc.","latitude":38.89489,"description":"<a href=\"/companies/74\">Cyveillance, Inc.</a>    1555 Wilson Boulevard , Suite 406, Arlington, VA 22209, USA","longitude":-77.076032,"id":"a62j807a17h0"},"type":"Feature","geometry":{"type":"Point","coordinates":[-77.076032,38.89489]}},{"properties":{"name":"Backfence, Inc.","latitude":38.895034,"description":"<a href=\"/companies/382\">Backfence, Inc.</a>    P.O. Box 97, Dunn Loring, VA 22027, USA","longitude":-77.220454,"id":"a62j80dqtf8z"},"type":"Feature","geometry":{"type":"Point","coordinates":[-77.220454,38.895034]}},{"properties":{"name":"SwapDrive, Inc.","latitude":38.897566,"description":"<a href=\"/companies/51\">SwapDrive, Inc.</a>    1313 F Street, NW, Washington, DC 20004, USA","longitude":-77.030282,"id":"a62j80dnj8pi"},"type":"Feature","geometry":{"type":"Point","coordinates":[-77.030282,38.897566]}},{"properties":{"name":"Heekya","latitude":38.898713,"description":"<a href=\"/companies/418\">Heekya</a>    709 G. St. NW, Washington, DC 20001, USA","longitude":-77.022422,"id":"a62j80fqtosi"},"type":"Feature","geometry":{"type":"Point","coordinates":[-77.022422,38.898713]}},{"properties":{"name":"mindSHIFT Technologies, Inc.","latitude":38.900543,"description":"<a href=\"/companies/53\">mindSHIFT Technologies, Inc.</a>    1331 H Street NW, Suite 300A, Washington, DC 20005, USA","longitude":-77.030623,"id":"a62j8072osie"},"type":"Feature","geometry":{"type":"Point","coordinates":[-77.030623,38.900543]}},{"properties":{"name":"Eli Research, Inc.","latitude":38.9009,"description":"<a href=\"/companies/387\">Eli Research, Inc.</a>    PO Box 90324, Washington, DC 20090, USA","longitude":-77.0075,"id":"a62j80394tnq"},"type":"Feature","geometry":{"type":"Point","coordinates":[-77.0075,38.9009]}},{"properties":{"name":"Intridea, Inc.","latitude":38.901279,"description":"<a href=\"/companies/394\">Intridea, Inc.</a>    1875 I St. NW, Washington, DC 20006, USA","longitude":-77.043194,"id":"a62j805b6wzw"},"type":"Feature","geometry":{"type":"Point","coordinates":[-77.043194,38.901279]}},{"properties":{"name":"Vodiium","latitude":38.902765,"description":"<a href=\"/companies/81\">Vodiium</a>    1629 K ST. NW Suite 950, Washington, DC 20006, USA","longitude":-77.037942,"id":"a62j809snqlj"},"type":"Feature","geometry":{"type":"Point","coordinates":[-77.037942,38.902765]}},{"properties":{"name":"Nicor Global","latitude":38.902825,"description":"<a href=\"/companies/403\">Nicor Global</a>    1425 K St NW, Suite 350, Washington, DC 20005, USA","longitude":-77.032979,"id":"a62j8096s3sl"},"type":"Feature","geometry":{"type":"Point","coordinates":[-77.032979,38.902825]}},{"properties":{"name":"Inside Higher Ed, Inc.","latitude":38.902838,"description":"<a href=\"/companies/129\">Inside Higher Ed, Inc.</a>    2121 K Street NW Suite 630, Washington, DC 20037, USA","longitude":-77.047348,"id":"a62j8086k7b6"},"type":"Feature","geometry":{"type":"Point","coordinates":[-77.047348,38.902838]}},{"properties":{"name":"Prestwick Pharmaceuticals, Inc.","latitude":38.902847,"description":"<a href=\"/companies/94\">Prestwick Pharmaceuticals, Inc.</a>    1825 K Street NW, Suite 1475 , Washington, DC 20006, USA","longitude":-77.042546,"id":"a62j801upgnx"},"type":"Feature","geometry":{"type":"Point","coordinates":[-77.042546,38.902847]}},{"properties":{"name":"Cogent Comm.","latitude":38.90313,"description":"<a href=\"/companies/10\">Cogent Comm.</a>    1015 31st Street, NW, Washington, DC 20007, USA","longitude":-77.060995,"id":"a62j809vax5g"},"type":"Feature","geometry":{"type":"Point","coordinates":[-77.060995,38.90313]}},{"properties":{"name":"Gentag, Inc.","latitude":38.903207,"description":"<a href=\"/companies/174\">Gentag, Inc.</a>    3299 K Street, NW\\nSuite 100, Washington, DC 20007, USA","longitude":-77.064313,"id":"a62j8039vo0p"},"type":"Feature","geometry":{"type":"Point","coordinates":[-77.064313,38.903207]}},{"properties":{"name":"Interfolio","latitude":38.903511,"description":"<a href=\"/companies/402\">Interfolio</a>    1900 L St. NW Suite 603, Washington, DC 20036, USA","longitude":-77.043907,"id":"a62j80c0fu9f"},"type":"Feature","geometry":{"type":"Point","coordinates":[-77.043907,38.903511]}},{"properties":{"name":"Smarthinking","latitude":38.903511,"description":"<a href=\"/companies/100\">Smarthinking</a>    1900 L St, NW\\nSuite 301, Washington, DC 20036, USA","longitude":-77.043907,"id":"a62j807opkjj"},"type":"Feature","geometry":{"type":"Point","coordinates":[-77.043907,38.903511]}},{"properties":{"name":"Grassroots.com, Inc.","latitude":38.903945,"description":"<a href=\"/companies/18\">Grassroots.com, Inc.</a>    1101 17th Street NW Suite 1350,  Washington, DC 20036, USA","longitude":-77.038063,"id":"a62j80bmiokz"},"type":"Feature","geometry":{"type":"Point","coordinates":[-77.038063,38.903945]}},{"properties":{"name":"ARC Solutions","latitude":38.904469,"description":"<a href=\"/companies/30\">ARC Solutions</a>    1150 18th St., NW #975, Washington, DC 20036, USA","longitude":-77.042233,"id":"a62j806mhn78"},"type":"Feature","geometry":{"type":"Point","coordinates":[-77.042233,38.904469]}},{"properties":{"name":"TopTestPrep.com","latitude":38.904545,"description":"<a href=\"/companies/450\">TopTestPrep.com</a>    1027 33rd St. NW Suite 140, Washington, DC 20007, USA","longitude":-77.065633,"id":"a62j806ptkb7"},"type":"Feature","geometry":{"type":"Point","coordinates":[-77.065633,38.904545]}},{"properties":{"name":"ARPU, Inc.","latitude":38.904576,"description":"<a href=\"/companies/11\">ARPU, Inc.</a>    1027 33rd Street, Washington, DC 20007, USA","longitude":-77.065924,"id":"a62j80bpy2xu"},"type":"Feature","geometry":{"type":"Point","coordinates":[-77.065924,38.904576]}},{"properties":{"name":"EastBanc Technologies","latitude":38.905109,"description":"<a href=\"/companies/425\">EastBanc Technologies</a>    3312 M Street NW, Washington, DC 20007, USA","longitude":-77.06639,"id":"a62j80gecju0"},"type":"Feature","geometry":{"type":"Point","coordinates":[-77.06639,38.905109]}},{"properties":{"name":"Vision Chain, Inc.","latitude":38.906505,"description":"<a href=\"/companies/45\">Vision Chain, Inc.</a>    1250 24th St. NW, Suite 250, Washington, DC 20037, USA","longitude":-77.051789,"id":"a62j80cb86cs"},"type":"Feature","geometry":{"type":"Point","coordinates":[-77.051789,38.906505]}},{"properties":{"name":"Sucklevine Development, LLC","latitude":38.908089,"description":"<a href=\"/companies/419\">Sucklevine Development, LLC</a>    , Washington, D.C 20002, USA","longitude":-76.976663,"id":"a62j805n9is2"},"type":"Feature","geometry":{"type":"Point","coordinates":[-76.976663,38.908089]}},{"properties":{"name":"Bioscan, Inc.","latitude":38.909737,"description":"<a href=\"/companies/208\">Bioscan, Inc.</a>    4590 MacArthur Blvd, Washington, DC 20007, USA","longitude":-77.088943,"id":"a62j80bc9h4z"},"type":"Feature","geometry":{"type":"Point","coordinates":[-77.088943,38.909737]}},{"properties":{"name":"iStrategyLabs","latitude":38.910358,"description":"<a href=\"/companies/428\">iStrategyLabs</a>    1510 19th Street, NW, Washington, DC 20036, USA","longitude":-77.043403,"id":"a62j807u9y51"},"type":"Feature","geometry":{"type":"Point","coordinates":[-77.043403,38.910358]}},{"properties":{"name":"PointAbout","latitude":38.91163,"description":"<a href=\"/companies/409\">PointAbout</a>    3640 winfield lane nw, washington, dc 20007, USA","longitude":-77.071904,"id":"a62j806dysxz"},"type":"Feature","geometry":{"type":"Point","coordinates":[-77.071904,38.91163]}},{"properties":{"name":"CrossMine, Inc.","latitude":38.91165,"description":"<a href=\"/companies/416\">CrossMine, Inc.</a>    1970 Massachusetts Ave, McLean, VA 20101, USA","longitude":-77.156924,"id":"a62j8088bgj2"},"type":"Feature","geometry":{"type":"Point","coordinates":[-77.156924,38.91165]}},{"properties":{"name":"StartUpHire","latitude":38.912141,"description":"<a href=\"/companies/432\">StartUpHire</a>    1934 Old Gallows Road  Suite 350, Vienna, Virginia 22182, USA","longitude":-77.222355,"id":"a62j80dr5y7e"},"type":"Feature","geometry":{"type":"Point","coordinates":[-77.222355,38.912141]}},{"properties":{"name":"Parature, Inc.","latitude":38.912791,"description":"<a href=\"/companies/293\">Parature, Inc.</a>    8000 Towers Crescent Drive , #800, Vienna, VA 22182, USA","longitude":-77.220048,"id":"a62j803hd60m"},"type":"Feature","geometry":{"type":"Point","coordinates":[-77.220048,38.912791]}},{"properties":{"name":"eSecurity, Inc. (Formerly) Novell Sentinel (Now)","latitude":38.913282,"description":"<a href=\"/companies/102\">eSecurity, Inc. (Formerly) Novell Sentinel (Now)</a>    1921 Gallows Rd., Ste. 700\\n, Vienna, VA  22182, USA","longitude":-77.227946,"id":"a62j801qunr2"},"type":"Feature","geometry":{"type":"Point","coordinates":[-77.227946,38.913282]}},{"properties":{"name":"Telarix, Inc.","latitude":38.913472,"description":"<a href=\"/companies/391\">Telarix, Inc.</a>    8065 Leesburg Pike, Vienna, VA 22182-2789, USA","longitude":-77.223345,"id":"a62j8055f175"},"type":"Feature","geometry":{"type":"Point","coordinates":[-77.223345,38.913472]}},{"properties":{"name":"Foxcom Wireless, Ltd. (Formerly) MobileAccess Networks Ltd (Now)","latitude":38.914462,"description":"<a href=\"/companies/305\">Foxcom Wireless, Ltd. (Formerly) MobileAccess Networks Ltd (Now)</a>    8391 Old Courthouse Road\\nSuite 300, Vienna, VA 22182, USA","longitude":-77.235038,"id":"a62j805wdwto"},"type":"Feature","geometry":{"type":"Point","coordinates":[-77.235038,38.914462]}},{"properties":{"name":"MobileAccess Networks, Inc.","latitude":38.914462,"description":"<a href=\"/companies/306\">MobileAccess Networks, Inc.</a>    8391 Old Courthouse Road\\nSuite 300, Vienna, VA 22182, USA","longitude":-77.235038,"id":"a62j806kypdx"},"type":"Feature","geometry":{"type":"Point","coordinates":[-77.235038,38.914462]}},{"properties":{"name":"GrouperEye","latitude":38.915178,"description":"<a href=\"/companies/442\">GrouperEye</a>    3712 t street nw, washington, dc 20007, USA","longitude":-77.073367,"id":"a62j809axro9"},"type":"Feature","geometry":{"type":"Point","coordinates":[-77.073367,38.915178]}},{"properties":{"name":"Xtreme Spectrum, Inc.","latitude":38.91525,"description":"<a href=\"/companies/299\">Xtreme Spectrum, Inc.</a>    8133 Leesburg Pike, Suite 700, Vienna, VA 22182-2730, USA","longitude":-77.226198,"id":"a62j802n6ffs"},"type":"Feature","geometry":{"type":"Point","coordinates":[-77.226198,38.91525]}},{"properties":{"name":"Innovectra Corp.","latitude":38.916059,"description":"<a href=\"/companies/300\">Innovectra Corp.</a>    8150 Leesburg Pike,\\nSuite 1000, Vienna, VA 22182, USA","longitude":-77.226786,"id":"a62j80cqacn9"},"type":"Feature","geometry":{"type":"Point","coordinates":[-77.226786,38.916059]}},{"properties":{"name":"Liquidity Services, Inc.","latitude":38.916176,"description":"<a href=\"/companies/101\">Liquidity Services, Inc.</a>    1920 L St. NW, 6th Floor, washington, DC 20036, USA","longitude":-77.020298,"id":"a62j808hekkj"},"type":"Feature","geometry":{"type":"Point","coordinates":[-77.020298,38.916176]}},{"properties":{"name":"VidSys, Inc.","latitude":38.916588,"description":"<a href=\"/companies/401\">VidSys, Inc.</a>    8219 Leesburg Pike, Suite 250, Vienna, VA 22182, USA","longitude":-77.230979,"id":"a62j808n3z01"},"type":"Feature","geometry":{"type":"Point","coordinates":[-77.230979,38.916588]}},{"properties":{"name":"Hook Mobile","latitude":38.917237,"description":"<a href=\"/companies/303\">Hook Mobile</a>    8300 Boone Blvd. , Vienna, VA 22182, USA","longitude":-77.232657,"id":"a62j802kj258"},"type":"Feature","geometry":{"type":"Point","coordinates":[-77.232657,38.917237]}},{"properties":{"name":"videoNEXT Network Solutions, Inc.","latitude":38.919814,"description":"<a href=\"/companies/180\">videoNEXT Network Solutions, Inc.</a>    3852 Dulles South Court, Chantilly, VA 20151, USA","longitude":-77.453642,"id":"a62j800xsjqc"},"type":"Feature","geometry":{"type":"Point","coordinates":[-77.453642,38.919814]}},{"properties":{"name":"Trust Digital, LLC","latitude":38.920495,"description":"<a href=\"/companies/86\">Trust Digital, LLC</a>    1760 Old Meadow Rd Suite 550, Mclean, VA , USA","longitude":-77.21314,"id":"a62j807udb2l"},"type":"Feature","geometry":{"type":"Point","coordinates":[-77.21314,38.920495]}},{"properties":{"name":"TradeHarbor, Inc.","latitude":38.920745,"description":"<a href=\"/companies/415\">TradeHarbor, Inc.</a>    2965 Franklin Oaks Dr., Herndon, VA 20171, USA","longitude":-77.388268,"id":"a62j80c7v9uq"},"type":"Feature","geometry":{"type":"Point","coordinates":[-77.388268,38.920745]}},{"properties":{"name":"Giv.to","latitude":38.9224136,"description":"<a href=\"/companies/449\">Giv.to</a>    1308 Clifton St NW, Washington, DC 20009, USA","longitude":-77.0304494,"id":"a62j8078zp82"},"type":"Feature","geometry":{"type":"Point","coordinates":[-77.0304494,38.9224136]}},{"properties":{"name":"Mobile Posse, Inc.","latitude":38.92347,"description":"<a href=\"/companies/273\">Mobile Posse, Inc.</a>    7600 Colshire Drive, Suite 110, Mclean, VA 22102, USA","longitude":-77.206801,"id":"a62j808k3rj0"},"type":"Feature","geometry":{"type":"Point","coordinates":[-77.206801,38.92347]}},{"properties":{"name":"iBelong Networks, Inc.","latitude":38.92347,"description":"<a href=\"/companies/274\">iBelong Networks, Inc.</a>    7600 Colshire Drive.\\nSuite 250, McLean, VA 22102, USA","longitude":-77.206801,"id":"a62j802lv136"},"type":"Feature","geometry":{"type":"Point","coordinates":[-77.206801,38.92347]}},{"properties":{"name":"Digital Sandbox, Inc.","latitude":38.92391,"description":"<a href=\"/companies/302\">Digital Sandbox, Inc.</a>    8260 Greensboro Drive, Suite 200, McLean, VA 22102, USA","longitude":-77.229322,"id":"a62j80do9ve1"},"type":"Feature","geometry":{"type":"Point","coordinates":[-77.229322,38.92391]}},{"properties":{"name":"mPortal, Inc.","latitude":38.925218,"description":"<a href=\"/companies/281\">mPortal, Inc.</a>    7900 Westpark Drive, Suite A530 , Mclean, VA 22102, USA","longitude":-77.218935,"id":"a62j806jpfuv"},"type":"Feature","geometry":{"type":"Point","coordinates":[-77.218935,38.925218]}},{"properties":{"name":"Nimaya, Inc","latitude":38.925218,"description":"<a href=\"/companies/280\">Nimaya, Inc</a>    7900 Westpark Drive Suite T-300 , Mclean, VA 22102, USA","longitude":-77.218935,"id":"a62j80fha7bd"},"type":"Feature","geometry":{"type":"Point","coordinates":[-77.218935,38.925218]}},{"properties":{"name":"LogiXML, Inc.","latitude":38.925218,"description":"<a href=\"/companies/279\">LogiXML, Inc.</a>    7900 Westpark Drive Ste T107, Mclean, VA 22102, USA","longitude":-77.218935,"id":"a62j80f7i86t"},"type":"Feature","geometry":{"type":"Point","coordinates":[-77.218935,38.925218]}},{"properties":{"name":"Avectra, Inc","latitude":38.925272,"description":"<a href=\"/companies/282\">Avectra, Inc</a>    7901 Jones Branch Drive #500, Mclean, VA 22102, USA","longitude":-77.218836,"id":"a62j80du90wm"},"type":"Feature","geometry":{"type":"Point","coordinates":[-77.218836,38.925272]}},{"properties":{"name":"Number Six Software, Inc.","latitude":38.925967,"description":"<a href=\"/companies/78\">Number Six Software, Inc.</a>    1593 Spring Hill Road\\nSuite 220, Vienna, VA 22182, USA","longitude":-77.245176,"id":"a62j80cn54z3"},"type":"Feature","geometry":{"type":"Point","coordinates":[-77.245176,38.925967]}},{"properties":{"name":"Managed Objects Solutions, Inc.","latitude":38.92619,"description":"<a href=\"/companies/286\">Managed Objects Solutions, Inc.</a>    7925 Westpark Drive, McLean, VA 22102, USA","longitude":-77.22036,"id":"a62j80b8ncjb"},"type":"Feature","geometry":{"type":"Point","coordinates":[-77.22036,38.92619]}},{"properties":{"name":"FedBid, Inc.","latitude":38.926559,"description":"<a href=\"/companies/310\">FedBid, Inc.</a>    8500 Leesburg Pike, Vienna, VA 22182, USA","longitude":-77.237837,"id":"a62j807qe14z"},"type":"Feature","geometry":{"type":"Point","coordinates":[-77.237837,38.926559]}},{"properties":{"name":"Centrifuge System, Inc.","latitude":38.92719,"description":"<a href=\"/companies/288\">Centrifuge System, Inc.</a>    7926 Jones Branch Drive, Suite 210, Mclean, VA 22102, USA","longitude":-77.216969,"id":"a62j80f1m5d6"},"type":"Feature","geometry":{"type":"Point","coordinates":[-77.216969,38.92719]}},{"properties":{"name":"Jobfox, Inc.","latitude":38.92719,"description":"<a href=\"/companies/287\">Jobfox, Inc.</a>    7926 Jones Branch Drive, Suite 1100, Mclean, VA 22102, USA","longitude":-77.216969,"id":"a62j8034dqm7"},"type":"Feature","geometry":{"type":"Point","coordinates":[-77.216969,38.92719]}},{"properties":{"name":"SPADAC, Inc.","latitude":38.927723,"description":"<a href=\"/companies/285\">SPADAC, Inc.</a>    7921 Jones Branch Drive, Suite 600, McLean, VA 22102, USA","longitude":-77.217663,"id":"a62j8029sqnt"},"type":"Feature","geometry":{"type":"Point","coordinates":[-77.217663,38.927723]}},{"properties":{"name":"Clearspring Technologies, Inc.","latitude":38.928077,"description":"<a href=\"/companies/294\">Clearspring Technologies, Inc.</a>    8000 Westpark Dr., Suite 625, Mclean, VA 22102, USA","longitude":-77.222159,"id":"a62j80f6p4wy"},"type":"Feature","geometry":{"type":"Point","coordinates":[-77.222159,38.928077]}},{"properties":{"name":"JESS3","latitude":38.928435,"description":"<a href=\"/companies/422\">JESS3</a>    8350 Greensoro Dr, Suite 316, McLean, VA 22102, USA","longitude":-77.233323,"id":"a62j8046iujk"},"type":"Feature","geometry":{"type":"Point","coordinates":[-77.233323,38.928435]}},{"properties":{"name":"Induslogic, Inc (Global Logic)","latitude":38.929041,"description":"<a href=\"/companies/312\">Induslogic, Inc (Global Logic)</a>    8605 Westwood Center Drive, Suite 401, Vienna, VA 22182, USA","longitude":-77.245747,"id":"a62j80gfxt9c"},"type":"Feature","geometry":{"type":"Point","coordinates":[-77.245747,38.929041]}},{"properties":{"name":"GlobalLogic, Inc.","latitude":38.929041,"description":"<a href=\"/companies/397\">GlobalLogic, Inc.</a>    8605 Westwood Center Drive, Suite 401 , Vienna, VA 22182, USA","longitude":-77.245747,"id":"a62j80bpptp6"},"type":"Feature","geometry":{"type":"Point","coordinates":[-77.245747,38.929041]}},{"properties":{"name":"IXI Corporation","latitude":38.930148,"description":"<a href=\"/companies/289\">IXI Corporation</a>    7927 Jones Branch Drive #400, McLean, VA 22102, USA","longitude":-77.219419,"id":"a62j80e42jel"},"type":"Feature","geometry":{"type":"Point","coordinates":[-77.219419,38.930148]}},{"properties":{"name":"Starbridge Media Group, Inc.","latitude":38.931011,"description":"<a href=\"/companies/250\">Starbridge Media Group, Inc.</a>    6723 Whittier Avenue, McLean, VA 22101, USA","longitude":-77.176844,"id":"a62j80dmtizh"},"type":"Feature","geometry":{"type":"Point","coordinates":[-77.176844,38.931011]}},{"properties":{"name":"CyanGate","latitude":38.9311897,"description":"<a href=\"/companies/443\">CyanGate</a>    1523 Lincoln Way #203, McLean, VA 22102, USA","longitude":-77.228413,"id":"a62j80260zjo"},"type":"Feature","geometry":{"type":"Point","coordinates":[-77.228413,38.9311897]}},{"properties":{"name":"RaySat, Inc.","latitude":38.933458,"description":"<a href=\"/companies/308\">RaySat, Inc.</a>    8460-D Tyco Road, Vienna, VA 2282, USA","longitude":-77.237939,"id":"a62j8096ob10"},"type":"Feature","geometry":{"type":"Point","coordinates":[-77.237939,38.933458]}},{"properties":{"name":"Cyren Call Communications Corp.","latitude":38.93534,"description":"<a href=\"/companies/275\">Cyren Call Communications Corp.</a>    7601 Lewinsville Rd, Suite 201, Mclean, VA 22102, USA","longitude":-77.206787,"id":"a62j8087sqgg"},"type":"Feature","geometry":{"type":"Point","coordinates":[-77.206787,38.93534]}},{"properties":{"name":"Xact Check","latitude":38.9387704,"description":"<a href=\"/companies/438\">Xact Check</a>    P.O. Box 40070, Washington, DC 20016, USA","longitude":-77.0967357,"id":"a62j80847vok"},"type":"Feature","geometry":{"type":"Point","coordinates":[-77.0967357,38.9387704]}},{"properties":{"name":"BrandClik","latitude":38.942295,"description":"<a href=\"/companies/404\">BrandClik</a>    1889 Preston White Dr. Suite 100, Reston, VA 20191, USA","longitude":-77.329845,"id":"a62j802frfgf"},"type":"Feature","geometry":{"type":"Point","coordinates":[-77.329845,38.942295]}},{"properties":{"name":"Avail Media","latitude":38.942851,"description":"<a href=\"/companies/25\">Avail Media</a>    11190 Sunrise Valley Drive, Reston, VA 20191, USA","longitude":-77.332965,"id":"a62j803jnyin"},"type":"Feature","geometry":{"type":"Point","coordinates":[-77.332965,38.942851]}},{"properties":{"name":"Intellitactics, Inc.","latitude":38.943136,"description":"<a href=\"/companies/89\">Intellitactics, Inc.</a>    1800 Alexander Bell Drive Suite 500, Reston, VA 20191, USA","longitude":-77.321339,"id":"a62j80e21h4q"},"type":"Feature","geometry":{"type":"Point","coordinates":[-77.321339,38.943136]}},{"properties":{"name":"Digital Harbor","latitude":38.94339,"description":"<a href=\"/companies/96\">Digital Harbor</a>    1851 Alexander Bell Drive, Suite 200, Reston, VA 20191, USA","longitude":-77.323516,"id":"a62j800kkvx9"},"type":"Feature","geometry":{"type":"Point","coordinates":[-77.323516,38.94339]}},{"properties":{"name":"Voxant, Inc.","latitude":38.94339,"description":"<a href=\"/companies/95\">Voxant, Inc.</a>    1851 Alexander Bell Dr Ste 350 , Reston , VA 20191, USA","longitude":-77.323516,"id":"a62j80dg7osp"},"type":"Feature","geometry":{"type":"Point","coordinates":[-77.323516,38.94339]}},{"properties":{"name":"Rannoch Corp.","latitude":38.943432,"description":"<a href=\"/companies/98\">Rannoch Corp.</a>    1881 Campus Commons Dr, Suite 101, Reston, VA 20191, USA","longitude":-77.334226,"id":"a62j80bphf81"},"type":"Feature","geometry":{"type":"Point","coordinates":[-77.334226,38.943432]}},{"properties":{"name":"CorasWorks Corporation","latitude":38.945201,"description":"<a href=\"/companies/38\">CorasWorks Corporation</a>    12007 Sunrise Valley Drive, Suite 285, Reston, VA 20191, USA","longitude":-77.317452,"id":"a62j805uuaa4"},"type":"Feature","geometry":{"type":"Point","coordinates":[-77.317452,38.945201]}},{"properties":{"name":"ClaraBridge, Inc.","latitude":38.946455,"description":"<a href=\"/companies/28\">ClaraBridge, Inc.</a>    11400 Commerce Park Drive, Suite 500, Reston, VA 20191, USA","longitude":-77.340656,"id":"a62j801bhhph"},"type":"Feature","geometry":{"type":"Point","coordinates":[-77.340656,38.946455]}},{"properties":{"name":"SecureInfo Corporation","latitude":38.947644,"description":"<a href=\"/companies/57\">SecureInfo Corporation</a>    1410 Spring Hill Road, Suite 250, McLean, VA 22102, USA","longitude":-77.227474,"id":"a62j80fxsnjk"},"type":"Feature","geometry":{"type":"Point","coordinates":[-77.227474,38.947644]}},{"properties":{"name":"mBeat Media, Inc.","latitude":38.94794,"description":"<a href=\"/companies/398\">mBeat Media, Inc.</a>    11600 Sunrise Valley Drive, Suite 440, Reston, VA 20191, USA","longitude":-77.347961,"id":"a62j80gn2v2m"},"type":"Feature","geometry":{"type":"Point","coordinates":[-77.347961,38.94794]}},{"properties":{"name":"ObjectVideo, Inc","latitude":38.94794,"description":"<a href=\"/companies/32\">ObjectVideo, Inc</a>    11600 Sunrise Valley Drive, Suite 290, Reston, VA 20191, USA","longitude":-77.347961,"id":"a62j809p9ayn"},"type":"Feature","geometry":{"type":"Point","coordinates":[-77.347961,38.94794]}},{"properties":{"name":"Netuitive, Inc.","latitude":38.948058,"description":"<a href=\"/companies/46\">Netuitive, Inc.</a>    12700 Sunrise Valley Drive , Reston, VA 20191, USA","longitude":-77.387925,"id":"a62j807rfydh"},"type":"Feature","geometry":{"type":"Point","coordinates":[-77.387925,38.948058]}},{"properties":{"name":"Ai Metrix, Inc.","latitude":38.948352,"description":"<a href=\"/companies/93\">Ai Metrix, Inc.</a>    1821 Michael Faraday Dr. 400, Reston, VA 20190, USA","longitude":-77.332437,"id":"a62j807tszdx"},"type":"Feature","geometry":{"type":"Point","coordinates":[-77.332437,38.948352]}},{"properties":{"name":"IntraPoint, Inc.","latitude":38.949027,"description":"<a href=\"/companies/34\">IntraPoint, Inc.</a>    11720 Sunrise Valley Drive, Suite 350, Reston, VA 20191, USA","longitude":-77.351401,"id":"a62j80c6t8nm"},"type":"Feature","geometry":{"type":"Point","coordinates":[-77.351401,38.949027]}},{"properties":{"name":"Defywire, Inc.","latitude":38.949115,"description":"<a href=\"/companies/36\">Defywire, Inc.</a>    11800 Sunrise Valley Drive, Suite 1135, Reston, VA 20191, USA","longitude":-77.354035,"id":"a62j800im7ev"},"type":"Feature","geometry":{"type":"Point","coordinates":[-77.354035,38.949115]}},{"properties":{"name":"Approva Corp.","latitude":38.95015,"description":"<a href=\"/companies/105\">Approva Corp.</a>    1950 Roland Clarke Place #300, Reston, VA 20191, USA","longitude":-77.351083,"id":"a62j80ah0bc3"},"type":"Feature","geometry":{"type":"Point","coordinates":[-77.351083,38.95015]}},{"properties":{"name":"AnnuityNet, Inc.","latitude":38.950372,"description":"<a href=\"/companies/151\">AnnuityNet, Inc.</a>    2350 Corporate Park Drive, Herndon, VA 20175, USA","longitude":-77.396135,"id":"a62j8079tuhb"},"type":"Feature","geometry":{"type":"Point","coordinates":[-77.396135,38.950372]}},{"properties":{"name":"Trusted Computer Solutions, Inc.","latitude":38.950372,"description":"<a href=\"/companies/150\">Trusted Computer Solutions, Inc.</a>    2350 Corporate Park Drive Suite 500, Herndon, VA 20171, USA","longitude":-77.396135,"id":"a62j80arwu7m"},"type":"Feature","geometry":{"type":"Point","coordinates":[-77.396135,38.950372]}},{"properties":{"name":"ComSCore Networks, Inc.","latitude":38.95057,"description":"<a href=\"/companies/29\">ComSCore Networks, Inc.</a>    11465 Sunset Hills Road, Suite 200, Reston, VA 20190, USA","longitude":-77.341086,"id":"a62j803d0oam"},"type":"Feature","geometry":{"type":"Point","coordinates":[-77.341086,38.95057]}},{"properties":{"name":"K12, Inc.","latitude":38.951411,"description":"<a href=\"/companies/147\">K12, Inc.</a>    2300 Corporate Park Drive, Herndon, VA 21071, USA","longitude":-77.395919,"id":"a62j803ng95z"},"type":"Feature","geometry":{"type":"Point","coordinates":[-77.395919,38.951411]}},{"properties":{"name":"Brabeion Software Corp.","latitude":38.95228,"description":"<a href=\"/companies/103\">Brabeion Software Corp.</a>    1943 Isaac Newton Square, Suite 150, Reston, VA 20190, USA","longitude":-77.339596,"id":"a62j802t7157"},"type":"Feature","geometry":{"type":"Point","coordinates":[-77.339596,38.95228]}},{"properties":{"name":"Cernium, Inc.","latitude":38.95228,"description":"<a href=\"/companies/104\">Cernium, Inc.</a>    1943 Isaac Newton Square, Suite 200, Reston, VA 20190, USA","longitude":-77.339596,"id":"a62j80eds5ua"},"type":"Feature","geometry":{"type":"Point","coordinates":[-77.339596,38.95228]}},{"properties":{"name":"Cinea, Inc.","latitude":38.952289,"description":"<a href=\"/companies/33\">Cinea, Inc.</a>    11710 Plaza America Drive, Suite 530, Reston, VA 20190, USA","longitude":-77.351006,"id":"a62j80d88z6z"},"type":"Feature","geometry":{"type":"Point","coordinates":[-77.351006,38.952289]}},{"properties":{"name":"Intersect Software, Inc.","latitude":38.953873,"description":"<a href=\"/companies/127\">Intersect Software, Inc.</a>    2121 Cooperative Way, Suite 210 , Herndon, VA  20171, USA","longitude":-77.402948,"id":"a62j800vmcij"},"type":"Feature","geometry":{"type":"Point","coordinates":[-77.402948,38.953873]}},{"properties":{"name":"Realops, Inc.","latitude":38.953873,"description":"<a href=\"/companies/128\">Realops, Inc.</a>    2121 Cooperative Way, Suite 450, Herndon, VA 20171, USA","longitude":-77.402948,"id":"a62j806zocoj"},"type":"Feature","geometry":{"type":"Point","coordinates":[-77.402948,38.953873]}},{"properties":{"name":"Mantas","latitude":38.954667,"description":"<a href=\"/companies/54\">Mantas</a>    13650 Dulles Technology Dr., Suite 300, Herndon, VA 20171, USA","longitude":-77.416296,"id":"a62j804udcx3"},"type":"Feature","geometry":{"type":"Point","coordinates":[-77.416296,38.954667]}},{"properties":{"name":"Command Information, Inc.","latitude":38.954731,"description":"<a href=\"/companies/55\">Command Information, Inc.</a>    13655 Dulles Technology Dr, Suite 100, Herndon, VA 20171, USA","longitude":-77.416275,"id":"a62j807cxq0w"},"type":"Feature","geometry":{"type":"Point","coordinates":[-77.416275,38.954731]}},{"properties":{"name":"Sands Research Inc.","latitude":38.954815,"description":"<a href=\"/companies/430\">Sands Research Inc.</a>    12801 Worldgate Drive, Herndon, VA 20170, USA","longitude":-77.388919,"id":"a62j80eoha1j"},"type":"Feature","geometry":{"type":"Point","coordinates":[-77.388919,38.954815]}},{"properties":{"name":"InfoEther, Inc.","latitude":38.954815,"description":"<a href=\"/companies/47\">InfoEther, Inc.</a>    12801 Worldgate Drive Suite 500, Herndon, VA 20170, USA","longitude":-77.388919,"id":"a62j808fd0k4"},"type":"Feature","geometry":{"type":"Point","coordinates":[-77.388919,38.954815]}},{"properties":{"name":"JNetDirect Inc.","latitude":38.954815,"description":"<a href=\"/companies/429\">JNetDirect Inc.</a>    12801 Worldgate Drive, Herndon, VA 20170, USA","longitude":-77.388919,"id":"a62j80bh5850"},"type":"Feature","geometry":{"type":"Point","coordinates":[-77.388919,38.954815]}},{"properties":{"name":"Lambda Optical Systems Corp.","latitude":38.954829,"description":"<a href=\"/companies/39\">Lambda Optical Systems Corp.</a>    12100 Sunset Hills Road, Suite 100, Reston, VA 20190, USA","longitude":-77.363709,"id":"a62j807e55m4"},"type":"Feature","geometry":{"type":"Point","coordinates":[-77.363709,38.954829]}},{"properties":{"name":"Ruckus Network, Inc.","latitude":38.95487,"description":"<a href=\"/companies/48\">Ruckus Network, Inc.</a>    12901 Worldgate Dr, Herndon, VA 20170, USA","longitude":-77.392258,"id":"a62j80863b7k"},"type":"Feature","geometry":{"type":"Point","coordinates":[-77.392258,38.95487]}},{"properties":{"name":"ePipeline.com, Inc.","latitude":38.954928,"description":"<a href=\"/companies/239\">ePipeline.com, Inc.</a>    580 Herndon Parkway\\nSuite 300\\n, Herndon, VA 20170, USA","longitude":-77.384063,"id":"a62j8017tqlm"},"type":"Feature","geometry":{"type":"Point","coordinates":[-77.384063,38.954928]}},{"properties":{"name":"Ecutel Systems, Inc.","latitude":38.955042,"description":"<a href=\"/companies/242\">Ecutel Systems, Inc.</a>    590 Herndon Parkway\\nSuite 350, Herndon, VA 20170, USA","longitude":-77.384724,"id":"a62j809k0txr"},"type":"Feature","geometry":{"type":"Point","coordinates":[-77.384724,38.955042]}},{"properties":{"name":"Ecutel, Inc.","latitude":38.955042,"description":"<a href=\"/companies/241\">Ecutel, Inc.</a>    590 Herndon Parkway, Herndon, VA 20170, USA","longitude":-77.384724,"id":"a62j801nuwr3"},"type":"Feature","geometry":{"type":"Point","coordinates":[-77.384724,38.955042]}},{"properties":{"name":"Secure Elements, Inc.","latitude":38.956457,"description":"<a href=\"/companies/107\">Secure Elements, Inc.</a>    198 Van Buren Street, Suite 110, Herndon, VA 20170, USA","longitude":-77.388359,"id":"a62j8095t5mu"},"type":"Feature","geometry":{"type":"Point","coordinates":[-77.388359,38.956457]}},{"properties":{"name":"ATM National, LLC","latitude":38.95648,"description":"<a href=\"/companies/270\">ATM National, LLC</a>    7315 Wisconsin Avenue, #750 East, Bethesda, MD 20814, USA","longitude":-77.083536,"id":"a62j80g5v6dv"},"type":"Feature","geometry":{"type":"Point","coordinates":[-77.083536,38.95648]}},{"properties":{"name":"nexVortex, Inc.","latitude":38.956896,"description":"<a href=\"/companies/209\">nexVortex, Inc.</a>    460 Herndon Pkwy., Ste. 250 , Herndon, VA 20170, USA","longitude":-77.376573,"id":"a62j804w8sb9"},"type":"Feature","geometry":{"type":"Point","coordinates":[-77.376573,38.956896]}},{"properties":{"name":"Pack-Rat Portable Mini Storage","latitude":38.958387,"description":"<a href=\"/companies/234\">Pack-Rat Portable Mini Storage</a>    5225 Wisconsin Avenue, NW, Suite 503 , Washington, DC 20015, USA","longitude":-77.084088,"id":"a62j80g0m8is"},"type":"Feature","geometry":{"type":"Point","coordinates":[-77.084088,38.958387]}},{"properties":{"name":"Security Services of America","latitude":38.9589,"description":"<a href=\"/companies/345\">Security Services of America</a>    9470 Annapolis Road, Suite 312, Lanham, MD 20706, USA","longitude":-76.85308,"id":"a62j80e4j68n"},"type":"Feature","geometry":{"type":"Point","coordinates":[-76.85308,38.9589]}},{"properties":{"name":"Logicstudio Corporation","latitude":38.9594124,"description":"<a href=\"/companies/431\">Logicstudio Corporation</a>    11921 Freedom Drive #550, Reston, Virginia 20190, USA","longitude":-77.3563279,"id":"a62j8011jewk"},"type":"Feature","geometry":{"type":"Point","coordinates":[-77.3563279,38.9594124]}},{"properties":{"name":"Definitive Business Solutions, Inc.","latitude":38.9594124,"description":"<a href=\"/companies/434\">Definitive Business Solutions, Inc.</a>    11921 Freedom Drive, Suite 550, Reston, Virginia 20190, USA","longitude":-77.3563279,"id":"a62j809zx3dn"},"type":"Feature","geometry":{"type":"Point","coordinates":[-77.3563279,38.9594124]}},{"properties":{"name":"VisualCV, Inc.","latitude":38.959424,"description":"<a href=\"/companies/37\">VisualCV, Inc.</a>    11951 Freedom Drive, Suite 1300, Reston, VA 20190, USA","longitude":-77.356539,"id":"a62j8045aypq"},"type":"Feature","geometry":{"type":"Point","coordinates":[-77.356539,38.959424]}},{"properties":{"name":"MagicSoft Corp.","latitude":38.960173,"description":"<a href=\"/companies/148\">MagicSoft Corp.</a>    2325 Dulles Corner Blvd., Suite 670, Herndon, VA 20171, USA","longitude":-77.422058,"id":"a62j809ohrnk"},"type":"Feature","geometry":{"type":"Point","coordinates":[-77.422058,38.960173]}},{"properties":{"name":"IntelliTech Microsystems, Inc.","latitude":38.960302,"description":"<a href=\"/companies/227\">IntelliTech Microsystems, Inc.</a>    4931 Telsa Drive, Suite B, Bowie, MD 20715, USA","longitude":-76.70702,"id":"a62j80b6n7qc"},"type":"Feature","geometry":{"type":"Point","coordinates":[-76.70702,38.960302]}},{"properties":{"name":"LogicTree Corp.","latitude":38.960302,"description":"<a href=\"/companies/226\">LogicTree Corp.</a>    4901 Telsa Drive, Suite F, Bowie, MD 20715, USA","longitude":-76.70702,"id":"a62j8020bibt"},"type":"Feature","geometry":{"type":"Point","coordinates":[-76.70702,38.960302]}},{"properties":{"name":"Vocus, Inc.","latitude":38.962429,"description":"<a href=\"/companies/231\">Vocus, Inc.</a>    505 Huntmar Park DR, Herndon, VA 20170, USA","longitude":-77.381477,"id":"a62j807o0bgd"},"type":"Feature","geometry":{"type":"Point","coordinates":[-77.381477,38.962429]}},{"properties":{"name":"Renaissance lighting, Inc.","latitude":38.962641,"description":"<a href=\"/companies/221\">Renaissance lighting, Inc.</a>    480 Springpark Pl, Suite 900, Herndon, VA 20170, USA","longitude":-77.377852,"id":"a62j80apmfij"},"type":"Feature","geometry":{"type":"Point","coordinates":[-77.377852,38.962641]}},{"properties":{"name":"Mpowerplayer, Inc.","latitude":38.962876,"description":"<a href=\"/companies/277\">Mpowerplayer, Inc.</a>    763 Fountain Drive Suite 105 , Reston, VA 20190, USA","longitude":-77.356343,"id":"a62j80g5efuu"},"type":"Feature","geometry":{"type":"Point","coordinates":[-77.356343,38.962876]}},{"properties":{"name":"JackBe Corp.","latitude":38.963492,"description":"<a href=\"/companies/211\">JackBe Corp.</a>    4600 N. Park Ave., Suite 200, Chevy Chase, MD 20815, USA","longitude":-77.091025,"id":"a62j808jz6bq"},"type":"Feature","geometry":{"type":"Point","coordinates":[-77.091025,38.963492]}},{"properties":{"name":"SquareLoop, Inc.","latitude":38.964058,"description":"<a href=\"/companies/87\">SquareLoop, Inc.</a>    1763 Fountain Drive, Suite 101, Reston, VA 20190, USA","longitude":-77.355938,"id":"a62j80avn1fl"},"type":"Feature","geometry":{"type":"Point","coordinates":[-77.355938,38.964058]}},{"properties":{"name":"iNeoMarketing (PluraPage)","latitude":38.966521,"description":"<a href=\"/companies/122\">iNeoMarketing (PluraPage)</a>    208 Elden Street #204, Herndon, VA 20170, USA","longitude":-77.369138,"id":"a62j80f9aj4m"},"type":"Feature","geometry":{"type":"Point","coordinates":[-77.369138,38.966521]}},{"properties":{"name":"JB Cubed","latitude":38.967607,"description":"<a href=\"/companies/237\">JB Cubed</a>    555 Grove Street, Suite 200, Herndon, VA 21070, USA","longitude":-77.381108,"id":"a62j80f4e87o"},"type":"Feature","geometry":{"type":"Point","coordinates":[-77.381108,38.967607]}},{"properties":{"name":"Advanced Thermal and Environmental Concepts, Inc.","latitude":38.977648,"description":"<a href=\"/companies/262\">Advanced Thermal and Environmental Concepts, Inc.</a>    7100 Baltimore Avenue, Suite 300, College Park, MD 20740, USA","longitude":-76.937891,"id":"a62j80di8c27"},"type":"Feature","geometry":{"type":"Point","coordinates":[-76.937891,38.977648]}},{"properties":{"name":"Overture Corp.","latitude":38.97846,"description":"<a href=\"/companies/251\">Overture Corp.</a>    6900 Wisconsin Avenue Suite 200 , Bethesda, MD 20815, USA","longitude":-77.091659,"id":"a62j80caj20c"},"type":"Feature","geometry":{"type":"Point","coordinates":[-77.091659,38.97846]}},{"properties":{"name":"Wondir, Inc.","latitude":38.978613,"description":"<a href=\"/companies/254\">Wondir, Inc.</a>    6912 Nevis Rd, Bethesda, MD 20817, USA","longitude":-77.149602,"id":"a62j80cm93rw"},"type":"Feature","geometry":{"type":"Point","coordinates":[-77.149602,38.978613]}},{"properties":{"name":"Optinuity, Inc.","latitude":38.980415,"description":"<a href=\"/companies/263\">Optinuity, Inc.</a>    7101 Wisconsin Ave, #1100, Bethesda, MD 20814, USA","longitude":-77.091992,"id":"a62j80732e05"},"type":"Feature","geometry":{"type":"Point","coordinates":[-77.091992,38.980415]}},{"properties":{"name":"Kajeet, Inc.","latitude":38.9806,"description":"<a href=\"/companies/379\">Kajeet, Inc.</a>    P.O. Box 30804, Bethesda, MD 20824, USA","longitude":-77.1008,"id":"a62j8042tdt6"},"type":"Feature","geometry":{"type":"Point","coordinates":[-77.1008,38.9806]}},{"properties":{"name":"4 Wave, Inc.","latitude":38.980704,"description":"<a href=\"/companies/146\">4 Wave, Inc.</a>    22977 Eaglewood Court, Suite 120, Sterling, VA 20166, USA","longitude":-77.446917,"id":"a62j80bzz7tg"},"type":"Feature","geometry":{"type":"Point","coordinates":[-77.446917,38.980704]}},{"properties":{"name":"Honest Tea, Inc.","latitude":38.981101,"description":"<a href=\"/companies/223\">Honest Tea, Inc.</a>    4827 Bethesda Avenue, Bethesda, MD 20814, USA","longitude":-77.096884,"id":"a62j80ai0kx9"},"type":"Feature","geometry":{"type":"Point","coordinates":[-77.096884,38.981101]}},{"properties":{"name":"MobileCom Networks, Inc.","latitude":38.98181,"description":"<a href=\"/companies/266\">MobileCom Networks, Inc.</a>    7201 Wisconsin Ave., Suite 780, Bethesda, MD 20814, USA","longitude":-77.092691,"id":"a62j801rg961"},"type":"Feature","geometry":{"type":"Point","coordinates":[-77.092691,38.98181]}},{"properties":{"name":"MobiApps Holdings Pte, Ltd.","latitude":38.982533,"description":"<a href=\"/companies/268\">MobiApps Holdings Pte, Ltd.</a>    7315 Wisconsin Ave,, Bethesda, MD 20814, USA","longitude":-77.093279,"id":"a62j808luvaj"},"type":"Feature","geometry":{"type":"Point","coordinates":[-77.093279,38.982533]}},{"properties":{"name":"Prematics, Inc.","latitude":38.982533,"description":"<a href=\"/companies/269\">Prematics, Inc.</a>    7315 Wisconsin Avenue, #200W, Bethesda, MD 20814, USA","longitude":-77.093279,"id":"a62j80grym3x"},"type":"Feature","geometry":{"type":"Point","coordinates":[-77.093279,38.982533]}},{"properties":{"name":"Message Level, Inc","latitude":38.982765,"description":"<a href=\"/companies/222\">Message Level, Inc</a>    4800 Hampden Ln., Bethesda, MD 20814, USA","longitude":-77.094974,"id":"a62j805iw7x1"},"type":"Feature","geometry":{"type":"Point","coordinates":[-77.094974,38.982765]}},{"properties":{"name":"ADF Solutions, Inc.","latitude":38.983819,"description":"<a href=\"/companies/214\">ADF Solutions, Inc.</a>    4641 Montgomery Ave, #515, Bethesda, MD 20814, USA","longitude":-77.092738,"id":"a62j800z0nk5"},"type":"Feature","geometry":{"type":"Point","coordinates":[-77.092738,38.983819]}},{"properties":{"name":"Hamilton Pharmaceuticals, Inc. (acquired by Neuren Pharmaceuticals Ltd.)","latitude":38.984172,"description":"<a href=\"/companies/169\">Hamilton Pharmaceuticals, Inc. (acquired by Neuren Pharmaceuticals Ltd.)</a>    3 Bethesda Metro Center, Suite 700, Bethesda, MD 20814, USA","longitude":-77.095965,"id":"a62j80g7avw6"},"type":"Feature","geometry":{"type":"Point","coordinates":[-77.095965,38.984172]}},{"properties":{"name":"Honesty Online","latitude":38.984881,"description":"<a href=\"/companies/405\">Honesty Online</a>    4600 East-West Highway, Suite 200, Bethesda, MD 20814, USA","longitude":-77.092694,"id":"a62j806ptkfg"},"type":"Feature","geometry":{"type":"Point","coordinates":[-77.092694,38.984881]}},{"properties":{"name":"Sucampo Pharmaceuticals, Inc","latitude":38.985029,"description":"<a href=\"/companies/202\">Sucampo Pharmaceuticals, Inc</a>    4520 East West Highway, Bethesda, MD 20814, USA","longitude":-77.091404,"id":"a62j80gawgq8"},"type":"Feature","geometry":{"type":"Point","coordinates":[-77.091404,38.985029]}},{"properties":{"name":"CodeRyte, Inc.","latitude":38.985041,"description":"<a href=\"/companies/272\">CodeRyte, Inc.</a>    7500 Old Georgetown Rd, Suite 800, Bethesda, MD 20814, USA","longitude":-77.09509,"id":"a62j80adhah3"},"type":"Feature","geometry":{"type":"Point","coordinates":[-77.09509,38.985041]}},{"properties":{"name":"Fidelis Security Systems, Inc.","latitude":38.985517,"description":"<a href=\"/companies/198\">Fidelis Security Systems, Inc.</a>    4416 East West Highway \\nSuite 310, Bethesda, MD 20814, USA","longitude":-77.088308,"id":"a62j809tlapx"},"type":"Feature","geometry":{"type":"Point","coordinates":[-77.088308,38.985517]}},{"properties":{"name":"Brivo Systems","latitude":38.986112,"description":"<a href=\"/companies/196\">Brivo Systems</a>    4330 East West Highway Suite 450\\n, Bethesda, MD 20814, USA","longitude":-77.08616,"id":"a62j800df1fg"},"type":"Feature","geometry":{"type":"Point","coordinates":[-77.08616,38.986112]}},{"properties":{"name":"KoolSpan, Inc.","latitude":38.987594,"description":"<a href=\"/companies/228\">KoolSpan, Inc.</a>    4962 Fairmont Ave, Bethesda, MD 20814, USA","longitude":-77.097479,"id":"a62j80fmtg24"},"type":"Feature","geometry":{"type":"Point","coordinates":[-77.097479,38.987594]}},{"properties":{"name":"LeukoSight, Inc.","latitude":38.987621,"description":"<a href=\"/companies/22\">LeukoSight, Inc.</a>    231 B Campus Drive, College Park, MD 20742, USA","longitude":-76.941193,"id":"a62j80772xia"},"type":"Feature","geometry":{"type":"Point","coordinates":[-76.941193,38.987621]}},{"properties":{"name":"Paxfire, Inc.","latitude":38.988367,"description":"<a href=\"/companies/206\">Paxfire, Inc.</a>    45665 Willow Pond Plaza , Sterling, VA 20164, USA","longitude":-77.421054,"id":"a62j806tq83t"},"type":"Feature","geometry":{"type":"Point","coordinates":[-77.421054,38.988367]}},{"properties":{"name":"MobiLaps, LLC","latitude":38.989124,"description":"<a href=\"/companies/296\">MobiLaps, LLC</a>    8070 Georgia Ave #304, Silver Spring, MD 20910, USA","longitude":-77.026676,"id":"a62j80gj9d6i"},"type":"Feature","geometry":{"type":"Point","coordinates":[-77.026676,38.989124]}},{"properties":{"name":"InfraTrac, Inc.","latitude":38.989124,"description":"<a href=\"/companies/389\">InfraTrac, Inc.</a>    8070 Georgia Ave, Silver Spring, MD 20910, USA","longitude":-77.026676,"id":"a62j80ei0k0g"},"type":"Feature","geometry":{"type":"Point","coordinates":[-77.026676,38.989124]}},{"properties":{"name":"GeniusRocket","latitude":38.989264,"description":"<a href=\"/companies/426\">GeniusRocket</a>    7920 Norfolk Ave, #701, Bethesda, MD 20814, USA","longitude":-77.097842,"id":"a62j8029iw2n"},"type":"Feature","geometry":{"type":"Point","coordinates":[-77.097842,38.989264]}},{"properties":{"name":"Get Well Network, Inc.","latitude":38.989264,"description":"<a href=\"/companies/284\">Get Well Network, Inc.</a>    7920 Norfolk Ave., Bethesda, MD 20814, USA","longitude":-77.097842,"id":"a62j8089t1x5"},"type":"Feature","geometry":{"type":"Point","coordinates":[-77.097842,38.989264]}},{"properties":{"name":"Exent Technologies, Inc.","latitude":38.989277,"description":"<a href=\"/companies/283\">Exent Technologies, Inc.</a>    7910 Woodmont Avenue, Bethesda, MD 20814, USA","longitude":-77.096523,"id":"a62j8028qrq9"},"type":"Feature","geometry":{"type":"Point","coordinates":[-77.096523,38.989277]}},{"properties":{"name":"New Hope Pharmaceuticals","latitude":38.99013,"description":"<a href=\"/companies/224\">New Hope Pharmaceuticals</a>    4853 Cordell Avenue, Bethesda, MD 20814, USA","longitude":-77.097402,"id":"a62j809q4ojl"},"type":"Feature","geometry":{"type":"Point","coordinates":[-77.097402,38.99013]}},{"properties":{"name":"Evolvent Tech., Inc.","latitude":38.991042,"description":"<a href=\"/companies/1\">Evolvent Tech., Inc.</a>    100 Carpenter Drive, Suite 206, Dulles, VA 20164, USA","longitude":-77.420308,"id":"a62j8042sisu"},"type":"Feature","geometry":{"type":"Point","coordinates":[-77.420308,38.991042]}},{"properties":{"name":"TRX Systems, Inc","latitude":38.992699,"description":"<a href=\"/companies/182\">TRX Systems, Inc</a>    387 Technology Drive, College Park, MD 20742, USA","longitude":-76.93873,"id":"a62j80172dm6"},"type":"Feature","geometry":{"type":"Point","coordinates":[-76.93873,38.992699]}},{"properties":{"name":"Pixelligent Technologies, LLC","latitude":38.992699,"description":"<a href=\"/companies/181\">Pixelligent Technologies, LLC</a>    387 Tchnology Dr Ste 3122, College Park, MD 20742, USA","longitude":-76.93873,"id":"a62j80cblssr"},"type":"Feature","geometry":{"type":"Point","coordinates":[-76.93873,38.992699]}},{"properties":{"name":"TV One LLC","latitude":38.994364,"description":"<a href=\"/companies/8\">TV One LLC</a>    1010 Wayne Ave, Silver Spring, MD 20910, USA","longitude":-77.027534,"id":"a62j801l7eaa"},"type":"Feature","geometry":{"type":"Point","coordinates":[-77.027534,38.994364]}},{"properties":{"name":"Freewebs, Inc.","latitude":38.994369,"description":"<a href=\"/companies/17\">Freewebs, Inc.</a>    1100 Wayne Avenue, Suite 801, Silver Spring, VA 20910, USA","longitude":-77.028502,"id":"a62j805ts9vp"},"type":"Feature","geometry":{"type":"Point","coordinates":[-77.028502,38.994369]}},{"properties":{"name":"Cryptek, Inc.","latitude":38.994389,"description":"<a href=\"/companies/71\">Cryptek, Inc.</a>    1501 Moran Road, Sterling, VA 20166, USA","longitude":-77.444065,"id":"a62j80ci27s2"},"type":"Feature","geometry":{"type":"Point","coordinates":[-77.444065,38.994389]}},{"properties":{"name":"CityNet Telecommunications","latitude":38.994679,"description":"<a href=\"/companies/307\">CityNet Telecommunications</a>    8405 Colesville Road, Silver Spring, MD 20910, USA","longitude":-77.03055,"id":"a62j805cofub"},"type":"Feature","geometry":{"type":"Point","coordinates":[-77.03055,38.994679]}},{"properties":{"name":"SkyBitz, Inc.","latitude":38.994884,"description":"<a href=\"/companies/144\">SkyBitz, Inc.</a>    22455 Davis Dr\\nSuite 100 , Sterling, VA 20164, USA","longitude":-77.423074,"id":"a62j80cct8ri"},"type":"Feature","geometry":{"type":"Point","coordinates":[-77.423074,38.994884]}},{"properties":{"name":"Tag Media Network","latitude":38.998103,"description":"<a href=\"/companies/142\">Tag Media Network</a>    22355 TAG Way, Dulles, VA 20166, USA","longitude":-77.438955,"id":"a62j800iscub"},"type":"Feature","geometry":{"type":"Point","coordinates":[-77.438955,38.998103]}},{"properties":{"name":"Pervasive Technology Engineering, LLC","latitude":38.998542,"description":"<a href=\"/companies/43\">Pervasive Technology Engineering, LLC</a>    124 Westway, Greenbelt, MD 20768, USA","longitude":-76.883766,"id":"a62j80ek7dbo"},"type":"Feature","geometry":{"type":"Point","coordinates":[-76.883766,38.998542]}},{"properties":{"name":"Iktara &amp; Associates, LLC","latitude":38.999616,"description":"<a href=\"/companies/313\">Iktara &amp; Associates, LLC</a>    8824 Burning Tree Road, Bethesda, MD 20817, USA","longitude":-77.138154,"id":"a62j80eqd7fs"},"type":"Feature","geometry":{"type":"Point","coordinates":[-77.138154,38.999616]}},{"properties":{"name":"Secure Methods, Inc.","latitude":39.010754,"description":"<a href=\"/companies/219\">Secure Methods, Inc.</a>    4705 Broad Brook Drive, Bethesda, MD 20814, USA","longitude":-77.093622,"id":"a62j80gigil2"},"type":"Feature","geometry":{"type":"Point","coordinates":[-77.093622,39.010754]}},{"properties":{"name":"NetStrategies","latitude":39.015547,"description":"<a href=\"/companies/410\">NetStrategies</a>    21711 Filigree Court, Suite 136, Ashburn, VA 20147, USA","longitude":-77.460346,"id":"a62j80426lzs"},"type":"Feature","geometry":{"type":"Point","coordinates":[-77.460346,39.015547]}},{"properties":{"name":"ORBCOMM, Inc.","latitude":39.016347,"description":"<a href=\"/companies/137\">ORBCOMM, Inc.</a>    21700 Atlantic Boulevard , Dulles, VA 20166, USA","longitude":-77.428471,"id":"a62j8018khcw"},"type":"Feature","geometry":{"type":"Point","coordinates":[-77.428471,39.016347]}},{"properties":{"name":"DigitalBridge Communications Corporation","latitude":39.017872,"description":"<a href=\"/companies/200\">DigitalBridge Communications Corporation</a>    44675 Cape Court Suite 130 Ashburn, Ashburn, MD 20147, USA","longitude":-77.455228,"id":"a62j80cq37we"},"type":"Feature","geometry":{"type":"Point","coordinates":[-77.455228,39.017872]}},{"properties":{"name":"Airak, Inc.","latitude":39.020645,"description":"<a href=\"/companies/135\">Airak, Inc.</a>    21641 Beaumeade Circle, Ste. 301, Ashburn, VA 20147, USA","longitude":-77.457185,"id":"a62j80bodapa"},"type":"Feature","geometry":{"type":"Point","coordinates":[-77.457185,39.020645]}},{"properties":{"name":"Current Analysis, Inc.","latitude":39.024959,"description":"<a href=\"/companies/132\">Current Analysis, Inc.</a>    21335 Signal Hill Plaza, Suite 200, Sterling, VA 20164, USA","longitude":-77.389691,"id":"a62j80cvz8ea"},"type":"Feature","geometry":{"type":"Point","coordinates":[-77.389691,39.024959]}},{"properties":{"name":"Anystream, Inc.","latitude":39.024959,"description":"<a href=\"/companies/131\">Anystream, Inc.</a>    21335 Signal Hill Plaza, Sterling, VA 20164, USA","longitude":-77.389691,"id":"a62j80gpmysv"},"type":"Feature","geometry":{"type":"Point","coordinates":[-77.389691,39.024959]}},{"properties":{"name":"Everest Software, Inc.","latitude":39.026419,"description":"<a href=\"/companies/134\">Everest Software, Inc.</a>    21631 Ridgetop Circle\\nSuite 100, Dulles, VA 20166, USA","longitude":-77.40705,"id":"a62j80b0m1xb"},"type":"Feature","geometry":{"type":"Point","coordinates":[-77.40705,39.026419]}},{"properties":{"name":"South49 Solutions LLC","latitude":39.028377,"description":"<a href=\"/companies/390\">South49 Solutions LLC</a>    21240 Ridgetop Circle, Sterling, VA 20166, USA","longitude":-77.412079,"id":"a62j804umucf"},"type":"Feature","geometry":{"type":"Point","coordinates":[-77.412079,39.028377]}},{"properties":{"name":"American WholeHealth, Inc.","latitude":39.02937,"description":"<a href=\"/companies/213\">American WholeHealth, Inc.</a>    46040 Center Oak Plz, Sterling, VA 20166-6595, USA","longitude":-77.407434,"id":"a62j80akn1mp"},"type":"Feature","geometry":{"type":"Point","coordinates":[-77.407434,39.02937]}},{"properties":{"name":"Arxan Technologies","latitude":39.029433,"description":"<a href=\"/companies/253\">Arxan Technologies</a>    6903 Rockledge Drive, Suite 910, Rockville, MD 20817, USA","longitude":-77.138545,"id":"a62j8046cb79"},"type":"Feature","geometry":{"type":"Point","coordinates":[-77.138545,39.029433]}},{"properties":{"name":"Cardiocore Lab, Inc.","latitude":39.029474,"description":"<a href=\"/companies/252\">Cardiocore Lab, Inc.</a>    6901 Rockledge Drive, Suite #700, Bethesda, MD 20817, USA","longitude":-77.138511,"id":"a62j8011n8d1"},"type":"Feature","geometry":{"type":"Point","coordinates":[-77.138511,39.029474]}},{"properties":{"name":"eNumerate Solutions , Inc.","latitude":39.030452,"description":"<a href=\"/companies/378\">eNumerate Solutions , Inc.</a>    P.O. Box 179 22066, Great Falls, VA  22066, USA","longitude":-77.347427,"id":"a62j805z0l66"},"type":"Feature","geometry":{"type":"Point","coordinates":[-77.347427,39.030452]}},{"properties":{"name":"Cigital, Inc.","latitude":39.03254,"description":"<a href=\"/companies/133\">Cigital, Inc.</a>    21351 Ridgetop Circle, Suite 400, Dulles, VA 20166, USA","longitude":-77.412262,"id":"a62j80cql36a"},"type":"Feature","geometry":{"type":"Point","coordinates":[-77.412262,39.03254]}},{"properties":{"name":"LaserLink Technology, LLC","latitude":39.049374,"description":"<a href=\"/companies/83\">LaserLink Technology, LLC</a>    17 Saddlerock Court, Silver Spring, MD 20902, USA","longitude":-77.02249,"id":"a62j80c5aj91"},"type":"Feature","geometry":{"type":"Point","coordinates":[-77.02249,39.049374]}},{"properties":{"name":"Alertus Tech., LLC","latitude":39.050662,"description":"<a href=\"/companies/35\">Alertus Tech., LLC</a>    11785 Beltsville Drive, Suite 1325, Beltsville, MD 20705, USA","longitude":-76.936955,"id":"a62j8082h5xg"},"type":"Feature","geometry":{"type":"Point","coordinates":[-76.936955,39.050662]}},{"properties":{"name":"Sentori, Inc.","latitude":39.052254,"description":"<a href=\"/companies/41\">Sentori, Inc.</a>    12211 Plum Orchard Drive, Suite 320, Silver Spring, MD 20904, USA","longitude":-76.958165,"id":"a62j80filude"},"type":"Feature","geometry":{"type":"Point","coordinates":[-76.958165,39.052254]}},{"properties":{"name":"Appfluent Technology, Inc.","latitude":39.053061,"description":"<a href=\"/companies/244\">Appfluent Technology, Inc.</a>    6001 Montrose Road, Suite 804, Rockville, MD 20852, USA","longitude":-77.12117,"id":"a62j80bqb7mo"},"type":"Feature","geometry":{"type":"Point","coordinates":[-77.12117,39.053061]}},{"properties":{"name":"Aguru Images, Inc.","latitude":39.053061,"description":"<a href=\"/companies/243\">Aguru Images, Inc.</a>    6001 Montrose Rd, #1000, Rockville, MD 20852, USA","longitude":-77.12117,"id":"a62j80504nj4"},"type":"Feature","geometry":{"type":"Point","coordinates":[-77.12117,39.053061]}},{"properties":{"name":"InfoCruiser (Appfluent Technology)","latitude":39.053061,"description":"<a href=\"/companies/245\">InfoCruiser (Appfluent Technology)</a>    6001 Montrose Road, Suite 804, Rockville , MD 20852, USA","longitude":-77.12117,"id":"a62j80evi8dr"},"type":"Feature","geometry":{"type":"Point","coordinates":[-77.12117,39.053061]}},{"properties":{"name":"Foligo Therapeutics, Inc.","latitude":39.056754,"description":"<a href=\"/companies/40\">Foligo Therapeutics, Inc.</a>    12111 Parklawn Drive Suite 115, Rockville, MD 20852, USA","longitude":-77.108607,"id":"a62j805cyeia"},"type":"Feature","geometry":{"type":"Point","coordinates":[-77.108607,39.056754]}},{"properties":{"name":"B2emarkets, Inc.","latitude":39.058374,"description":"<a href=\"/companies/172\">B2emarkets, Inc.</a>    3202 Tower Oaks Boulevard, Rockville, MD 20852, USA","longitude":-77.151907,"id":"a62j806ygt7r"},"type":"Feature","geometry":{"type":"Point","coordinates":[-77.151907,39.058374]}},{"properties":{"name":"hegati","latitude":39.059101,"description":"<a href=\"/companies/436\">hegati</a>    964 Farm Haven Dr., Rockville, MD 20852, USA","longitude":-77.142932,"id":"a62j80gpikw6"},"type":"Feature","geometry":{"type":"Point","coordinates":[-77.142932,39.059101]}},{"properties":{"name":"BioServe BioTechnologies, Ltd.","latitude":39.063098,"description":"<a href=\"/companies/317\">BioServe BioTechnologies, Ltd.</a>    9000 Virginia Manor Road, Suite #207, Beltsville, MD 20705, USA","longitude":-76.891452,"id":"a62j800uhgkz"},"type":"Feature","geometry":{"type":"Point","coordinates":[-76.891452,39.063098]}},{"properties":{"name":"Neocera","latitude":39.063112,"description":"<a href=\"/companies/3\">Neocera</a>    10000 Virginia Manor Road , Beltsville, MD 20705, USA","longitude":-76.891443,"id":"a62j8028nc3k"},"type":"Feature","geometry":{"type":"Point","coordinates":[-76.891443,39.063112]}},{"properties":{"name":"SEGMA, LLC.","latitude":39.0756,"description":"<a href=\"/companies/383\">SEGMA, LLC.</a>    PO Box 10332, Silver Spring, MD 20914, USA","longitude":-77.0022,"id":"a62j80byc6aa"},"type":"Feature","geometry":{"type":"Point","coordinates":[-77.0022,39.0756]}},{"properties":{"name":"Lightwave Comm.","latitude":39.089689,"description":"<a href=\"/companies/66\">Lightwave Comm.</a>    14504 Greenview Drive, Laurel, MD 20708, USA","longitude":-76.844166,"id":"a62j801tnfux"},"type":"Feature","geometry":{"type":"Point","coordinates":[-76.844166,39.089689]}},{"properties":{"name":"Odyssey Technologies, Inc.","latitude":39.089689,"description":"<a href=\"/companies/67\">Odyssey Technologies, Inc.</a>    14504 Greenview Drive Suite 100 , Laurel, MD 20708, USA","longitude":-76.844166,"id":"a62j80ctoshh"},"type":"Feature","geometry":{"type":"Point","coordinates":[-76.844166,39.089689]}},{"properties":{"name":"Hi-G-Tek, Inc.","latitude":39.092132,"description":"<a href=\"/companies/60\">Hi-G-Tek, Inc.</a>    1445 Research Blvd\\nSuite 150, Rockville, MD 20850, USA","longitude":-77.178673,"id":"a62j804uy0hs"},"type":"Feature","geometry":{"type":"Point","coordinates":[-77.178673,39.092132]}},{"properties":{"name":"MacroGenics, Inc","latitude":39.094917,"description":"<a href=\"/companies/68\">MacroGenics, Inc</a>    1500 East Gude Drive, Rockville, MD 20850, USA","longitude":-77.13262,"id":"a62j80aziiuz"},"type":"Feature","geometry":{"type":"Point","coordinates":[-77.13262,39.094917]}},{"properties":{"name":"MacroGenics, Inc.","latitude":39.094917,"description":"<a href=\"/companies/69\">MacroGenics, Inc.</a>    1500 East Gude Drive, Rockville, MD 20850, USA","longitude":-77.13262,"id":"a62j801p6n7c"},"type":"Feature","geometry":{"type":"Point","coordinates":[-77.13262,39.094917]}},{"properties":{"name":"3CLogic, Inc","latitude":39.096721,"description":"<a href=\"/companies/361\">3CLogic, Inc</a>    9700 Great Seneca Hwy, Rockville, MD 20850, USA","longitude":-77.203816,"id":"a62j80295l1o"},"type":"Feature","geometry":{"type":"Point","coordinates":[-77.203816,39.096721]}},{"properties":{"name":"Envisionier Medical Technologies LLC","latitude":39.096721,"description":"<a href=\"/companies/363\">Envisionier Medical Technologies LLC</a>    9700 Great Seneca Hwy, Rockville, MD 20850, USA","longitude":-77.203816,"id":"a62j80aqdhbc"},"type":"Feature","geometry":{"type":"Point","coordinates":[-77.203816,39.096721]}},{"properties":{"name":"TeleContinuity, Inc.","latitude":39.096721,"description":"<a href=\"/companies/357\">TeleContinuity, Inc.</a>    9700 Great Seneca Highway\\n, Rockville, MD 20850, USA","longitude":-77.203816,"id":"a62j8027qq35"},"type":"Feature","geometry":{"type":"Point","coordinates":[-77.203816,39.096721]}},{"properties":{"name":"NeoDiagnostix, Inc","latitude":39.096721,"description":"<a href=\"/companies/358\">NeoDiagnostix, Inc</a>    9700 Great Seneca Highway , Rockville, MD 20850, USA","longitude":-77.203816,"id":"a62j80gi3w8j"},"type":"Feature","geometry":{"type":"Point","coordinates":[-77.203816,39.096721]}},{"properties":{"name":"BioFactura, Inc.","latitude":39.096721,"description":"<a href=\"/companies/362\">BioFactura, Inc.</a>    9700 Great Seneca Hwy, Rockville, MD 20850, USA","longitude":-77.203816,"id":"a62j80gujr0v"},"type":"Feature","geometry":{"type":"Point","coordinates":[-77.203816,39.096721]}},{"properties":{"name":"eClinForce.com, Inc.","latitude":39.096721,"description":"<a href=\"/companies/359\">eClinForce.com, Inc.</a>    9700 Great Seneca Highway, #112, Rockville, MD 20850, USA","longitude":-77.203816,"id":"a62j80efypit"},"type":"Feature","geometry":{"type":"Point","coordinates":[-77.203816,39.096721]}},{"properties":{"name":"netXccel, Inc","latitude":39.096721,"description":"<a href=\"/companies/364\">netXccel, Inc</a>    9700 Great Seneca Hwy, #152, Rockville, MD 20850, USA","longitude":-77.203816,"id":"a62j80cjw8ab"},"type":"Feature","geometry":{"type":"Point","coordinates":[-77.203816,39.096721]}},{"properties":{"name":"CertusNet, Inc.","latitude":39.096721,"description":"<a href=\"/companies/360\">CertusNet, Inc.</a>    9700 Great Seneca Highway, Rockville, MD 20850, USA","longitude":-77.203816,"id":"a62j80grls5x"},"type":"Feature","geometry":{"type":"Point","coordinates":[-77.203816,39.096721]}},{"properties":{"name":"Imagimed","latitude":39.101426,"description":"<a href=\"/companies/347\">Imagimed</a>    9601 Blackwell Road, Suite 275, Rockville, MD 20850, USA","longitude":-77.193077,"id":"a62j8065ng1v"},"type":"Feature","geometry":{"type":"Point","coordinates":[-77.193077,39.101426]}},{"properties":{"name":"Synthetic Genomics, Inc.","latitude":39.101426,"description":"<a href=\"/companies/346\">Synthetic Genomics, Inc.</a>    9601 Blackwell Road, Suite 200, Rockville, MD 20850, USA","longitude":-77.193077,"id":"a62j806tf48q"},"type":"Feature","geometry":{"type":"Point","coordinates":[-77.193077,39.101426]}},{"properties":{"name":"Comware, Inc.","latitude":39.102106,"description":"<a href=\"/companies/145\">Comware, Inc.</a>    2275 Research Blvd, Suite 500, Rockville, MD 20850, USA","longitude":-77.183443,"id":"a62j806yw6r8"},"type":"Feature","geometry":{"type":"Point","coordinates":[-77.183443,39.102106]}},{"properties":{"name":"Vanda Pharmaceuticals, Inc.","latitude":39.10261,"description":"<a href=\"/companies/349\">Vanda Pharmaceuticals, Inc.</a>    9605 Medical Center Drive, Suite 300, Rockville, MD 20850, USA","longitude":-77.196117,"id":"a62j80fcyhdz"},"type":"Feature","geometry":{"type":"Point","coordinates":[-77.196117,39.10261]}},{"properties":{"name":"Promogen, Inc.","latitude":39.10261,"description":"<a href=\"/companies/348\">Promogen, Inc.</a>    9605 Medical Center Drive, Suite 200, Rockville, MD 20850, USA","longitude":-77.196117,"id":"a62j806aym82"},"type":"Feature","geometry":{"type":"Point","coordinates":[-77.196117,39.10261]}},{"properties":{"name":"CytImmune Science, Inc.","latitude":39.102656,"description":"<a href=\"/companies/353\">CytImmune Science, Inc.</a>    9640 Medical Center Drive, Rockville , MD 20850, USA","longitude":-77.195726,"id":"a62j803uj633"},"type":"Feature","geometry":{"type":"Point","coordinates":[-77.195726,39.102656]}},{"properties":{"name":"Trusted Edge","latitude":39.103583,"description":"<a href=\"/companies/339\">Trusted Edge</a>    9400 Key West Avenue, Rockville, MD 20850, USA","longitude":-77.191683,"id":"a62j80bh759f"},"type":"Feature","geometry":{"type":"Point","coordinates":[-77.191683,39.103583]}},{"properties":{"name":"FileTek, Inc.","latitude":39.103583,"description":"<a href=\"/companies/399\">FileTek, Inc.</a>     9400 Key West Ave, Rockville, MD 20850, USA","longitude":-77.191683,"id":"a62j80fkutdo"},"type":"Feature","geometry":{"type":"Point","coordinates":[-77.191683,39.103583]}},{"properties":{"name":"CoGenesys, Inc","latitude":39.103589,"description":"<a href=\"/companies/340\">CoGenesys, Inc</a>    9410 Key West Avenue, Rockville, MD 20850, USA","longitude":-77.191695,"id":"a62j809lljzl"},"type":"Feature","geometry":{"type":"Point","coordinates":[-77.191695,39.103589]}},{"properties":{"name":"20/20 GeneSystems, Inc.","latitude":39.104266,"description":"<a href=\"/companies/341\">20/20 GeneSystems, Inc.</a>    9430 Key West Ave, Rockville, MD 20850, USA","longitude":-77.193244,"id":"a62j80gekl26"},"type":"Feature","geometry":{"type":"Point","coordinates":[-77.193244,39.104266]}},{"properties":{"name":"Ariadne Genomics, Inc.","latitude":39.104266,"description":"<a href=\"/companies/342\">Ariadne Genomics, Inc.</a>    9430 Key West Ave. #113, Rockville, MD 20850, USA","longitude":-77.193244,"id":"a62j806o679s"},"type":"Feature","geometry":{"type":"Point","coordinates":[-77.193244,39.104266]}},{"properties":{"name":"Adlyfe, Inc.","latitude":39.104266,"description":"<a href=\"/companies/343\">Adlyfe, Inc.</a>    9430 Key West Avenue, Rockville, MD 20850, USA","longitude":-77.193244,"id":"a62j807foka3"},"type":"Feature","geometry":{"type":"Point","coordinates":[-77.193244,39.104266]}},{"properties":{"name":"Amulet Pharmaceuticals, Inc.","latitude":39.104266,"description":"<a href=\"/companies/344\">Amulet Pharmaceuticals, Inc.</a>    9430 Key West Avenue, Suite 120, Rockville, MD 20850, USA","longitude":-77.193244,"id":"a62j804sbwti"},"type":"Feature","geometry":{"type":"Point","coordinates":[-77.193244,39.104266]}},{"properties":{"name":"NetStar-1, Inc.","latitude":39.104409,"description":"<a href=\"/companies/365\">NetStar-1, Inc.</a>    9713 Key West Ave Ste 400, Rockville, MD 20850, USA","longitude":-77.203803,"id":"a62j803t763z"},"type":"Feature","geometry":{"type":"Point","coordinates":[-77.203803,39.104409]}},{"properties":{"name":"Mirari Biosciences, Inc.","latitude":39.104543,"description":"<a href=\"/companies/351\">Mirari Biosciences, Inc.</a>    9610 Medical Center Drive, Suite 240, Rockville, MD 20850, USA","longitude":-77.196253,"id":"a62j800hyj5q"},"type":"Feature","geometry":{"type":"Point","coordinates":[-77.196253,39.104543]}},{"properties":{"name":"Sequella, Inc.","latitude":39.104543,"description":"<a href=\"/companies/350\">Sequella, Inc.</a>    9610 Medical Center Drive, Suite 200, Rockville, MD 20850, USA","longitude":-77.196253,"id":"a62j803jf7tx"},"type":"Feature","geometry":{"type":"Point","coordinates":[-77.196253,39.104543]}},{"properties":{"name":"VorCat, Inc.","latitude":39.105555,"description":"<a href=\"/companies/56\">VorCat, Inc.</a>    1370 Piccard Drive Suite 210, Rockville, MD 20850, USA","longitude":-77.179772,"id":"a62j80dg6ns9"},"type":"Feature","geometry":{"type":"Point","coordinates":[-77.179772,39.105555]}},{"properties":{"name":"Hillcrest Laboratories, Inc.","latitude":39.107738,"description":"<a href=\"/companies/73\">Hillcrest Laboratories, Inc.</a>    15245 Shady Grove Road,, Rockville, MD 20850, USA","longitude":-77.188977,"id":"a62j80cmpx4v"},"type":"Feature","geometry":{"type":"Point","coordinates":[-77.188977,39.107738]}},{"properties":{"name":"Naviscan PET Systems","latitude":39.108818,"description":"<a href=\"/companies/276\">Naviscan PET Systems</a>    7617 Standish Place , Rockville, MD 20855, USA","longitude":-77.155423,"id":"a62j8063r3ur"},"type":"Feature","geometry":{"type":"Point","coordinates":[-77.155423,39.108818]}},{"properties":{"name":"Artesia Tech., Inc.","latitude":39.111881,"description":"<a href=\"/companies/256\">Artesia Tech., Inc.</a>    700 King Farm Boulevard, Suite 400, Rockville, MD 20850, USA","longitude":-77.177777,"id":"a62j80a6we10"},"type":"Feature","geometry":{"type":"Point","coordinates":[-77.177777,39.111881]}},{"properties":{"name":"InTank (Berkeley Springs Instruments)","latitude":39.11278,"description":"<a href=\"/companies/327\">InTank (Berkeley Springs Instruments)</a>    9115-k Whiskey Bottom Road, Laurel, MD 20723, USA","longitude":-76.828397,"id":"a62j809eackx"},"type":"Feature","geometry":{"type":"Point","coordinates":[-76.828397,39.11278]}},{"properties":{"name":"Intelliworks, Inc.","latitude":39.116333,"description":"<a href=\"/companies/123\">Intelliworks, Inc.</a>    2092 Gaither Road, Suite 100, Rockville, MD 20850, USA","longitude":-77.181307,"id":"a62j807i8jnz"},"type":"Feature","geometry":{"type":"Point","coordinates":[-77.181307,39.116333]}},{"properties":{"name":"sentitO Networks, Inc.","latitude":39.116479,"description":"<a href=\"/companies/124\">sentitO Networks, Inc.</a>    2096 Gaither Road, Suite 100, Rockville, MD 20850, USA","longitude":-77.181164,"id":"a62j80c1mm76"},"type":"Feature","geometry":{"type":"Point","coordinates":[-77.181164,39.116479]}},{"properties":{"name":"Medifacts International Corp.","latitude":39.117301,"description":"<a href=\"/companies/126\">Medifacts International Corp.</a>    2101 Gaither Road, Suite 400, Rockville, MD 20850, USA","longitude":-77.182595,"id":"a62j80bij1kc"},"type":"Feature","geometry":{"type":"Point","coordinates":[-77.182595,39.117301]}},{"properties":{"name":"Minkon Biotechnology, Inc.","latitude":39.117322,"description":"<a href=\"/companies/77\">Minkon Biotechnology, Inc.</a>    15875 Gaither Drive, Gaithersburg, MD 20877, USA","longitude":-77.191932,"id":"a62j804o27p2"},"type":"Feature","geometry":{"type":"Point","coordinates":[-77.191932,39.117322]}},{"properties":{"name":"Immunomic Therapeutics, Inc.","latitude":39.117772,"description":"<a href=\"/companies/336\">Immunomic Therapeutics, Inc.</a>    9290 Gaither Road, Gaithersburg, MD 20877, USA","longitude":-77.191783,"id":"a62j805lzb04"},"type":"Feature","geometry":{"type":"Point","coordinates":[-77.191783,39.117772]}},{"properties":{"name":"Expression Pathology, Inc.","latitude":39.117772,"description":"<a href=\"/companies/335\">Expression Pathology, Inc.</a>    9290 Gaither Road, Gaithersburg, MD 20877, USA","longitude":-77.191783,"id":"a62j808h41te"},"type":"Feature","geometry":{"type":"Point","coordinates":[-77.191783,39.117772]}},{"properties":{"name":"Capital Genomix, Inc.","latitude":39.117772,"description":"<a href=\"/companies/334\">Capital Genomix, Inc.</a>    9290 Gaither Road, Gaithersburg, MD 20877, USA","longitude":-77.191783,"id":"a62j8088s8k9"},"type":"Feature","geometry":{"type":"Point","coordinates":[-77.191783,39.117772]}},{"properties":{"name":"Chicken Out, Inc.","latitude":39.1191,"description":"<a href=\"/companies/79\">Chicken Out, Inc.</a>    15952 Shady Grove Road, Gaithersburg, MD 20877, USA","longitude":-77.182566,"id":"a62j80gtfdo3"},"type":"Feature","geometry":{"type":"Point","coordinates":[-77.182566,39.1191]}},{"properties":{"name":"NexTone Communications, Inc.","latitude":39.128785,"description":"<a href=\"/companies/7\">NexTone Communications, Inc.</a>    101 Orchard Ridge Drive, Suite 300 , Gaithersburg, MD 20878, USA","longitude":-77.233299,"id":"a62j80gakg2l"},"type":"Feature","geometry":{"type":"Point","coordinates":[-77.233299,39.128785]}},{"properties":{"name":"GlycoMimetics, Inc","latitude":39.128785,"description":"<a href=\"/companies/6\">GlycoMimetics, Inc</a>    101 Orchard Ridge Drive, Gaithersburg, MD 20878, USA","longitude":-77.233299,"id":"a62j80e52fvp"},"type":"Feature","geometry":{"type":"Point","coordinates":[-77.233299,39.128785]}},{"properties":{"name":"Chesapeake PERL","latitude":39.135446,"description":"<a href=\"/companies/311\">Chesapeake PERL</a>    8510A Corridor Road, Savage, MD 20763, USA","longitude":-76.814112,"id":"a62j80akv31o"},"type":"Feature","geometry":{"type":"Point","coordinates":[-76.814112,39.135446]}},{"properties":{"name":"MaxCyte, Inc.","latitude":39.139842,"description":"<a href=\"/companies/138\">MaxCyte, Inc.</a>    22 Firstfield Road, Suite 250, Gaithersburg, MD 20878, USA","longitude":-77.224631,"id":"a62j804uux1f"},"type":"Feature","geometry":{"type":"Point","coordinates":[-77.224631,39.139842]}},{"properties":{"name":"Psychiatric Genomics","latitude":39.140454,"description":"<a href=\"/companies/99\">Psychiatric Genomics</a>    19 Firstfield Rd., Gaithersburg, MD 20878, USA","longitude":-77.224607,"id":"a62j803rtcmr"},"type":"Feature","geometry":{"type":"Point","coordinates":[-77.224607,39.140454]}},{"properties":{"name":"Panacea Pharmaceuticals, Inc","latitude":39.140699,"description":"<a href=\"/companies/121\">Panacea Pharmaceuticals, Inc</a>    207 Perry Parkway, #2, Gaithersburg, MD 20877, USA","longitude":-77.20944,"id":"a62j80dhf00u"},"type":"Feature","geometry":{"type":"Point","coordinates":[-77.20944,39.140699]}},{"properties":{"name":"Hygea BioPharma, Inc. (formerly) Panacea Pharmaceuticals (now)","latitude":39.140699,"description":"<a href=\"/companies/120\">Hygea BioPharma, Inc. (formerly) Panacea Pharmaceuticals (now)</a>    207 Perry Parkway\\nSuite 2, Gaithersburg, MD  20877, USA","longitude":-77.20944,"id":"a62j80fqbl35"},"type":"Feature","geometry":{"type":"Point","coordinates":[-77.20944,39.140699]}},{"properties":{"name":"VIRxSYS Corp.","latitude":39.140954,"description":"<a href=\"/companies/111\">VIRxSYS Corp.</a>    200 Perry Parkway, Suite 1A, Gaithersburg, MD 20877, USA","longitude":-77.209421,"id":"a62j809ggh4l"},"type":"Feature","geometry":{"type":"Point","coordinates":[-77.209421,39.140954]}},{"properties":{"name":"Intronn, Inc.","latitude":39.140954,"description":"<a href=\"/companies/110\">Intronn, Inc.</a>    200 Perry Parkway, Suite 1A, Gaithersburg, MD 20877, USA","longitude":-77.209421,"id":"a62j80bk1ocj"},"type":"Feature","geometry":{"type":"Point","coordinates":[-77.209421,39.140954]}},{"properties":{"name":"BroadSoft, Inc.","latitude":39.141511,"description":"<a href=\"/companies/139\">BroadSoft, Inc.</a>    220 Perry Parkway, Gaithersburg, MD 20877, USA","longitude":-77.209394,"id":"a62j80fbtjlv"},"type":"Feature","geometry":{"type":"Point","coordinates":[-77.209394,39.141511]}},{"properties":{"name":"Covega Corp.","latitude":39.142322,"description":"<a href=\"/companies/13\">Covega Corp.</a>    10335 Guilford Road, Jessup, MD 20794, USA","longitude":-76.807964,"id":"a62j80acrx2p"},"type":"Feature","geometry":{"type":"Point","coordinates":[-76.807964,39.142322]}},{"properties":{"name":"Gloto Corp.","latitude":39.148186,"description":"<a href=\"/companies/427\">Gloto Corp.</a>    8171 Maple Lawn Blvd Suite 250, Fulton, MD 20759, USA","longitude":-76.906174,"id":"a62j80cvqhvk"},"type":"Feature","geometry":{"type":"Point","coordinates":[-76.906174,39.148186]}},{"properties":{"name":"Advanced Vision Therapies, Inc.","latitude":39.148207,"description":"<a href=\"/companies/316\">Advanced Vision Therapies, Inc.</a>    9 West Watkins Mill Road, Gaithersburg, MD 20878, USA","longitude":-77.233036,"id":"a62j80ectbhn"},"type":"Feature","geometry":{"type":"Point","coordinates":[-77.233036,39.148207]}},{"properties":{"name":"Vorbeck Material Corp.","latitude":39.149126,"description":"<a href=\"/companies/304\">Vorbeck Material Corp.</a>    8306 Patuxent Range RD Unit 112, Jessup, MD , USA","longitude":-76.799686,"id":"a62j80aml8u0"},"type":"Feature","geometry":{"type":"Point","coordinates":[-76.799686,39.149126]}},{"properties":{"name":"Institute for Medical Cybernetics, Inc.","latitude":39.158042,"description":"<a href=\"/companies/337\">Institute for Medical Cybernetics, Inc.</a>    937A Russel Ave, Gaithersburg, MD 20879, USA","longitude":-77.213778,"id":"a62j80amde2q"},"type":"Feature","geometry":{"type":"Point","coordinates":[-77.213778,39.158042]}},{"properties":{"name":"Sequoia Pharmaceuticals, Inc.","latitude":39.161226,"description":"<a href=\"/companies/190\">Sequoia Pharmaceuticals, Inc.</a>    401 Professional Drive, Suite 200, Gaithersburg, MD 20879, USA","longitude":-77.228482,"id":"a62j80aecapo"},"type":"Feature","geometry":{"type":"Point","coordinates":[-77.228482,39.161226]}},{"properties":{"name":"DigitalSports, Inc.","latitude":39.16722,"description":"<a href=\"/companies/314\">DigitalSports, Inc.</a>    8945 Guilford Road Suite 130 Columbia, , MD 21046, USA","longitude":-76.854167,"id":"a62j807krbed"},"type":"Feature","geometry":{"type":"Point","coordinates":[-76.854167,39.16722]}},{"properties":{"name":"EyeTel Imaging, Inc. (NeuroMetrix)","latitude":39.168012,"description":"<a href=\"/companies/328\">EyeTel Imaging, Inc. (NeuroMetrix)</a>    9130 Guilford Road, Columbia, MD 21046, USA","longitude":-76.843924,"id":"a62j809ldif2"},"type":"Feature","geometry":{"type":"Point","coordinates":[-76.843924,39.168012]}},{"properties":{"name":"Paratek Microwave, Inc.","latitude":39.16923,"description":"<a href=\"/companies/330\">Paratek Microwave, Inc.</a>    9135 Guilford Rd. #200, Columbia, MD 21046, USA","longitude":-76.845342,"id":"a62j80ecxdq2"},"type":"Feature","geometry":{"type":"Point","coordinates":[-76.845342,39.16923]}},{"properties":{"name":"Tenable Network Security","latitude":39.172505,"description":"<a href=\"/companies/258\">Tenable Network Security</a>    7063 Columbia Gateway Drive\\nSuite 100, Columbia, MD 21046, USA","longitude":-76.807351,"id":"a62j800vd829"},"type":"Feature","geometry":{"type":"Point","coordinates":[-76.807351,39.172505]}},{"properties":{"name":"Zylaya Corp.","latitude":39.1743,"description":"<a href=\"/companies/386\">Zylaya Corp.</a>    PO Box 84115, Gaithersburg, MD 20883-4115, USA","longitude":-77.1915,"id":"a62j807vc8yr"},"type":"Feature","geometry":{"type":"Point","coordinates":[-77.1915,39.1743]}},{"properties":{"name":"Sensors for Medicine and Science, Inc.","latitude":39.175735,"description":"<a href=\"/companies/42\">Sensors for Medicine and Science, Inc.</a>    12321 Middlebrook Road, Suite 210, Germantown, MD 20874, USA","longitude":-77.255305,"id":"a62j80fmjjdq"},"type":"Feature","geometry":{"type":"Point","coordinates":[-77.255305,39.175735]}},{"properties":{"name":"Sourcefire","latitude":39.176978,"description":"<a href=\"/companies/366\">Sourcefire</a>    9770 Patuxent Woods Drive, Columbia, MD 21046, USA","longitude":-76.852373,"id":"a62j8091jbg1"},"type":"Feature","geometry":{"type":"Point","coordinates":[-76.852373,39.176978]}},{"properties":{"name":"Sourcefire, Inc (Same company as above)","latitude":39.176978,"description":"<a href=\"/companies/367\">Sourcefire, Inc (Same company as above)</a>    9770 Patuxent Woods Drive, Columbia, MD 21046, USA","longitude":-76.852373,"id":"a62j807nm477"},"type":"Feature","geometry":{"type":"Point","coordinates":[-76.852373,39.176978]}},{"properties":{"name":"Artifact Software, Inc.","latitude":39.177268,"description":"<a href=\"/companies/255\">Artifact Software, Inc.</a>    6990 Columbia Gateway Drive, Suite 200, Columbia, MD 21046, USA","longitude":-76.800987,"id":"a62j808t8b9k"},"type":"Feature","geometry":{"type":"Point","coordinates":[-76.800987,39.177268]}},{"properties":{"name":"TCOM, L.P.","latitude":39.179263,"description":"<a href=\"/companies/264\">TCOM, L.P.</a>    7115 Thomas Edison Drive, Columbia, MD 21046, USA","longitude":-76.805505,"id":"a62j801hpz0o"},"type":"Feature","geometry":{"type":"Point","coordinates":[-76.805505,39.179263]}},{"properties":{"name":"Advanced BioNutrition Corp.","latitude":39.180943,"description":"<a href=\"/companies/265\">Advanced BioNutrition Corp.</a>    7155 Columbia Gateway Drive, Columbia, MD 21046, USA","longitude":-76.806155,"id":"a62j8088rel5"},"type":"Feature","geometry":{"type":"Point","coordinates":[-76.806155,39.180943]}},{"properties":{"name":"CollectiveX, Inc","latitude":39.1839,"description":"<a href=\"/companies/368\">CollectiveX, Inc</a>    9861 Brokenland Pkwy, Columbia, MD 21046, USA","longitude":-76.850002,"id":"a62j809h4ttm"},"type":"Feature","geometry":{"type":"Point","coordinates":[-76.850002,39.1839]}},{"properties":{"name":"iBiquity Digital Corporation","latitude":39.18473,"description":"<a href=\"/companies/249\">iBiquity Digital Corporation</a>    6711 Columbia Gateway Drive, Suite 500, Columbia, MD 21046, USA","longitude":-76.807107,"id":"a62j804lzu39"},"type":"Feature","geometry":{"type":"Point","coordinates":[-76.807107,39.18473]}},{"properties":{"name":"Avalon Pharmaceuticals","latitude":39.189636,"description":"<a href=\"/companies/117\">Avalon Pharmaceuticals</a>    20358 Seneca Meadows Parkway, Germantown, MD 20876, USA","longitude":-77.254255,"id":"a62j805q4cts"},"type":"Feature","geometry":{"type":"Point","coordinates":[-77.254255,39.189636]}},{"properties":{"name":"Advancis Pharmaceutical","latitude":39.192411,"description":"<a href=\"/companies/119\">Advancis Pharmaceutical</a>    20425 Seneca Meadows Parkway, Germantown, MD 20876, USA","longitude":-77.258841,"id":"a62j800ttl7f"},"type":"Feature","geometry":{"type":"Point","coordinates":[-77.258841,39.192411]}},{"properties":{"name":"Current Communciations Group, LLC","latitude":39.193953,"description":"<a href=\"/companies/118\">Current Communciations Group, LLC</a>    20420 Century Boulevard, Germantown, MD 20874, USA","longitude":-77.266168,"id":"a62j80bdoz3p"},"type":"Feature","geometry":{"type":"Point","coordinates":[-77.266168,39.193953]}},{"properties":{"name":"Neuronascent, Inc.","latitude":39.210694,"description":"<a href=\"/companies/246\">Neuronascent, Inc.</a>    6030 Day Break Circle, Clarksville, MD 21029, USA","longitude":-76.937227,"id":"a62j80cvlj5g"},"type":"Feature","geometry":{"type":"Point","coordinates":[-76.937227,39.210694]}},{"properties":{"name":"Impulse Monitoring, Inc","latitude":39.211737,"description":"<a href=\"/companies/14\">Impulse Monitoring, Inc</a>    10420 Little Patuxent Pkwy, Suite 250\\n, Columbia, MD 21044, USA","longitude":-76.859883,"id":"a62j809kc01n"},"type":"Feature","geometry":{"type":"Point","coordinates":[-76.859883,39.211737]}},{"properties":{"name":"Oblicore, Inc.","latitude":39.220844,"description":"<a href=\"/companies/207\">Oblicore, Inc.</a>    457 Twin Knolls Road, #101, Columbia, MD 21045, USA","longitude":-76.841934,"id":"a62j80gk771q"},"type":"Feature","geometry":{"type":"Point","coordinates":[-76.841934,39.220844]}},{"properties":{"name":"i2S, Inc.","latitude":39.226308,"description":"<a href=\"/companies/75\">i2S, Inc.</a>    1577 Spring Hill Road, Columbia, MD 21046, USA","longitude":-76.86079,"id":"a62j8087zotx"},"type":"Feature","geometry":{"type":"Point","coordinates":[-76.86079,39.226308]}},{"properties":{"name":"Quickpath Technologies, Inc.","latitude":39.23657,"description":"<a href=\"/companies/50\">Quickpath Technologies, Inc.</a>    13061 Twelve Hills Rd, Clarksville, MD 21029, USA","longitude":-76.962662,"id":"a62j805woe2s"},"type":"Feature","geometry":{"type":"Point","coordinates":[-76.962662,39.23657]}}],"is_temporal":false,"author":{"url":"http://crossmine.com/companies","metadata":"","contact_name":"","contact_address":"","source":"CrossMine","contact_phone":""},"source":"http://crossmine.com/companies","pagination":{"sort":null,"start":0,"total":300,"limit":1000000},"state":"complete","tags":"business,washingtondc","published":"2014-08-10T13:56:50-04:00","id":53951}