{"type":"FeatureCollection","data_type":"Dataset","url_type":null,"permissions":[{"permissions":{"download":true,"view":true},"group_id":"everyone"}],"classification":null,"title":"Campgrounds, Colorado ","count":210,"stream_id":6185,"contributor":{"url":"http://geocommons.com/users/2","name":"data"},"data_attributes":null,"calculation_params":null,"icon_link":null,"link":"http://geocommons.com/overlays/6185.json","extent":[-108.645,37.0277,-102.227,40.8402],"geometry_types":["point"],"unique_name":null,"name":"Campgrounds, Colorado ","feature_count":210,"description":"This is a compilation of the lat/longs of Colorado campgrounds and RV parks.  There is one for each state.  The source is Campusa.com","next_feature":null,"is_raster":false,"short_classification":"Y","stats":{"latitude0":{"max":40.840233,"mean":38.7756108333333,"variance":1.0467250707961,"stdev":1.02309582679048,"min":37.027676,"median":38.751969},"longitude0":{"max":-102.226741,"mean":-106.034885128571,"variance":1.81615392101994,"stdev":1.34764755074164,"min":-108.645438,"median":-105.682082}},"features":[{"properties":{"latitude0":37.027676,"longitude0":-107.416822,"id":"a63egt9vidc4","address0":"19 LAZY LANE, ARBOLES, CO 81121"},"type":"Feature","geometry":{"type":"Point","coordinates":[-107.416822,37.027676]}},{"properties":{"latitude0":37.068023,"longitude0":-106.224634,"id":"a63egtdkgk2v","address0":"26714 STATE HIGHWAY 17, ANTONITO, CO 81120"},"type":"Feature","geometry":{"type":"Point","coordinates":[-106.224634,37.068023]}},{"properties":{"latitude0":37.07906,"longitude0":-106.007974,"id":"a63egtodo5rc","address0":"ANTONITO, CO 81120"},"type":"Feature","geometry":{"type":"Point","coordinates":[-106.007974,37.07906]}},{"properties":{"latitude0":37.079664,"longitude0":-107.867857,"id":"a63egtpbq5ff","address0":"5875 HIGHWAY 550, DURANGO, CO 81301"},"type":"Feature","geometry":{"type":"Point","coordinates":[-107.867857,37.079664]}},{"properties":{"latitude0":37.126876,"longitude0":-106.334354,"id":"a63egtlirn3h","address0":"18234 ST HGWY 17, ANTONITO, CO 81120"},"type":"Feature","geometry":{"type":"Point","coordinates":[-106.334354,37.126876]}},{"properties":{"latitude0":37.131516,"longitude0":-104.520765,"id":"a63egtboupnb","address0":"9800 SANTA FE TRL, TRINIDAD, CO 81082"},"type":"Feature","geometry":{"type":"Point","coordinates":[-104.520765,37.131516]}},{"properties":{"latitude0":37.154809,"longitude0":-104.512046,"id":"a63egthh5x43","address0":"1701 SANTA FE TRL, TRINIDAD, CO 81082"},"type":"Feature","geometry":{"type":"Point","coordinates":[-104.512046,37.154809]}},{"properties":{"latitude0":37.202996,"longitude0":-105.048922,"id":"a63egten7svc","address0":"4789 STATE HIGHWAY 12, WESTON, CO 81091"},"type":"Feature","geometry":{"type":"Point","coordinates":[-105.048922,37.202996]}},{"properties":{"latitude0":37.22167,"longitude0":-107.846499,"id":"a63egtom8oz7","address0":"27847 HGWY 550N, DURANGO, CO 81301"},"type":"Feature","geometry":{"type":"Point","coordinates":[-107.846499,37.22167]}},{"properties":{"latitude0":37.229582,"longitude0":-107.608869,"id":"a63egtm1po2b","address0":"41743 US HIGHWAY 160, BAYFIELD, CO 81122"},"type":"Feature","geometry":{"type":"Point","coordinates":[-107.608869,37.229582]}},{"properties":{"latitude0":37.231189,"longitude0":-106.98506,"id":"a63egtkeqwau","address0":"HWY 84 256 COUNTY RD 339, PAGOSA SPRINGS, CO 81147"},"type":"Feature","geometry":{"type":"Point","coordinates":[-106.98506,37.231189]}},{"properties":{"latitude0":37.240875,"longitude0":-107.142647,"id":"a63egten0r4n","address0":"9260 W US HIGHWAY 160, PAGOSA SPRINGS, CO 81147"},"type":"Feature","geometry":{"type":"Point","coordinates":[-107.142647,37.240875]}},{"properties":{"latitude0":37.266998,"longitude0":-107.02244,"id":"a63egtjcrer8","address0":"HIGHWAY 160, PAGOSA SPRINGS, CO 81147"},"type":"Feature","geometry":{"type":"Point","coordinates":[-107.02244,37.266998]}},{"properties":{"latitude0":37.267495,"longitude0":-107.010189,"id":"a63egtpws87y","address0":"PAGOSA SPRINGS, CO 81147"},"type":"Feature","geometry":{"type":"Point","coordinates":[-107.010189,37.267495]}},{"properties":{"latitude0":37.268756,"longitude0":-107.004831,"id":"a63egtgv1vci","address0":"191 E PAGOSA ST, PAGOSA SPRINGS, CO 81147"},"type":"Feature","geometry":{"type":"Point","coordinates":[-107.004831,37.268756]}},{"properties":{"latitude0":37.270706,"longitude0":-107.891112,"id":"a63egtb1wr2i","address0":"21636 HIGHWAY 160, DURANGO, CO 81301"},"type":"Feature","geometry":{"type":"Point","coordinates":[-107.891112,37.270706]}},{"properties":{"latitude0":37.284865,"longitude0":-106.979031,"id":"a63egtkrpq45","address0":"2270 E US HIGHWAY 160, PAGOSA SPRINGS, CO 81147"},"type":"Feature","geometry":{"type":"Point","coordinates":[-106.979031,37.284865]}},{"properties":{"latitude0":37.294351,"longitude0":-107.94999,"id":"a63egtin1ub4","address0":"1567 COUNTY ROAD 207, DURANGO, CO 81301"},"type":"Feature","geometry":{"type":"Point","coordinates":[-107.94999,37.294351]}},{"properties":{"latitude0":37.327077,"longitude0":-108.371677,"id":"a63egtewgsa5","address0":"37101 HIGHWAY 160, MANCOS, CO 81328"},"type":"Feature","geometry":{"type":"Point","coordinates":[-108.371677,37.327077]}},{"properties":{"latitude0":37.336583,"longitude0":-108.396298,"id":"a63egti19if0","address0":"35303 HIGHWAY 160, MANCOS, CO 81328"},"type":"Feature","geometry":{"type":"Point","coordinates":[-108.396298,37.336583]}},{"properties":{"latitude0":37.346102,"longitude0":-107.698257,"id":"a63egthamlbu","address0":"11998 COUNTY ROAD 240, DURANGO, CO 81301"},"type":"Feature","geometry":{"type":"Point","coordinates":[-107.698257,37.346102]}},{"properties":{"latitude0":37.347355,"longitude0":-108.307281,"id":"a63egtiw2lrv","address0":"40781 HIGHWAY 160,MANCOS, CO 8132"},"type":"Feature","geometry":{"type":"Point","coordinates":[-108.307281,37.347355]}},{"properties":{"latitude0":37.354665,"longitude0":-108.553665,"id":"a63egtajrq7s","address0":"CORTEZ, CO 81321"},"type":"Feature","geometry":{"type":"Point","coordinates":[-108.553665,37.354665]}},{"properties":{"latitude0":37.354665,"longitude0":-108.553665,"id":"a63egtalihc2","address0":"CORTEZ, CO 81321"},"type":"Feature","geometry":{"type":"Point","coordinates":[-108.553665,37.354665]}},{"properties":{"latitude0":37.40155,"longitude0":-107.841681,"id":"a63egtoqqd86","address0":"31420 HIGHWAY 550, DURANGO, CO 81301"},"type":"Feature","geometry":{"type":"Point","coordinates":[-107.841681,37.40155]}},{"properties":{"latitude0":37.4285,"longitude0":-105.432759,"id":"a63egtf67psr","address0":"W 5TH ST, FORT GARLAND, CO 81133"},"type":"Feature","geometry":{"type":"Point","coordinates":[-105.432759,37.4285]}},{"properties":{"latitude0":37.434933,"longitude0":-105.510349,"id":"a63egtmfpbs4","address0":"521 MAIN ST, BLANCA, CO 81123"},"type":"Feature","geometry":{"type":"Point","coordinates":[-105.510349,37.434933]}},{"properties":{"latitude0":37.455027,"longitude0":-107.802184,"id":"a63egtfbbprl","address0":"13391 COUNTY ROAD 250, DURANGO, CO 81301"},"type":"Feature","geometry":{"type":"Point","coordinates":[-107.802184,37.455027]}},{"properties":{"latitude0":37.465674,"longitude0":-107.552859,"id":"a63egtdj6np6","address0":"1875 COUNTY ROAD 500, BAYFIELD, CO 81122"},"type":"Feature","geometry":{"type":"Point","coordinates":[-107.552859,37.465674]}},{"properties":{"latitude0":37.475198,"longitude0":-105.79842,"id":"a63egtf3ov9d","address0":"6900 JUNIPER LN, ALAMOSA, CO 81101"},"type":"Feature","geometry":{"type":"Point","coordinates":[-105.79842,37.475198]}},{"properties":{"latitude0":37.476218,"longitude0":-108.455379,"id":"a63egti568lq","address0":"18680 HIGHWAY 145, DOLORES, CO 81323"},"type":"Feature","geometry":{"type":"Point","coordinates":[-108.455379,37.476218]}},{"properties":{"latitude0":37.490408,"longitude0":-108.593181,"id":"a63egtol6ebi","address0":"24990 HIGHWAY 184, DOLORES, CO 81323"},"type":"Feature","geometry":{"type":"Point","coordinates":[-108.593181,37.490408]}},{"properties":{"latitude0":37.510565,"longitude0":-105.008832,"id":"a63egtamosjy","address0":"124 NORTH MAIN, LAVETA, CO 81055"},"type":"Feature","geometry":{"type":"Point","coordinates":[-105.008832,37.510565]}},{"properties":{"latitude0":37.585681,"longitude0":-108.161568,"id":"a63egtaz6ozj","address0":"27646 HIGHWAY 145, DOLORES, CO 81323"},"type":"Feature","geometry":{"type":"Point","coordinates":[-108.161568,37.585681]}},{"properties":{"latitude0":37.62501,"longitude0":-104.780294,"id":"a63egtn2bnjf","address0":"WALSENBURG, CO 81089"},"type":"Feature","geometry":{"type":"Point","coordinates":[-104.780294,37.62501]}},{"properties":{"latitude0":37.62501,"longitude0":-104.780294,"id":"a63egti18ugu","address0":"WALSENBURG, CO 81089,"},"type":"Feature","geometry":{"type":"Point","coordinates":[-104.780294,37.62501]}},{"properties":{"latitude0":37.65249,"longitude0":-105.583377,"id":"a63egtprmqyt","address0":"5400 STATE HIGHWAY 150, MOSCA, CO 81146"},"type":"Feature","geometry":{"type":"Point","coordinates":[-105.583377,37.65249]}},{"properties":{"latitude0":37.669714,"longitude0":-106.638444,"id":"a63egtny4ysa","address0":"30359 W US HIGHWAY 160, SOUTH FORK, CO 81154"},"type":"Feature","geometry":{"type":"Point","coordinates":[-106.638444,37.669714]}},{"properties":{"latitude0":37.671398,"longitude0":-106.641978,"id":"a63egtowwbw7","address0":"111 COUNTY RD 59, SOUTH FORK, CO 81154"},"type":"Feature","geometry":{"type":"Point","coordinates":[-106.641978,37.671398]}},{"properties":{"latitude0":37.674989,"longitude0":-106.622143,"id":"a63egt9zn6tj","address0":"215 RIO VISTA CIR, SOUTH FORK, CO 81154"},"type":"Feature","geometry":{"type":"Point","coordinates":[-106.622143,37.674989]}},{"properties":{"latitude0":37.675378,"longitude0":-106.65247,"id":"a63egtix3t0r","address0":"613 W HIGHWAY 149, SOUTH FORK, CO 81154"},"type":"Feature","geometry":{"type":"Point","coordinates":[-106.65247,37.675378]}},{"properties":{"latitude0":37.675989,"longitude0":-106.653406,"id":"a63egtp4as0s","address0":"710 W STATE HIGHWAY 149, SOUTH FORK, CO 81154"},"type":"Feature","geometry":{"type":"Point","coordinates":[-106.653406,37.675989]}},{"properties":{"latitude0":37.676362,"longitude0":-106.570717,"id":"a63egt9q3v07","address0":"26359 HIGHWAY 160 W, SOUTH FORK, CO 81154"},"type":"Feature","geometry":{"type":"Point","coordinates":[-106.570717,37.676362]}},{"properties":{"latitude0":37.805165,"longitude0":-107.670987,"id":"a63egteap99i","address0":"SILVERTON, CO 81433"},"type":"Feature","geometry":{"type":"Point","coordinates":[-107.670987,37.805165]}},{"properties":{"latitude0":37.807632,"longitude0":-106.297792,"id":"a63egtdumy3b","address0":"38145 COUNTY ROAD E 39, DEL NORTE, CO 81132"},"type":"Feature","geometry":{"type":"Point","coordinates":[-106.297792,37.807632]}},{"properties":{"latitude0":37.81188,"longitude0":-106.974096,"id":"a63egtlgg24m","address0":"25671 HGWY 149, CREEDE, CO 81130"},"type":"Feature","geometry":{"type":"Point","coordinates":[-106.974096,37.81188]}},{"properties":{"latitude0":37.81439,"longitude0":-107.659144,"id":"a63egtoi6l6p","address0":"640 MINERAL STREET, SILVERTON, CO 81433"},"type":"Feature","geometry":{"type":"Point","coordinates":[-107.659144,37.81439]}},{"properties":{"latitude0":37.817961,"longitude0":-107.65958,"id":"a63egth8xhpz","address0":"STATE HIGHWAY 110, SILVERTON, CO 81433"},"type":"Feature","geometry":{"type":"Point","coordinates":[-107.65958,37.817961]}},{"properties":{"latitude0":37.999074,"longitude0":-103.588801,"id":"a63egtbi5vbm","address0":"26680 W US HIGHWAY 50, LA JUNTA, CO 81050"},"type":"Feature","geometry":{"type":"Point","coordinates":[-103.588801,37.999074]}},{"properties":{"latitude0":38.004848,"longitude0":-107.686187,"id":"a63egtkoahny","address0":"225 HIGHWAY 23, OURAY, CO 81427"},"type":"Feature","geometry":{"type":"Point","coordinates":[-107.686187,38.004848]}},{"properties":{"latitude0":38.01468,"longitude0":-104.743059,"id":"a63egtonyun7","address0":"9040 S INTERSTATE 25, PUEBLO, CO 81004"},"type":"Feature","geometry":{"type":"Point","coordinates":[-104.743059,38.01468]}},{"properties":{"latitude0":38.031679,"longitude0":-107.314447,"id":"a63egtgmd2pj","address0":"LAKE CITY, CO 81235"},"type":"Feature","geometry":{"type":"Point","coordinates":[-107.314447,38.031679]}},{"properties":{"latitude0":38.031679,"longitude0":-107.314447,"id":"a63egtphkrvl","address0":"LAKE CITY, CO 81235"},"type":"Feature","geometry":{"type":"Point","coordinates":[-107.314447,38.031679]}},{"properties":{"latitude0":38.033283,"longitude0":-107.67432,"id":"a63egteip24h","address0":"1515 N MAIN ST, OURAY, CO 81427"},"type":"Feature","geometry":{"type":"Point","coordinates":[-107.67432,38.033283]}},{"properties":{"latitude0":38.03606,"longitude0":-107.677211,"id":"a63egtmp1eys","address0":"1805 HIGHWAY 550, OURAY, CO 81427"},"type":"Feature","geometry":{"type":"Point","coordinates":[-107.677211,38.03606]}},{"properties":{"latitude0":38.036451,"longitude0":-105.086474,"id":"a63egtpnwwhc","address0":"HIGHWAY 165, RYE, CO 81069"},"type":"Feature","geometry":{"type":"Point","coordinates":[-105.086474,38.036451]}},{"properties":{"latitude0":38.072712,"longitude0":-106.142429,"id":"a63egtkfzdtp","address0":"21495 US HIGHWAY 285, SAGUACHE, CO 81149"},"type":"Feature","geometry":{"type":"Point","coordinates":[-106.142429,38.072712]}},{"properties":{"latitude0":38.086185,"longitude0":-105.428362,"id":"a63egtfwlocr","address0":"2299 COUNTY ROAD 328, WESTCLIFFE, CO 81252"},"type":"Feature","geometry":{"type":"Point","coordinates":[-105.428362,38.086185]}},{"properties":{"latitude0":38.087536,"longitude0":-102.612838,"id":"a63egtjd6n3g","address0":"5385 US HIGHWAY 50, LAMAR, CO 81052"},"type":"Feature","geometry":{"type":"Point","coordinates":[-102.612838,38.087536]}},{"properties":{"latitude0":38.10015,"longitude0":-105.895782,"id":"a63egtd1w7aj","address0":"VILLA GROVE, MOFFAT, CO 81143"},"type":"Feature","geometry":{"type":"Point","coordinates":[-105.895782,38.10015]}},{"properties":{"latitude0":38.114146,"longitude0":-102.853016,"id":"a63egtjh2qye","address0":"29995 US HIGHWAY 50, MC CLAVE, CO 81057"},"type":"Feature","geometry":{"type":"Point","coordinates":[-102.853016,38.114146]}},{"properties":{"latitude0":38.133696,"longitude0":-105.440562,"id":"a63egtmx0ads","address0":"957 FRENCH ST, SILVER CLIFF, CO 81249"},"type":"Feature","geometry":{"type":"Point","coordinates":[-105.440562,38.133696]}},{"properties":{"latitude0":38.183046,"longitude0":-107.285229,"id":"a63egtncplci","address0":"HIGHWAY 149, LAKE CITY, CO 81235"},"type":"Feature","geometry":{"type":"Point","coordinates":[-107.285229,38.183046]}},{"properties":{"latitude0":38.183046,"longitude0":-107.285229,"id":"a63egtlf3hgl","address0":"HIGHWAY 149, LAKE CITY, CO 81235"},"type":"Feature","geometry":{"type":"Point","coordinates":[-107.285229,38.183046]}},{"properties":{"latitude0":38.214558,"longitude0":-103.745431,"id":"a63egtitkzm3","address0":"18055 COUNTY ROAD G, ORDWAY, CO 81063"},"type":"Feature","geometry":{"type":"Point","coordinates":[-103.745431,38.214558]}},{"properties":{"latitude0":38.220399,"longitude0":-104.625278,"id":"a63egtiyvmvc","address0":"3015 LAKE AVE, PUEBLO, CO 81004"},"type":"Feature","geometry":{"type":"Point","coordinates":[-104.625278,38.220399]}},{"properties":{"latitude0":38.30661,"longitude0":-104.612379,"id":"a63egtnzwk06","address0":"4131 N INTERSTATE 25, PUEBLO, CO 81008"},"type":"Feature","geometry":{"type":"Point","coordinates":[-104.612379,38.30661]}},{"properties":{"latitude0":38.344792,"longitude0":-107.79021,"id":"a63egt9nnt4l","address0":"23449 HIGHWAY 550, MONTROSE, CO 81401"},"type":"Feature","geometry":{"type":"Point","coordinates":[-107.79021,38.344792]}},{"properties":{"latitude0":38.36382,"longitude0":-107.806671,"id":"a63egtq0p7cq","address0":"22045 S HIGHWAY 550, MONTROSE, CO 81401"},"type":"Feature","geometry":{"type":"Point","coordinates":[-107.806671,38.36382]}},{"properties":{"latitude0":38.366637,"longitude0":-105.755065,"id":"a63egtn1d4mi","address0":"0340 COUNTY RD 40, COALDALE, CO 81222"},"type":"Feature","geometry":{"type":"Point","coordinates":[-105.755065,38.366637]}},{"properties":{"latitude0":38.366755,"longitude0":-105.755147,"id":"a63egtejcswv","address0":"3428 COUNTY RD 6, COALDALE, CO 81222"},"type":"Feature","geometry":{"type":"Point","coordinates":[-105.755147,38.366755]}},{"properties":{"latitude0":38.368223,"longitude0":-104.919868,"id":"a63egtfeoenl","address0":"7910 W US HIGHWAY 50, PUEBLO WEST, CO 81007"},"type":"Feature","geometry":{"type":"Point","coordinates":[-104.919868,38.368223]}},{"properties":{"latitude0":38.3929,"longitude0":-105.638229,"id":"a63egtg53m54","address0":"21435 US HIGHWAY 50, COTOPAXI, CO 81223"},"type":"Feature","geometry":{"type":"Point","coordinates":[-105.638229,38.3929]}},{"properties":{"latitude0":38.396649,"longitude0":-107.495023,"id":"a63egtpiyz90","address0":"348 US HIGHWAY 50, CIMARRON, CO 81220"},"type":"Feature","geometry":{"type":"Point","coordinates":[-107.495023,38.396649]}},{"properties":{"latitude0":38.407256,"longitude0":-104.998272,"id":"a63egtiz3njh","address0":"1438 US HIGHWAY 50 E, PENROSE, CO 81240"},"type":"Feature","geometry":{"type":"Point","coordinates":[-104.998272,38.407256]}},{"properties":{"latitude0":38.42441,"longitude0":-106.525009,"id":"a63egtk97zx5","address0":"67366 US HIGHWAY 50, GUNNISON, CO 81230"},"type":"Feature","geometry":{"type":"Point","coordinates":[-106.525009,38.42441]}},{"properties":{"latitude0":38.427501,"longitude0":-105.814647,"id":"a63egtd62g5e","address0":"18 COUNTY ROAD 47, HOWARD, CO 81233"},"type":"Feature","geometry":{"type":"Point","coordinates":[-105.814647,38.427501]}},{"properties":{"latitude0":38.433305,"longitude0":-107.865881,"id":"a63egtpj32b3","address0":"17250 HIGHWAY 550 S, MONTROSE, CO 81401"},"type":"Feature","geometry":{"type":"Point","coordinates":[-107.865881,38.433305]}},{"properties":{"latitude0":38.433751,"longitude0":-105.83437,"id":"a63egtl2ntr5","address0":"9229 US HIGHWAY 50, HOWARD, CO 81233"},"type":"Feature","geometry":{"type":"Point","coordinates":[-105.83437,38.433751]}},{"properties":{"latitude0":38.443129,"longitude0":-105.206382,"id":"a63egtb1kx7h","address0":"295 S RAYNOLDS AVE, CANON CITY, CO 81212"},"type":"Feature","geometry":{"type":"Point","coordinates":[-105.206382,38.443129]}},{"properties":{"latitude0":38.444282,"longitude0":-107.308466,"id":"a63egtbryeck","address0":"940 COVE RD, GUNNISON, CO 81230"},"type":"Feature","geometry":{"type":"Point","coordinates":[-107.308466,38.444282]}},{"properties":{"latitude0":38.446608,"longitude0":-105.193963,"id":"a63egtkwjy43","address0":"3120 E MAIN ST, CANON CITY, CO 81212"},"type":"Feature","geometry":{"type":"Point","coordinates":[-105.193963,38.446608]}},{"properties":{"latitude0":38.456577,"longitude0":-105.842688,"id":"a63egtf9gmaj","address0":"7528 US HIGHWAY 50, HOWARD, CO 81233"},"type":"Feature","geometry":{"type":"Point","coordinates":[-105.842688,38.456577]}},{"properties":{"latitude0":38.457967,"longitude0":-107.302388,"id":"a63egtop01w5","address0":"16020 US HIGHWAY 50, GUNNISON, CO 81230"},"type":"Feature","geometry":{"type":"Point","coordinates":[-107.302388,38.457967]}},{"properties":{"latitude0":38.466231,"longitude0":-105.113821,"id":"a63egtkbzya7","address0":"3257 COUNTY ROAD 67, PENROSE, CO 81240"},"type":"Feature","geometry":{"type":"Point","coordinates":[-105.113821,38.466231]}},{"properties":{"latitude0":38.477447,"longitude0":-105.311572,"id":"a63egtgoftf7","address0":"559 COUNTY ROAD 3A, CANON CITY, CO 81212"},"type":"Feature","geometry":{"type":"Point","coordinates":[-105.311572,38.477447]}},{"properties":{"latitude0":38.484946,"longitude0":-107.105331,"id":"a63egtjqnjax","address0":"28357 W HWY 50, GUNNISON, CO 81230"},"type":"Feature","geometry":{"type":"Point","coordinates":[-107.105331,38.484946]}},{"properties":{"latitude0":38.486334,"longitude0":-107.859204,"id":"a63egtoxfu1w","address0":"126 ROSE LANE, MONTROSE, CO 81401"},"type":"Feature","geometry":{"type":"Point","coordinates":[-107.859204,38.486334]}},{"properties":{"latitude0":38.488327,"longitude0":-107.867978,"id":"a63egtcu1z9m","address0":"200 CEDAR AVE, MONTROSE, CO 81401"},"type":"Feature","geometry":{"type":"Point","coordinates":[-107.867978,38.488327]}},{"properties":{"latitude0":38.48904,"longitude0":-107.785605,"id":"a63egton711w","address0":"69905 HIGHWAY 50, MONTROSE, CO 81401"},"type":"Feature","geometry":{"type":"Point","coordinates":[-107.785605,38.48904]}},{"properties":{"latitude0":38.495769,"longitude0":-105.328369,"id":"a63egtpvqfvc","address0":"30 COUNTY RD 3A, CANON CITY, CO 81212"},"type":"Feature","geometry":{"type":"Point","coordinates":[-105.328369,38.495769]}},{"properties":{"latitude0":38.496038,"longitude0":-105.319564,"id":"a63egthu3ojr","address0":"45044 HIGHWAY 50 WEST, CANON CITY, CO 81212"},"type":"Feature","geometry":{"type":"Point","coordinates":[-105.319564,38.496038]}},{"properties":{"latitude0":38.498285,"longitude0":-105.349043,"id":"a63egte8c7bm","address0":"43590 HIGHWAY 50 WEST, CANON CITY, CO 81212"},"type":"Feature","geometry":{"type":"Point","coordinates":[-105.349043,38.498285]}},{"properties":{"latitude0":38.498444,"longitude0":-105.348608,"id":"a63egtebomk1","address0":"43595 W US HIGHWAY 50, CANON CITY, CO 81212"},"type":"Feature","geometry":{"type":"Point","coordinates":[-105.348608,38.498444]}},{"properties":{"latitude0":38.522493,"longitude0":-106.985647,"id":"a63egtohk97g","address0":"36128 US HIGHWAY 50, GUNNISON, CO 81230"},"type":"Feature","geometry":{"type":"Point","coordinates":[-106.985647,38.522493]}},{"properties":{"latitude0":38.522511,"longitude0":-106.024015,"id":"a63egtk434kp","address0":"7870 W US HIGHWAY 50, SALIDA, CO 81201"},"type":"Feature","geometry":{"type":"Point","coordinates":[-106.024015,38.522511]}},{"properties":{"latitude0":38.530114,"longitude0":-106.945385,"id":"a63egtl980cv","address0":"105 COUNTY ROAD 50, GUNNISON, CO 81230"},"type":"Feature","geometry":{"type":"Point","coordinates":[-106.945385,38.530114]}},{"properties":{"latitude0":38.532002,"longitude0":-106.002868,"id":"a63egtci4qc8","address0":"910 J ST, SALIDA, CO 81201"},"type":"Feature","geometry":{"type":"Point","coordinates":[-106.002868,38.532002]}},{"properties":{"latitude0":38.536506,"longitude0":-106.173484,"id":"a63egtddx75k","address0":"16105 W US HIGHWAY 50, SALIDA, CO 81201"},"type":"Feature","geometry":{"type":"Point","coordinates":[-106.173484,38.536506]}},{"properties":{"latitude0":38.544551,"longitude0":-106.943949,"id":"a63egti29v7w","address0":"1312 W TOMICHI AVE, GUNNISON, CO 81230"},"type":"Feature","geometry":{"type":"Point","coordinates":[-106.943949,38.544551]}},{"properties":{"latitude0":38.578711,"longitude0":-106.922119,"id":"a63egtf39jmh","address0":"2460 STATE HIGHWAY 135, GUNNISON, CO 81230"},"type":"Feature","geometry":{"type":"Point","coordinates":[-106.922119,38.578711]}},{"properties":{"latitude0":38.71001,"longitude0":-105.139049,"id":"a63egtj98t5o","address0":"100 E VICTOR AVE, VICTOR, CO 80860"},"type":"Feature","geometry":{"type":"Point","coordinates":[-105.139049,38.71001]}},{"properties":{"latitude0":38.71297,"longitude0":-104.725175,"id":"a63egtl1xf4e","address0":"8100 BANDLEY DR, FOUNTAIN, CO 80817"},"type":"Feature","geometry":{"type":"Point","coordinates":[-104.725175,38.71297]}},{"properties":{"latitude0":38.743805,"longitude0":-105.179404,"id":"a63egthgxhk7","address0":"202 MAY AVE, CRIPPLE CREEK, CO 80813"},"type":"Feature","geometry":{"type":"Point","coordinates":[-105.179404,38.743805]}},{"properties":{"latitude0":38.744033,"longitude0":-106.080589,"id":"a63egtaf4veq","address0":"11430 COUNTY ROAD 197, NATHROP, CO 81236"},"type":"Feature","geometry":{"type":"Point","coordinates":[-106.080589,38.744033]}},{"properties":{"latitude0":38.751969,"longitude0":-108.069506,"id":"a63egtl7b4ju","address0":"676 n HIGHWAY 50, DELTA, CO 81416"},"type":"Feature","geometry":{"type":"Point","coordinates":[-108.069506,38.751969]}},{"properties":{"latitude0":38.75418,"longitude0":-108.04516,"id":"a63egtivwcux","address0":"1675 HIGHWAY 92, DELTA, CO 81416"},"type":"Feature","geometry":{"type":"Point","coordinates":[-108.04516,38.75418]}},{"properties":{"latitude0":38.763924,"longitude0":-102.787224,"id":"a63egtkkhejf","address0":"501 W HIGHWAY 287, KIT CARSON, CO 80825"},"type":"Feature","geometry":{"type":"Point","coordinates":[-102.787224,38.763924]}},{"properties":{"latitude0":38.774786,"longitude0":-105.203408,"id":"a63egtenlwi7","address0":"4023 TELLER COUNTY ROAD 1, CRIPPLE CREEK, CO 80813"},"type":"Feature","geometry":{"type":"Point","coordinates":[-105.203408,38.774786]}},{"properties":{"latitude0":38.800842,"longitude0":-105.195112,"id":"a63egt9z632y","address0":"10702 HIGHWAY 67 , CRIPPLE CREEK, CO 80813"},"type":"Feature","geometry":{"type":"Point","coordinates":[-105.195112,38.800842]}},{"properties":{"latitude0":38.800842,"longitude0":-105.195112,"id":"a63egtl4fvb6","address0":"600 NORTH B STREET, CRIPPLE CREEK, CO 80813"},"type":"Feature","geometry":{"type":"Point","coordinates":[-105.195112,38.800842]}},{"properties":{"latitude0":38.800842,"longitude0":-105.195112,"id":"a63egtfjiu9q","address0":"CRIPPLE CREEK, CO 80813"},"type":"Feature","geometry":{"type":"Point","coordinates":[-105.195112,38.800842]}},{"properties":{"latitude0":38.800842,"longitude0":-105.195112,"id":"a63egthjp9cp","address0":"2576 COUNTY ROAD 81, CRIPPLE CREEK, CO 80813"},"type":"Feature","geometry":{"type":"Point","coordinates":[-105.195112,38.800842]}},{"properties":{"latitude0":38.838615,"longitude0":-104.712317,"id":"a63egtf13whd","address0":"6225 E PLATTE AVE, COLORADO SPRINGS, CO 80915"},"type":"Feature","geometry":{"type":"Point","coordinates":[-104.712317,38.838615]}},{"properties":{"latitude0":38.842393,"longitude0":-104.903954,"id":"a63egtjrcrji","address0":"625 CRYSTAL PARK RD, MANITOU SPRINGS, CO 80829"},"type":"Feature","geometry":{"type":"Point","coordinates":[-104.903954,38.842393]}},{"properties":{"latitude0":38.845508,"longitude0":-104.866572,"id":"a63egtlnhvsv","address0":"411 S 26TH ST, COLORADO SPRINGS, CO 80904"},"type":"Feature","geometry":{"type":"Point","coordinates":[-104.866572,38.845508]}},{"properties":{"latitude0":38.8525,"longitude0":-104.871428,"id":"a63egthc9bmi","address0":"3023 W COLORADO AVE, COLORADO SPRINGS, CO 80904"},"type":"Feature","geometry":{"type":"Point","coordinates":[-104.871428,38.8525]}},{"properties":{"latitude0":38.856869,"longitude0":-104.900304,"id":"a63egtmi1wlc","address0":"320 MANITOU AVE, MANITOU SPRINGS, CO 80829"},"type":"Feature","geometry":{"type":"Point","coordinates":[-104.900304,38.856869]}},{"properties":{"latitude0":38.860921,"longitude0":-106.141704,"id":"a63egto97akn","address0":"30380 COUNTY ROAD 383, BUENA VISTA, CO 81211"},"type":"Feature","geometry":{"type":"Point","coordinates":[-106.141704,38.860921]}},{"properties":{"latitude0":38.862191,"longitude0":-106.147889,"id":"a63egtb9ypk1","address0":"30430 n. highway 24, BUENA VISTA, CO 81211"},"type":"Feature","geometry":{"type":"Point","coordinates":[-106.147889,38.862191]}},{"properties":{"latitude0":38.90065,"longitude0":-106.173418,"id":"a63egtfpr1gf","address0":"33198 US HIGHWAY 24, BUENA VISTA, CO 81211"},"type":"Feature","geometry":{"type":"Point","coordinates":[-106.173418,38.90065]}},{"properties":{"latitude0":38.901797,"longitude0":-107.923607,"id":"a63egtdhnu2y","address0":"197 N. HIGHWAY 65, CEDAREDGE, CO 81413"},"type":"Feature","geometry":{"type":"Point","coordinates":[-107.923607,38.901797]}},{"properties":{"latitude0":38.902331,"longitude0":-107.923559,"id":"a63egtcisl9g","address0":"205 NE GRAND MESA DR, CEDAREDGE, CO 81413"},"type":"Feature","geometry":{"type":"Point","coordinates":[-107.923559,38.902331]}},{"properties":{"latitude0":38.902392,"longitude0":-104.817593,"id":"a63egtasog1f","address0":"4950 N NEVADA AVE, COLORADO SPRINGS, CO 80918"},"type":"Feature","geometry":{"type":"Point","coordinates":[-104.817593,38.902392]}},{"properties":{"latitude0":38.909981,"longitude0":-106.179414,"id":"a63egte0enf7","address0":"33975 US HIGHWAY 24 , BUENA VISTA, CO 81211"},"type":"Feature","geometry":{"type":"Point","coordinates":[-106.179414,38.909981]}},{"properties":{"latitude0":38.917015,"longitude0":-104.98302,"id":"a63egtkjswks","address0":"8855 US HIGHWAY 24, CASCADE, CO 80809"},"type":"Feature","geometry":{"type":"Point","coordinates":[-104.98302,38.917015]}},{"properties":{"latitude0":38.933741,"longitude0":-105.014733,"id":"a63egtnjvev8","address0":"10090 W US HIGHWAY 24, GREEN MTN FALLS, CO 80819"},"type":"Feature","geometry":{"type":"Point","coordinates":[-105.014733,38.933741]}},{"properties":{"latitude0":38.969882,"longitude0":-105.342292,"id":"a63egtexlblq","address0":"39284 US HIGHWAY 24, LAKE GEORGE, CO 80827"},"type":"Feature","geometry":{"type":"Point","coordinates":[-105.342292,38.969882]}},{"properties":{"latitude0":38.97332,"longitude0":-107.336939,"id":"a63egtow7z0i","address0":"30682 COUNTY RD 2, SOMERSET, CO 81434-9625"},"type":"Feature","geometry":{"type":"Point","coordinates":[-107.336939,38.97332]}},{"properties":{"latitude0":38.979415,"longitude0":-105.041965,"id":"a63egtd6n8lg","address0":"19253 EAST HGHWAY 24, WOODLAND PARK, CO 80863"},"type":"Feature","geometry":{"type":"Point","coordinates":[-105.041965,38.979415]}},{"properties":{"latitude0":38.987569,"longitude0":-105.369438,"id":"a63egtf5rnxy","address0":"8966 COUNTY ROAD 90, LAKE GEORGE, CO 80827"},"type":"Feature","geometry":{"type":"Point","coordinates":[-105.369438,38.987569]}},{"properties":{"latitude0":38.99659,"longitude0":-105.152924,"id":"a63egtna9hdk","address0":"4145 OMER ROAD, DIVIDE, CO 80814"},"type":"Feature","geometry":{"type":"Point","coordinates":[-105.152924,38.99659]}},{"properties":{"latitude0":38.997744,"longitude0":-105.066883,"id":"a63egtd9erof","address0":"1125 BOWMAN AVE, WOODLAND PARK, CO 80863"},"type":"Feature","geometry":{"type":"Point","coordinates":[-105.066883,38.997744]}},{"properties":{"latitude0":38.997807,"longitude0":-105.062448,"id":"a63egtmgf9pg","address0":"510 N STATE HIGHWAY 67, WOODLAND PARK, CO 80863"},"type":"Feature","geometry":{"type":"Point","coordinates":[-105.062448,38.997807]}},{"properties":{"latitude0":39.001761,"longitude0":-105.062665,"id":"a63egtihm327","address0":"900 STATE HIGHWAY 67, WOODLAND PARK, CO 80863"},"type":"Feature","geometry":{"type":"Point","coordinates":[-105.062665,39.001761]}},{"properties":{"latitude0":39.070391,"longitude0":-107.189954,"id":"a63egtm7nhh2","address0":"215 W PARK ST, MARBLE, CO 81623"},"type":"Feature","geometry":{"type":"Point","coordinates":[-107.189954,39.070391]}},{"properties":{"latitude0":39.07967,"longitude0":-105.415939,"id":"a63egtk09irg","address0":"368 COUNTY RD 211, LAKE GEORGE, CO 80827"},"type":"Feature","geometry":{"type":"Point","coordinates":[-105.415939,39.07967]}},{"properties":{"latitude0":39.086471,"longitude0":-104.873092,"id":"a63egtbdg2ox","address0":"99 MITCHELL AVE, MONUMENT, CO 80132"},"type":"Feature","geometry":{"type":"Point","coordinates":[-104.873092,39.086471]}},{"properties":{"latitude0":39.117363,"longitude0":-104.86523,"id":"a63egtimjgo0","address0":"19575 MONUMENT HILL RD, MONUMENT, CO 80132"},"type":"Feature","geometry":{"type":"Point","coordinates":[-104.86523,39.117363]}},{"properties":{"latitude0":39.117363,"longitude0":-104.86523,"id":"a63egtiaioqj","address0":"19575 MONUMENT HILL RD, MONUMENT, CO 80132"},"type":"Feature","geometry":{"type":"Point","coordinates":[-104.86523,39.117363]}},{"properties":{"latitude0":39.11961,"longitude0":-108.645438,"id":"a63egtp6jbb3","address0":"793 22 RD, GRAND JUNCTION, CO 81505"},"type":"Feature","geometry":{"type":"Point","coordinates":[-108.645438,39.11961]}},{"properties":{"latitude0":39.228488,"longitude0":-105.197235,"id":"a63egtn00ovz","address0":"10087 S HIGHWAY 67, SEDALIA, CO 80135"},"type":"Feature","geometry":{"type":"Point","coordinates":[-105.197235,39.228488]}},{"properties":{"latitude0":39.249234,"longitude0":-106.355202,"id":"a63egt9unz20","address0":"2665 COUNTY ROAD 4, LEADVILLE, CO 80461"},"type":"Feature","geometry":{"type":"Point","coordinates":[-106.355202,39.249234]}},{"properties":{"latitude0":39.264102,"longitude0":-103.672811,"id":"a63egtga3987","address0":"575 COLORADO AVE, LIMON, CO 80828"},"type":"Feature","geometry":{"type":"Point","coordinates":[-103.672811,39.264102]}},{"properties":{"latitude0":39.297694,"longitude0":-102.605101,"id":"a63egta78j9j","address0":"818 COLORADO AVE, STRATTON, CO 80836"},"type":"Feature","geometry":{"type":"Point","coordinates":[-102.605101,39.297694]}},{"properties":{"latitude0":39.2988,"longitude0":-102.603848,"id":"a63egtdllfyj","address0":"700 NEW YORK AVE, STRATTON, CO 80836"},"type":"Feature","geometry":{"type":"Point","coordinates":[-102.603848,39.2988]}},{"properties":{"latitude0":39.320902,"longitude0":-107.209382,"id":"a63egtmcxzlw","address0":"7202 HIGHWAY 133, CARBONDALE, CO 81623"},"type":"Feature","geometry":{"type":"Point","coordinates":[-107.209382,39.320902]}},{"properties":{"latitude0":39.33982,"longitude0":-104.876019,"id":"a63egtgz9xlf","address0":"6527 S INTERSTATE 25, CASTLE ROCK, CO 80104"},"type":"Feature","geometry":{"type":"Point","coordinates":[-104.876019,39.33982]}},{"properties":{"latitude0":39.374098,"longitude0":-107.075398,"id":"a63egtn4d3b9","address0":"20640 HIGHWAY 82, BASALT, CO 81621"},"type":"Feature","geometry":{"type":"Point","coordinates":[-107.075398,39.374098]}},{"properties":{"latitude0":39.425729,"longitude0":-107.240311,"id":"a63egtngap3a","address0":"640 COUNTY ROAD 106, CARBONDALE, CO 81623"},"type":"Feature","geometry":{"type":"Point","coordinates":[-107.240311,39.425729]}},{"properties":{"latitude0":39.52171,"longitude0":-107.843049,"id":"a63egtetmsyg","address0":"24341 HIGHWAY 6, RIFLE, CO 81650"},"type":"Feature","geometry":{"type":"Point","coordinates":[-107.843049,39.52171]}},{"properties":{"latitude0":39.539964,"longitude0":-106.040674,"id":"a63egtcxcupy","address0":"85 TIGER RUN ROAD, BRECKENRIDGE, CO 80424"},"type":"Feature","geometry":{"type":"Point","coordinates":[-106.040674,39.539964]}},{"properties":{"latitude0":39.54249,"longitude0":-107.783598,"id":"a63egtbko62x","address0":"1415 RAILROAD AVE, RIFLE, CO 81650"},"type":"Feature","geometry":{"type":"Point","coordinates":[-107.783598,39.54249]}},{"properties":{"latitude0":39.54365,"longitude0":-107.646109,"id":"a63egtergy8p","address0":"32956 RIVER FRONTAGE RD, SILT, CO 81652"},"type":"Feature","geometry":{"type":"Point","coordinates":[-107.646109,39.54365]}},{"properties":{"latitude0":39.543793,"longitude0":-107.331269,"id":"a63egtgd3gwx","address0":"1020 LATSON CT, GLENWOOD SPRINGS, CO 81601"},"type":"Feature","geometry":{"type":"Point","coordinates":[-107.331269,39.543793]}},{"properties":{"latitude0":39.54602,"longitude0":-107.323674,"id":"a63egtd9hjta","address0":"GLENWOOD SPRINGS, CO 81601"},"type":"Feature","geometry":{"type":"Point","coordinates":[-107.323674,39.54602]}},{"properties":{"latitude0":39.561167,"longitude0":-107.500523,"id":"a63egthcn25f","address0":"7051 COUNTY ROAD 335, NEW CASTLE, CO 81647"},"type":"Feature","geometry":{"type":"Point","coordinates":[-107.500523,39.561167]}},{"properties":{"latitude0":39.56172,"longitude0":-107.293279,"id":"a63egtp85fj5","address0":"1308 COUNTY ROAD 129, GLENWOOD SPRINGS, CO 81601"},"type":"Feature","geometry":{"type":"Point","coordinates":[-107.293279,39.56172]}},{"properties":{"latitude0":39.577817,"longitude0":-104.856964,"id":"a63egtbr5kd4","address0":"64 INVERNESS DR E, ENGLEWOOD, CO 80112"},"type":"Feature","geometry":{"type":"Point","coordinates":[-104.856964,39.577817]}},{"properties":{"latitude0":39.620307,"longitude0":-105.24581,"id":"a63egtmu409m","address0":"23419 TESUQUE RD, INDIAN HILLS, CO 80454"},"type":"Feature","geometry":{"type":"Point","coordinates":[-105.24581,39.620307]}},{"properties":{"latitude0":39.650135,"longitude0":-105.025148,"id":"a63egto5jjlx","address0":"3650 S FEDERAL BLVD, SHERIDAN, CO 80110"},"type":"Feature","geometry":{"type":"Point","coordinates":[-105.025148,39.650135]}},{"properties":{"latitude0":39.653363,"longitude0":-105.017073,"id":"a63egtc28qro","address0":"2500 W HAMPDEN AVE, ENGLEWOOD, CO 80110"},"type":"Feature","geometry":{"type":"Point","coordinates":[-105.017073,39.653363]}},{"properties":{"latitude0":39.711013,"longitude0":-105.313906,"id":"a63egthxkuct","address0":"27661 GENESEE DRIVE, GOLDEN, CO 80401"},"type":"Feature","geometry":{"type":"Point","coordinates":[-105.313906,39.711013]}},{"properties":{"latitude0":39.719591,"longitude0":-105.202697,"id":"a63egtm0bq54","address0":"17800 WEST COLFAX AVE., GOLDEN, CO 80401"},"type":"Feature","geometry":{"type":"Point","coordinates":[-105.202697,39.719591]}},{"properties":{"latitude0":39.719843,"longitude0":-105.202818,"id":"a63egtcv4uu2","address0":"17801 WEST COLFAX AVE., GOLDEN, CO 80401"},"type":"Feature","geometry":{"type":"Point","coordinates":[-105.202818,39.719843]}},{"properties":{"latitude0":39.724377,"longitude0":-105.163527,"id":"a63egtc7us3c","address0":"14618 WEST 6TH AVE, GOLDEN, CO 80401"},"type":"Feature","geometry":{"type":"Point","coordinates":[-105.163527,39.724377]}},{"properties":{"latitude0":39.729769,"longitude0":-105.539991,"id":"a63egtb737ol","address0":"1485 HIGHWAY 103, IDAHO SPRINGS, CO 80452"},"type":"Feature","geometry":{"type":"Point","coordinates":[-105.539991,39.729769]}},{"properties":{"latitude0":39.735426,"longitude0":-104.321383,"id":"a63egtdisido","address0":"1312 MONROE ST, STRASBURG, CO 80136"},"type":"Feature","geometry":{"type":"Point","coordinates":[-104.321383,39.735426]}},{"properties":{"latitude0":39.736655,"longitude0":-105.513941,"id":"a63egtd0pj1v","address0":"302 SODA CREEK RD, IDAHO SPRINGS, CO 80452"},"type":"Feature","geometry":{"type":"Point","coordinates":[-105.513941,39.736655]}},{"properties":{"latitude0":39.754652,"longitude0":-105.230793,"id":"a63egtij36vo","address0":"1400 10TH ST, GOLDEN, CO 80401"},"type":"Feature","geometry":{"type":"Point","coordinates":[-105.230793,39.754652]}},{"properties":{"latitude0":39.761022,"longitude0":-105.682082,"id":"a63egtk20x4z","address0":"W EMPIRE, EMPIRE, CO 80438"},"type":"Feature","geometry":{"type":"Point","coordinates":[-105.682082,39.761022]}},{"properties":{"latitude0":39.778105,"longitude0":-105.128514,"id":"a63egtfv8ed8","address0":"11600 W 44TH AVE, WHEAT RIDGE, CO 80033"},"type":"Feature","geometry":{"type":"Point","coordinates":[-105.128514,39.778105]}},{"properties":{"latitude0":39.986685,"longitude0":-104.818169,"id":"a63egtnzjq0p","address0":"BRIGHTON, CO 80601"},"type":"Feature","geometry":{"type":"Point","coordinates":[-104.818169,39.986685]}},{"properties":{"latitude0":40.015667,"longitude0":-107.968258,"id":"a63egtmzmbss","address0":"38723 HWY 13, MEEKER, CO 81641"},"type":"Feature","geometry":{"type":"Point","coordinates":[-107.968258,40.015667]}},{"properties":{"latitude0":40.01646,"longitude0":-107.967573,"id":"a63egtldweiu","address0":"39084 HIGHWAY 13, MEEKER, CO 81641"},"type":"Feature","geometry":{"type":"Point","coordinates":[-107.967573,40.01646]}},{"properties":{"latitude0":40.033717,"longitude0":-107.98755,"id":"a63egtclujqd","address0":"73179 HIGHWAY 64, MEEKER, CO 81641"},"type":"Feature","geometry":{"type":"Point","coordinates":[-107.98755,40.033717]}},{"properties":{"latitude0":40.05762,"longitude0":-106.368003,"id":"a63egtif5bih","address0":"2201 CENTRAL AVENUE, KREMMLING, CO 80459"},"type":"Feature","geometry":{"type":"Point","coordinates":[-106.368003,40.05762]}},{"properties":{"latitude0":40.062568,"longitude0":-102.226741,"id":"a63egtf1ye55","address0":"34172 HWY 385, WRAY, CO 80758"},"type":"Feature","geometry":{"type":"Point","coordinates":[-102.226741,40.062568]}},{"properties":{"latitude0":40.071784,"longitude0":-104.64593,"id":"a63egtb7zhdb","address0":"450 5TH AVE, HUDSON, CO 80642"},"type":"Feature","geometry":{"type":"Point","coordinates":[-104.64593,40.071784]}},{"properties":{"latitude0":40.08739,"longitude0":-105.093393,"id":"a63egtj3z2ij","address0":"29 HIGHWAY 52, LONGMONT, CO 80504"},"type":"Feature","geometry":{"type":"Point","coordinates":[-105.093393,40.08739]}},{"properties":{"latitude0":40.152516,"longitude0":-105.126613,"id":"a63egthgu0b9","address0":"9595 NELSON RD, LONGMONT, CO 80501"},"type":"Feature","geometry":{"type":"Point","coordinates":[-105.126613,40.152516]}},{"properties":{"latitude0":40.222209,"longitude0":-105.856065,"id":"a63egtjznmlw","address0":"12394 US HIGHWAY 34, GRAND LAKE, CO 80447"},"type":"Feature","geometry":{"type":"Point","coordinates":[-105.856065,40.222209]}},{"properties":{"latitude0":40.246677,"longitude0":-105.286469,"id":"a63egteltei1","address0":"18055 NORTH ST, LYONS, CO 80540"},"type":"Feature","geometry":{"type":"Point","coordinates":[-105.286469,40.246677]}},{"properties":{"latitude0":40.25419,"longitude0":-103.876249,"id":"a63egtbf8ts6","address0":"14390 US HIGHWAY 34, FORT MORGAN, CO 80701"},"type":"Feature","geometry":{"type":"Point","coordinates":[-103.876249,40.25419]}},{"properties":{"latitude0":40.254996,"longitude0":-105.840883,"id":"a63egtn51btc","address0":"143 COUNTY ROAD 48, GRAND LAKE, CO 80447"},"type":"Feature","geometry":{"type":"Point","coordinates":[-105.840883,40.254996]}},{"properties":{"latitude0":40.31146,"longitude0":-105.861139,"id":"a63egtn4woqx","address0":"1447 RT 491, GRAND LAKE, CO 80447"},"type":"Feature","geometry":{"type":"Point","coordinates":[-105.861139,40.31146]}},{"properties":{"latitude0":40.328995,"longitude0":-105.574896,"id":"a63egte3w6b4","address0":"3420 TUNNEL RD, ESTES PARK, CO 80517"},"type":"Feature","geometry":{"type":"Point","coordinates":[-105.574896,40.328995]}},{"properties":{"latitude0":40.341132,"longitude0":-105.430835,"id":"a63egtl4alez","address0":"5495 US HIGHWAY 36, ESTES PARK, CO 80517"},"type":"Feature","geometry":{"type":"Point","coordinates":[-105.430835,40.341132]}},{"properties":{"latitude0":40.346749,"longitude0":-105.53172,"id":"a63egth89tjh","address0":"2120 MARYS LAKE RD, ESTES PARK, CO 80517"},"type":"Feature","geometry":{"type":"Point","coordinates":[-105.53172,40.346749]}},{"properties":{"latitude0":40.354225,"longitude0":-104.981174,"id":"a63egtmv3goi","address0":"3618 SE FRONTAGE RD, LOVELAND, CO 80537"},"type":"Feature","geometry":{"type":"Point","coordinates":[-104.981174,40.354225]}},{"properties":{"latitude0":40.358965,"longitude0":-105.556282,"id":"a63egtn0etdn","address0":"1836 HIGHWAY 66, ESTES PARK, CO 80517"},"type":"Feature","geometry":{"type":"Point","coordinates":[-105.556282,40.358965]}},{"properties":{"latitude0":40.358965,"longitude0":-105.556282,"id":"a63egtpho6uy","address0":"1836 HWY 66, ESTES PARK, CO 80517"},"type":"Feature","geometry":{"type":"Point","coordinates":[-105.556282,40.358965]}},{"properties":{"latitude0":40.362048,"longitude0":-105.553089,"id":"a63egtjc8q5s","address0":"1665 COLORADO HWY 66, ESTES PARK, CO 80517"},"type":"Feature","geometry":{"type":"Point","coordinates":[-105.553089,40.362048]}},{"properties":{"latitude0":40.362336,"longitude0":-105.543146,"id":"a63egtkl5evl","address0":"1050 MARYS LAKE RD, ESTES PARK, CO 80517"},"type":"Feature","geometry":{"type":"Point","coordinates":[-105.543146,40.362336]}},{"properties":{"latitude0":40.362695,"longitude0":-105.537754,"id":"a63egt9nztl0","address0":"815 E RIVERSIDE DR, ESTES PARK, CO 80517"},"type":"Feature","geometry":{"type":"Point","coordinates":[-105.537754,40.362695]}},{"properties":{"latitude0":40.376984,"longitude0":-104.991461,"id":"a63egtoxfqaq","address0":"648 SE FRONTAGE RD, LOVELAND, CO 80537"},"type":"Feature","geometry":{"type":"Point","coordinates":[-104.991461,40.376984]}},{"properties":{"latitude0":40.378089,"longitude0":-105.487445,"id":"a63egtf5am1t","address0":"2051 BIG THOMPSON AVE, ESTES PARK, CO 80517"},"type":"Feature","geometry":{"type":"Point","coordinates":[-105.487445,40.378089]}},{"properties":{"latitude0":40.39114,"longitude0":-105.456399,"id":"a63egtlcxodm","address0":"2137 BIG THOMPSON CYN, DRAKE, CO 80515"},"type":"Feature","geometry":{"type":"Point","coordinates":[-105.456399,40.39114]}},{"properties":{"latitude0":40.406698,"longitude0":-105.196016,"id":"a63egtm1gac9","address0":"1326 N CARTER LAKE RD, LOVELAND, CO 80537"},"type":"Feature","geometry":{"type":"Point","coordinates":[-105.196016,40.406698]}},{"properties":{"latitude0":40.41875,"longitude0":-105.17682,"id":"a63egtk46n9d","address0":"6850 W US HIGHWAY 34, LOVELAND, CO 80537"},"type":"Feature","geometry":{"type":"Point","coordinates":[-105.17682,40.41875]}},{"properties":{"latitude0":40.423561,"longitude0":-104.731012,"id":"a63egtbig6jp","address0":"917 31ST AVE, GREELEY, CO 80631"},"type":"Feature","geometry":{"type":"Point","coordinates":[-104.731012,40.423561]}},{"properties":{"latitude0":40.507446,"longitude0":-106.889699,"id":"a63egtlso1s3","address0":"29135 W US HIGHWAY 40, STEAMBOAT SPGS, CO 80487"},"type":"Feature","geometry":{"type":"Point","coordinates":[-106.889699,40.507446]}},{"properties":{"latitude0":40.51076,"longitude0":-107.513769,"id":"a63egtlk3sz1","address0":"2800 E HIGHWAY 40, CRAIG, CO 81625"},"type":"Feature","geometry":{"type":"Point","coordinates":[-107.513769,40.51076]}},{"properties":{"latitude0":40.552807,"longitude0":-106.038032,"id":"a63egtd8ynlq","address0":"53337 HIGHWAY 14, WALDEN, CO 80480"},"type":"Feature","geometry":{"type":"Point","coordinates":[-106.038032,40.552807]}},{"properties":{"latitude0":40.615321,"longitude0":-105.114145,"id":"a63egtadm3fb","address0":"1910 N TAFT HILL RD., FT.COLLINS, CO 80524"},"type":"Feature","geometry":{"type":"Point","coordinates":[-105.114145,40.615321]}},{"properties":{"latitude0":40.62382,"longitude0":-103.163569,"id":"a63egtd56sk7","address0":"22018 US HIGHWAY 6, STERLING, CO 80751"},"type":"Feature","geometry":{"type":"Point","coordinates":[-103.163569,40.62382]}},{"properties":{"latitude0":40.665725,"longitude0":-105.189309,"id":"a63egtddfuvk","address0":"6670 US HIGHWAY 287, LAPORTE, CO 80535"},"type":"Feature","geometry":{"type":"Point","coordinates":[-105.189309,40.665725]}},{"properties":{"latitude0":40.696747,"longitude0":-105.605496,"id":"a63egtbhl2lm","address0":"33021 POUDRE CANYON HWY, BELLVUE, CO 80512"},"type":"Feature","geometry":{"type":"Point","coordinates":[-105.605496,40.696747]}},{"properties":{"latitude0":40.754959,"longitude0":-104.986343,"id":"a63egtk62wmf","address0":"4821 E COUNTY ROAD 70, WELLINGTON, CO 80549"},"type":"Feature","geometry":{"type":"Point","coordinates":[-104.986343,40.754959]}},{"properties":{"latitude0":40.840233,"longitude0":-105.648967,"id":"a63egtd9crlj","address0":"100 MARMOTT DR, RED FEATHER LKS, CO 80545"},"type":"Feature","geometry":{"type":"Point","coordinates":[-105.648967,40.840233]}}],"is_temporal":false,"author":{"url":null,"metadata":null,"contact_name":"","contact_address":"","source":"www.campusa.com","contact_phone":""},"source":null,"pagination":{"sort":null,"start":0,"total":210,"limit":1000000},"state":"complete","tags":"and,campgrounds,colorado,recreation,sports,trvael","published":"2014-08-11T07:09:47-04:00","id":6185}