{"type":"FeatureCollection","data_type":"Dataset","url_type":null,"permissions":[{"permissions":{"download":true,"view":true},"group_id":"everyone"}],"classification":null,"title":"Scores = 79-70 94108","count":16,"stream_id":64623,"contributor":{"url":"http://geocommons.com/users/16234","name":"jaejeb"},"data_attributes":null,"calculation_params":null,"icon_link":null,"link":"http://geocommons.com/overlays/64623.json","extent":[-122.409,37.7859,-122.405,37.7975],"geometry_types":["point"],"unique_name":null,"name":"Scores = 79-70 94108","feature_count":16,"description":"","next_feature":null,"is_raster":false,"short_classification":"Y","stats":{"2. inspection score":{"max":79,"mean":74.375,"variance":8.51666666666667,"stdev":2.91833285741477,"min":70,"median":74},"8. latitude":{"max":37.7974799,"mean":37.79280436875,"variance":1.21082424596198e-05,"stdev":0.00347968999475812,"min":37.7858967,"median":37.7943724},"9. longitude":{"max":-122.4052864,"mean":-122.40683775625,"variance":1.09834479196164e-06,"stdev":0.00104801946163306,"min":-122.4086919,"median":-122.4063776},"7. zip code":{"max":null,"min":null,"median":null}},"features":[{"properties":{"1. restaurant":"A-1 CAFE RESTAURANT","2. inspection score":71,"3. inspection date":"4/15/2010","8. latitude":37.7942734,"9. longitude":-122.4060637,"4. address":"779 CLAY ST","5. city":"SAN FRANCISCO","id":"a6bj0rvwfm6l","6. state":"CA","7. zip code":"94108"},"type":"Feature","geometry":{"type":"Point","coordinates":[-122.4060637,37.7942734]}},{"properties":{"1. restaurant":"BANGKOK NOODLES &amp; THAI BBQ","2. inspection score":73,"3. inspection date":"5/4/2010","8. latitude":37.7858967,"9. longitude":-122.4078538,"4. address":"110 POWELL ST","5. city":"SAN FRANCISCO","id":"a6bj0rwysva5","6. state":"CA","7. zip code":"94108"},"type":"Feature","geometry":{"type":"Point","coordinates":[-122.4078538,37.7858967]}},{"properties":{"1. restaurant":"BOW HON RESTAURANT","2. inspection score":79,"3. inspection date":"3/15/2010","8. latitude":37.7949777,"9. longitude":-122.4063776,"4. address":"850 GRANT AVE","5. city":"SAN FRANCISCO","id":"a6bj0s2sum2t","6. state":"CA","7. zip code":"94108"},"type":"Feature","geometry":{"type":"Point","coordinates":[-122.4063776,37.7949777]}},{"properties":{"1. restaurant":"CAFE MADELEINE","2. inspection score":74,"3. inspection date":"7/29/2010","8. latitude":37.786757,"9. longitude":-122.4052864,"4. address":"43 O'FARRELL ST","5. city":"SAN FRANCISCO","id":"a6bj0rztqim0","6. state":"CA","7. zip code":"94108"},"type":"Feature","geometry":{"type":"Point","coordinates":[-122.4052864,37.786757]}},{"properties":{"1. restaurant":"CATHAY HOUSE","2. inspection score":77,"3. inspection date":"11/17/2009","8. latitude":37.7924087,"9. longitude":-122.4064385,"4. address":"718 CALIFORNIA ST","5. city":"SAN FRANCISCO","id":"a6bj0rsqs6vd","6. state":"CA","7. zip code":"94108"},"type":"Feature","geometry":{"type":"Point","coordinates":[-122.4064385,37.7924087]}},{"properties":{"1. restaurant":"CHINATOWN RESTAURANT","2. inspection score":71,"3. inspection date":"3/11/2010","8. latitude":37.7952458,"9. longitude":-122.4059556,"4. address":"744 WASHINGTON ST","5. city":"SAN FRANCISCO","id":"a6bj0s11ns7f","6. state":"CA","7. zip code":"94108"},"type":"Feature","geometry":{"type":"Point","coordinates":[-122.4059556,37.7952458]}},{"properties":{"1. restaurant":"DESIGNER'S ART CAFE","2. inspection score":73,"3. inspection date":"12/1/2009","8. latitude":37.7943724,"9. longitude":-122.4079457,"4. address":"930 STOCKTON ST","5. city":"SAN FRANCISCO","id":"a6bj0s2yxqdw","6. state":"CA","7. zip code":"94108"},"type":"Feature","geometry":{"type":"Point","coordinates":[-122.4079457,37.7943724]}},{"properties":{"1. restaurant":"EMPRESS OF CHINA","2. inspection score":75,"3. inspection date":"4/6/2010","8. latitude":37.7974799,"9. longitude":-122.4069535,"4. address":"GRANT AVE","5. city":"SAN FRANCISCO","id":"a6bj0rttmp7x","6. state":"CA","7. zip code":"94108"},"type":"Feature","geometry":{"type":"Point","coordinates":[-122.4069535,37.7974799]}},{"properties":{"1. restaurant":"FOUR SEAS RESTAURANT","2. inspection score":70,"3. inspection date":"12/9/2009","8. latitude":37.7937742,"9. longitude":-122.4062244,"4. address":"731 GRANT AVE","5. city":"SAN FRANCISCO","id":"a6bj0s35zsc1","6. state":"CA","7. zip code":"94108"},"type":"Feature","geometry":{"type":"Point","coordinates":[-122.4062244,37.7937742]}},{"properties":{"1. restaurant":"GOURMET DELIGHT","2. inspection score":78,"3. inspection date":"8/5/2010","8. latitude":37.7956035,"9. longitude":-122.4082293,"4. address":"1045 STOCKTON ST","5. city":"SAN FRANCISCO","id":"a6bj0rsg4psv","6. state":"CA","7. zip code":"94108"},"type":"Feature","geometry":{"type":"Point","coordinates":[-122.4082293,37.7956035]}},{"properties":{"1. restaurant":"GRANT PLACE","2. inspection score":77,"3. inspection date":"3/15/2010","8. latitude":37.7951125,"9. longitude":-122.4062005,"4. address":"737 WASHINGTON ST","5. city":"SAN FRANCISCO","id":"a6bj0rqc2ius","6. state":"CA","7. zip code":"94108"},"type":"Feature","geometry":{"type":"Point","coordinates":[-122.4062005,37.7951125]}},{"properties":{"1. restaurant":"MOCCA","2. inspection score":75,"3. inspection date":"6/11/2010","8. latitude":37.7880755,"9. longitude":-122.4062596,"4. address":"175 MAIDEN LN","5. city":"SAN FRANCISCO","id":"a6bj0rtfw232","6. state":"CA","7. zip code":"94108"},"type":"Feature","geometry":{"type":"Point","coordinates":[-122.4062596,37.7880755]}},{"properties":{"1. restaurant":"NEW GOLDEN DAISY","2. inspection score":79,"3. inspection date":"7/8/2010","8. latitude":37.7954878,"9. longitude":-122.408314,"4. address":"1041 STOCKTON ST","5. city":"SAN FRANCISCO","id":"a6bj0rzam6v3","6. state":"CA","7. zip code":"94108"},"type":"Feature","geometry":{"type":"Point","coordinates":[-122.408314,37.7954878]}},{"properties":{"1. restaurant":"SABRA RESTAURANT","2. inspection score":72,"3. inspection date":"6/8/2010","8. latitude":37.790892,"9. longitude":-122.405669,"4. address":"419 GRANT AVE","5. city":"SAN FRANCISCO","id":"a6bj0s1d0g61","6. state":"CA","7. zip code":"94108"},"type":"Feature","geometry":{"type":"Point","coordinates":[-122.405669,37.790892]}},{"properties":{"1. restaurant":"SOTANO GRILL","2. inspection score":74,"3. inspection date":"6/30/2010","8. latitude":37.7897972,"9. longitude":-122.4086919,"4. address":"550 POWELL ST","5. city":"SAN FRANCISCO","id":"a6bj0rybdxpo","6. state":"CA","7. zip code":"94108"},"type":"Feature","geometry":{"type":"Point","coordinates":[-122.4086919,37.7897972]}},{"properties":{"1. restaurant":"UTOPIA CAFE","2. inspection score":72,"3. inspection date":"7/27/2010","8. latitude":37.7947156,"9. longitude":-122.4069406,"4. address":"139 WAVERLY PL","5. city":"SAN FRANCISCO","id":"a6bj0rxydemq","6. state":"CA","7. zip code":"94108"},"type":"Feature","geometry":{"type":"Point","coordinates":[-122.4069406,37.7947156]}}],"is_temporal":false,"author":{"url":"http://sf.everyblock.com","metadata":"","contact_name":"","contact_address":"","source":"EveryBlock","contact_phone":""},"source":"http://sf.everyblock.com","pagination":{"sort":null,"start":0,"total":16,"limit":1000000},"state":"complete","tags":"94108,francisco,inspections,restaurant,san","published":"2010-09-27T16:00:00Z","id":64623}