{"type":"FeatureCollection","data_type":"Dataset","url_type":null,"permissions":[{"permissions":{"download":true,"view":true},"group_id":"everyone"}],"classification":null,"title":"Under Armour Retail Stores, Indiana","count":48,"stream_id":6536,"contributor":{"url":"http://geocommons.com/users/2","name":"data"},"data_attributes":null,"calculation_params":null,"icon_link":null,"link":"http://geocommons.com/overlays/6536.json","extent":[-87.5568,37.9844,-84.8367,41.7203],"geometry_types":["point"],"unique_name":null,"name":"Under Armour Retail Stores, Indiana","feature_count":48,"description":"Indiana: This dataset displays the locations of the retail stores that carry Under Armour goods. This data was collected from the Under Armour Web Page at: http://www.underarmour.com/shop/find-a-retailer\n                                                                              This data was accessed on December 13, 2007 The data was geocoded according to address in order to find the Latitude and Longitude Coordinates.","next_feature":null,"is_raster":false,"short_classification":"Y","stats":{"Longitude0":{"max":-84.836675,"mean":-86.1986841458333,"variance":0.606737627719743,"stdev":0.778933647828712,"min":-87.556772,"median":-86.124521},"Latitude0":{"max":41.72032,"mean":40.1762502291666,"variance":1.22117430919452,"stdev":1.10506755865627,"min":37.984375,"median":40.099296}},"features":[{"properties":{"Notes0":"","Store0":"DUNHAM'S","Longitude0":-87.556772,"City0":"EVANSVILLE IN 47711","Phone0":"(812) 429-0008","Latitude0":37.99961,"id":"a62he79bgt8e","Address0":"500 E. DIAMOND AVENUE"},"type":"Feature","geometry":{"type":"Point","coordinates":[-87.556772,37.99961]}},{"properties":{"Notes0":"","Store0":"DUNHAM'S","Longitude0":-87.492846,"City0":"EVANSVILLE IN 47715","Phone0":"(812) 473-4141","Latitude0":37.984375,"id":"a62he76fsh6c","Address0":"860 GREEN RIVER ROAD"},"type":"Feature","geometry":{"type":"Point","coordinates":[-87.492846,37.984375]}},{"properties":{"Notes0":"","Store0":"GUS DOERNER SPORTS","Longitude0":-87.476288,"City0":"EVANSVILLE IN 47715","Phone0":"(812) 424-3821","Latitude0":37.987451,"id":"a62he7bj0htn","Address0":"6219 VOGEL RD"},"type":"Feature","geometry":{"type":"Point","coordinates":[-87.476288,37.987451]}},{"properties":{"Notes0":"","Store0":"MC SPORTS","Longitude0":-87.470984,"City0":"HIGHLAND IN 46322","Phone0":"(219) 924-3792","Latitude0":41.527866,"id":"a62he6yymqqm","Address0":"10239 INDIANAPOLIS BLVD"},"type":"Feature","geometry":{"type":"Point","coordinates":[-87.470984,41.527866]}},{"properties":{"Notes0":"","Store0":"VARSITY SPORTS","Longitude0":-87.427794,"City0":"GRIFFITH IN 46319","Phone0":"(219) 924-5110","Latitude0":41.523475,"id":"a62he718jxs0","Address0":"134 N. BROAD ST."},"type":"Feature","geometry":{"type":"Point","coordinates":[-87.427794,41.523475]}},{"properties":{"Notes0":"","Store0":"KESSLERS","Longitude0":-87.417089,"City0":"TERRE HAUTE IN 47802","Phone0":"(812) 232-7061","Latitude0":39.424808,"id":"a62he716u71f","Address0":"78 W. HONEY CREEK PKWY"},"type":"Feature","geometry":{"type":"Point","coordinates":[-87.417089,39.424808]}},{"properties":{"Notes0":"","Store0":"PACESETTER SPORTS","Longitude0":-87.413863,"City0":"TERRE HAUTE IN 47802","Phone0":"(812) 232-8326","Latitude0":39.43631,"id":"a62he76hkpms","Address0":"2831 SOUTH 3RD STREET"},"type":"Feature","geometry":{"type":"Point","coordinates":[-87.413863,39.43631]}},{"properties":{"Notes0":"","Store0":"THE SPORTS AUTHORITY","Longitude0":-87.296675,"City0":"MERRILLVILLE IN 46410","Phone0":"(219) 942-3500","Latitude0":41.47027,"id":"a62he7d9p1ye","Address0":"3201 EAST LINCOLN HIGHWAY"},"type":"Feature","geometry":{"type":"Point","coordinates":[-87.296675,41.47027]}},{"properties":{"Notes0":"","Store0":"VARSITY SPORTS","Longitude0":-87.198656,"City0":"DEMOTTE IN 46310","Phone0":"(219) 987-7200","Latitude0":41.207294,"id":"a62he73v5269","Address0":"527 N. HALLECK ST."},"type":"Feature","geometry":{"type":"Point","coordinates":[-87.198656,41.207294]}},{"properties":{"Notes0":"","Store0":"BASS PRO - PORTAGE","Longitude0":-87.167599,"City0":"PORTAGE IN 46368","Phone0":"","Latitude0":41.60661,"id":"a62he73vh2xi","Address0":"6425 DANIEL BURNHAM DR."},"type":"Feature","geometry":{"type":"Point","coordinates":[-87.167599,41.60661]}},{"properties":{"Notes0":"","Store0":"BLYTHE'S SPORT SHOP","Longitude0":-87.045678,"City0":"VALPARAISO IN 46383","Phone0":"(219) 922-3246","Latitude0":41.493767,"id":"a62he7ah1yvp","Address0":"2810 N. CALUMET AVE"},"type":"Feature","geometry":{"type":"Point","coordinates":[-87.045678,41.493767]}},{"properties":{"Notes0":"","Store0":"THE ATHLETE","Longitude0":-86.869092,"City0":"LAFAYETTE IN 47905","Phone0":"(765) 474-6478","Latitude0":40.395609,"id":"a62he79vz41j","Address0":"2424 TEAL RD"},"type":"Feature","geometry":{"type":"Point","coordinates":[-86.869092,40.395609]}},{"properties":{"Notes0":"","Store0":"MC SPORTS","Longitude0":-86.534235,"City0":"BLOOMINGTON IN 47402","Phone0":"(812) 332-2953","Latitude0":39.166724,"id":"a62he6xb9y7r","Address0":"WHITEHALL CROSSING, 3100 SUSAN DR"},"type":"Feature","geometry":{"type":"Point","coordinates":[-86.534235,39.166724]}},{"properties":{"Notes0":"","Store0":"AVON SPORTS APPAREL","Longitude0":-86.394682,"City0":"AVON IN 46123","Phone0":"(317) 272-3831","Latitude0":39.76299,"id":"a62he796a0gl","Address0":"7127 E. HWY 86"},"type":"Feature","geometry":{"type":"Point","coordinates":[-86.394682,39.76299]}},{"properties":{"Notes0":"","Store0":"GALYAN'S","Longitude0":-86.366782,"City0":"PLAINFIELD IN 46168","Phone0":"(317) 839-2316","Latitude0":39.713853,"id":"a62he78uxh52","Address0":"2382 E. MAIN STREET"},"type":"Feature","geometry":{"type":"Point","coordinates":[-86.366782,39.713853]}},{"properties":{"Notes0":"","Store0":"DUNHAM'S","Longitude0":-86.312767,"City0":"LOGANSPORT IN 46947","Phone0":"(574) 722-3359","Latitude0":40.757378,"id":"a62he7ajdafk","Address0":"3916 E. MARKET ST."},"type":"Feature","geometry":{"type":"Point","coordinates":[-86.312767,40.757378]}},{"properties":{"Notes0":"","Store0":"GALYAN'S","Longitude0":-86.263738,"City0":"INDIANAPOLIS IN 46254","Phone0":"(317) 299-5950","Latitude0":39.843296,"id":"a62he6z13oe2","Address0":"PIKE PLAZA - 5210 PIKE PLAZA ROAD"},"type":"Feature","geometry":{"type":"Point","coordinates":[-86.263738,39.843296]}},{"properties":{"Notes0":"","Store0":"THE WINNING EDGE","Longitude0":-86.219779,"City0":"ROCHESTER IN 46975","Phone0":"","Latitude0":41.049949,"id":"a62he704by2y","Address0":"221 ROUCH PLACE DRIVE"},"type":"Feature","geometry":{"type":"Point","coordinates":[-86.219779,41.049949]}},{"properties":{"Notes0":"","Store0":"KESSLERS","Longitude0":-86.211224,"City0":"INDIANAPOLIS IN 46222","Phone0":"(317) 924-1012","Latitude0":39.809085,"id":"a62he7dhe630","Address0":"2956 KESSLER BLVD N. DRIVE"},"type":"Feature","geometry":{"type":"Point","coordinates":[-86.211224,39.809085]}},{"properties":{"Notes0":"","Store0":"DUNHAM'S","Longitude0":-86.194939,"City0":"MISHAWAKA IN 46545","Phone0":"(574) 255-6600","Latitude0":41.683693,"id":"a62he70w381a","Address0":"2572 MIRACLE LANE, #40"},"type":"Feature","geometry":{"type":"Point","coordinates":[-86.194939,41.683693]}},{"properties":{"Notes0":"","Store0":"DICK'S SPORTING GOODS","Longitude0":-86.187268,"City0":"MISHAWAKA IN 46545","Phone0":"(219) 243-4789","Latitude0":41.7013,"id":"a62he732vn3t","Address0":"4520 GRAPE RD"},"type":"Feature","geometry":{"type":"Point","coordinates":[-86.187268,41.7013]}},{"properties":{"Notes0":"","Store0":"BACK OF THE NET SPORTS","Longitude0":-86.165466,"City0":"GRANGER IN 46530","Phone0":"574-243-5770","Latitude0":41.72032,"id":"a62he7cdoni8","Address0":"1435 UNIVERSITY DR"},"type":"Feature","geometry":{"type":"Point","coordinates":[-86.165466,41.72032]}},{"properties":{"Notes0":"","Store0":"SOCCER UNLIMITED","Longitude0":-86.12719,"City0":"CARMEL IN 46032","Phone0":"317.848.4797","Latitude0":39.972165,"id":"a62he7231gt5","Address0":"622 SOUTH RANGELINE ROAD"},"type":"Feature","geometry":{"type":"Point","coordinates":[-86.12719,39.972165]}},{"properties":{"Notes0":"","Store0":"GALYAN'S","Longitude0":-86.124755,"City0":"GREENWOOD IN 46142","Phone0":"(317) 851 1400","Latitude0":39.63031,"id":"a62he7a031ab","Address0":"733 LOWES BLVD."},"type":"Feature","geometry":{"type":"Point","coordinates":[-86.124755,39.63031]}},{"properties":{"Notes0":"","Store0":"DICK'S SPORTING GOODS","Longitude0":-86.124521,"City0":"GREENWOOD IN 46142","Phone0":"(317) 271-7850","Latitude0":39.632755,"id":"a62he77dwqay","Address0":"1251 US 31 NORTH"},"type":"Feature","geometry":{"type":"Point","coordinates":[-86.124521,39.632755]}},{"properties":{"Notes0":"","Store0":"DUNHAM'S","Longitude0":-86.124399,"City0":"KOKOMO IN 46902","Phone0":"(765) 453-0071","Latitude0":40.443328,"id":"a62he78m6mxq","Address0":"3754 S. REED"},"type":"Feature","geometry":{"type":"Point","coordinates":[-86.124399,40.443328]}},{"properties":{"Notes0":"","Store0":"GALYAN'S","Longitude0":-86.123056,"City0":"CARMEL IN 46033","Phone0":"(317) 573-7777","Latitude0":40.002943,"id":"a62he79k8cct","Address0":"2003 E. GREYHOUND PASS"},"type":"Feature","geometry":{"type":"Point","coordinates":[-86.123056,40.002943]}},{"properties":{"Notes0":"","Store0":"DICK'S SPORTING GOODS","Longitude0":-86.07538,"City0":"CASTLETON IN 46250","Phone0":"(317) 578-3586","Latitude0":39.905337,"id":"a62he6x2unqy","Address0":"5470 EAST 82ND ST."},"type":"Feature","geometry":{"type":"Point","coordinates":[-86.07538,39.905337]}},{"properties":{"Notes0":"","Store0":"GALYAN'S","Longitude0":-86.068164,"City0":"INDIANAPOLIS IN 46250","Phone0":"(317) 576-0300","Latitude0":39.907197,"id":"a62he70i3tvs","Address0":"CASTLETON SQUARE - 6020 E. 82ND STREET"},"type":"Feature","geometry":{"type":"Point","coordinates":[-86.068164,39.907197]}},{"properties":{"Notes0":"","Store0":"LAW ENFORCEMENT &amp; SAFETY EQUIPMENT","Longitude0":-86.052953,"City0":"INDIANAPOLIS IN 46219-2299","Phone0":"3173520184","Latitude0":39.796555,"id":"a62he76cgwbf","Address0":"6680 E. 21ST STREET"},"type":"Feature","geometry":{"type":"Point","coordinates":[-86.052953,39.796555]}},{"properties":{"Notes0":"","Store0":"KESSLER'S SPORTS SHOP","Longitude0":-86.041524,"City0":"INDIANAPOLIS IN 46219","Phone0":"(317) 352-9826","Latitude0":39.796265,"id":"a62he7c45ycb","Address0":"7215 EAST 21ST ST. SUITE G"},"type":"Feature","geometry":{"type":"Point","coordinates":[-86.041524,39.796265]}},{"properties":{"Notes0":"","Store0":"RENEKER'S SPORTS SHOP","Longitude0":-85.85245,"City0":"WARSAW IN 46580","Phone0":"(219) 267-2800","Latitude0":41.24417,"id":"a62he6xeoc8q","Address0":"618 N. DETROIT STREET"},"type":"Feature","geometry":{"type":"Point","coordinates":[-85.85245,41.24417]}},{"properties":{"Notes0":"","Store0":"DUNHAM'S","Longitude0":-85.819293,"City0":"WARSAW IN 46580","Phone0":"(219) 268-9715","Latitude0":41.237744,"id":"a62he7b4kzja","Address0":"2806 FRONTAGE ROAD"},"type":"Feature","geometry":{"type":"Point","coordinates":[-85.819293,41.237744]}},{"properties":{"Notes0":"","Store0":"BUSH-KELLER SPORTING GOODS","Longitude0":-85.806521,"City0":"NEW ALBANY IN 47150","Phone0":"812-945-1146","Latitude0":38.292176,"id":"a62he6zbhp5w","Address0":"340 VINCENNES STREET"},"type":"Feature","geometry":{"type":"Point","coordinates":[-85.806521,38.292176]}},{"properties":{"Notes0":"","Store0":"BASS PRO - CLARKSVILLE","Longitude0":-85.758541,"City0":"CLARKSVILLE IN 47129","Phone0":"(812) 218-5500","Latitude0":38.316136,"id":"a62he6ybjus7","Address0":"951 E. LEWIS &amp; CLARK PKWY"},"type":"Feature","geometry":{"type":"Point","coordinates":[-85.758541,38.316136]}},{"properties":{"Notes0":"","Store0":"DICK'S SPORTING GOODS","Longitude0":-85.758541,"City0":"CLARKSVILLE IN 47129","Phone0":"(812) 284-4891","Latitude0":38.316136,"id":"a62he6x6z4x5","Address0":"951 EAST HIGHWAY 131"},"type":"Feature","geometry":{"type":"Point","coordinates":[-85.758541,38.316136]}},{"properties":{"Notes0":"","Store0":"KIESLERS POLICE SUPPLY","Longitude0":-85.749834,"City0":"JEFFERSONVILLE IN 47130","Phone0":"812288-5740","Latitude0":38.313772,"id":"a62he70hkag2","Address0":"3300 INDUSTRIAL PARKWAY"},"type":"Feature","geometry":{"type":"Point","coordinates":[-85.749834,38.313772]}},{"properties":{"Notes0":"","Store0":"DUNHAM'S","Longitude0":-85.672918,"City0":"MARION IN 46953","Phone0":"(765) 674-2000","Latitude0":40.511274,"id":"a62he7bthdbh","Address0":"4807 SOUTH WESTERN"},"type":"Feature","geometry":{"type":"Point","coordinates":[-85.672918,40.511274]}},{"properties":{"Notes0":"","Store0":"DUNHAM'S","Longitude0":-85.652478,"City0":"ANDERSON IN 46016","Phone0":"(765) 649-7136","Latitude0":40.099296,"id":"a62he73839qx","Address0":"1716 SCATTERFIELD"},"type":"Feature","geometry":{"type":"Point","coordinates":[-85.652478,40.099296]}},{"properties":{"Notes0":"","Store0":"DUNHAM'S","Longitude0":-85.404769,"City0":"MUNCIE IN 47304","Phone0":"(765) 284-4496","Latitude0":40.218793,"id":"a62he6z4eqzi","Address0":"1611 W. MC GALLIARD"},"type":"Feature","geometry":{"type":"Point","coordinates":[-85.404769,40.218793]}},{"properties":{"Notes0":"","Store0":"SPORTS CENTER","Longitude0":-85.257338,"City0":"FT. WAYNE IN 46804","Phone0":"(219) 436-6198","Latitude0":41.033328,"id":"a62he7ck6uhf","Address0":"5633 COVENTRY LN"},"type":"Feature","geometry":{"type":"Point","coordinates":[-85.257338,41.033328]}},{"properties":{"Notes0":"","Store0":"DICK'S SPORTING GOODS","Longitude0":-85.200702,"City0":"FORT WAYNE IN 46804","Phone0":"(219) 434-0181","Latitude0":41.070948,"id":"a62he774lhz3","Address0":"1520 APPLE GLEN BLVD."},"type":"Feature","geometry":{"type":"Point","coordinates":[-85.200702,41.070948]}},{"properties":{"Notes0":"","Store0":"BRATEMAN'S INC.-LAW","Longitude0":-85.135559,"City0":"FORT WAYNE IN 46825","Phone0":"260484-8665","Latitude0":41.127763,"id":"a62he71pkadz","Address0":"5326 COLDWATER ROAD"},"type":"Feature","geometry":{"type":"Point","coordinates":[-85.135559,41.127763]}},{"properties":{"Notes0":"","Store0":"MC SPORTS","Longitude0":-85.118079,"City0":"FORT WAYNE IN 46805","Phone0":"(219) 484-6559","Latitude0":41.098566,"id":"a62he77rqrf3","Address0":"GLENNBROOK COMMONS, 4122 NORTHROP"},"type":"Feature","geometry":{"type":"Point","coordinates":[-85.118079,41.098566]}},{"properties":{"Notes0":"","Store0":"KESSLERS","Longitude0":-85.100654,"City0":"FORT WAYNE IN 46835","Phone0":"(260) 486-8485","Latitude0":41.132237,"id":"a62he6yacc1i","Address0":"5751 ST. JOE RD"},"type":"Feature","geometry":{"type":"Point","coordinates":[-85.100654,41.132237]}},{"properties":{"Notes0":"","Store0":"KESSLERS","Longitude0":-84.978035,"City0":"PORTLAND IN 47371","Phone0":"(260) 726-4939","Latitude0":40.434585,"id":"a62he6zgcfsj","Address0":"216 N. MERIDIAN ST."},"type":"Feature","geometry":{"type":"Point","coordinates":[-84.978035,40.434585]}},{"properties":{"Notes0":"","Store0":"KESSLER'S SPORTS SHOP","Longitude0":-84.888294,"City0":"RICHMOND IN 47374","Phone0":"(614) 841-1883","Latitude0":39.829244,"id":"a62he790xj41","Address0":"930 EAST MAIN STREET"},"type":"Feature","geometry":{"type":"Point","coordinates":[-84.888294,39.829244]}},{"properties":{"Notes0":"","Store0":"DUNHAM'S","Longitude0":-84.836675,"City0":"RICHMOND IN 47374","Phone0":"(765) 965-9966","Latitude0":39.830955,"id":"a62he78jn0ie","Address0":"4651 NATIONAL ROAD EAST"},"type":"Feature","geometry":{"type":"Point","coordinates":[-84.836675,39.830955]}}],"is_temporal":false,"author":{"url":"","metadata":"","contact_name":"","contact_address":"","source":"","contact_phone":""},"source":"","pagination":{"sort":null,"start":0,"total":48,"limit":1000000},"state":"complete","tags":"","published":"2014-08-11T07:28:11-04:00","id":6536}