{"type":"FeatureCollection","data_type":"Dataset","url_type":null,"permissions":[{"permissions":{"download":true,"view":true},"group_id":"everyone"}],"classification":null,"title":"Top 100 Highest US Cities - By Elevation, USA","count":91,"stream_id":6908,"contributor":{"url":"http://geocommons.com/users/2","name":"data"},"data_attributes":null,"calculation_params":null,"icon_link":null,"link":"http://geocommons.com/overlays/6908.json","extent":[-121.95,32.7701,-104.439,43.5196],"geometry_types":["point"],"unique_name":null,"name":"Top 100 Highest US Cities - By Elevation, USA","feature_count":91,"description":"This dataset shows the top 100 US cities ranked according to their Elevation. You might have guessed it, almost all of the cities are in Colorado, still interesting stuff though. i was able to geocode 91 out of the top 100 cities, so take a look and let me know what you think.Source URL: http://www.city-data.com/top13.html","next_feature":null,"is_raster":false,"short_classification":"Y","stats":{"Inverse Ra":{"max":100.0,"mean":51.8901098901099,"variance":816.921123321123,"stdev":28.5818320497676,"min":2.0,"median":51.0},"Elevation ":{"max":9220.0,"mean":6163.25274725275,"variance":838094.990964591,"stdev":915.475281460177,"min":5236.0,"median":5868.0},"Rank0":{"max":99.0,"mean":49.1098901098901,"variance":816.921123321123,"stdev":28.5818320497676,"min":1.0,"median":50.0}},"features":[{"properties":{"State 0":"ID","Inverse Ra":14.0,"Elevation ":5329.0,"City0":"Hailey","Population":"0 - 9,999","Rank0":87.0,"id":"a623neil1g7c","County0":"Blaine County"},"type":"Feature","geometry":{"type":"Point","coordinates":[-114.315315246582,43.5196266174316]}},{"properties":{"State 0":"NM","Inverse Ra":74.0,"Elevation ":6720.0,"City0":"Ruidoso","Population":"0 - 9,999","Rank0":27.0,"id":"a623negvxzd6","County0":"Lincoln County"},"type":"Feature","geometry":{"type":"Point","coordinates":[-105.673042297363,33.3317527770996]}},{"properties":{"State 0":"WY","Inverse Ra":66.0,"Elevation ":6234.0,"City0":"Jackson","Population":"0 - 9,999","Rank0":35.0,"id":"a623negycr06","County0":"Teton County"},"type":"Feature","geometry":{"type":"Point","coordinates":[-110.762435913086,43.4799270629883]}},{"properties":{"State 0":"AZ","Inverse Ra":68.0,"Elevation ":6347.0,"City0":"Show Low","Population":"0 - 9,999","Rank0":33.0,"id":"a623nenn3f8o","County0":"Navajo County"},"type":"Feature","geometry":{"type":"Point","coordinates":[-110.029830932617,34.2542114257812]}},{"properties":{"State 0":"WY","Inverse Ra":22.0,"Elevation ":5355.0,"City0":"Lander","Population":"0 - 9,999","Rank0":79.0,"id":"a623neh3h2zh","County0":"Fremont County"},"type":"Feature","geometry":{"type":"Point","coordinates":[-108.730674743652,42.8330192565918]}},{"properties":{"State 0":"AZ","Inverse Ra":59.0,"Elevation ":6070.0,"City0":"Cottonwood","Population":"0 - 9,999","Rank0":42.0,"id":"a623nek9243f","County0":"Yavapai County"},"type":"Feature","geometry":{"type":"Point","coordinates":[-112.009880065918,34.7391891479492]}},{"properties":{"State 0":"NM","Inverse Ra":70.0,"Elevation ":6450.0,"City0":"Grants","Population":"0 - 9,999","Rank0":31.0,"id":"a623negqqu1u","County0":"Cibola County"},"type":"Feature","geometry":{"type":"Point","coordinates":[-107.851440429688,35.1472587585449]}},{"properties":{"State 0":"WY","Inverse Ra":81.0,"Elevation ":6769.0,"City0":"Rawlins","Population":"0 - 9,999","Rank0":20.0,"id":"a623nemmbdvq","County0":"Carbon County"},"type":"Feature","geometry":{"type":"Point","coordinates":[-107.238670349121,41.7910690307617]}},{"properties":{"State 0":"CA","Inverse Ra":79.0,"Elevation ":6754.0,"City0":"Big Bear Lake","Population":"0 - 9,999","Rank0":22.0,"id":"a623nekrbmef","County0":"San Bernardino County"},"type":"Feature","geometry":{"type":"Point","coordinates":[-116.911422729492,34.243896484375]}},{"properties":{"State 0":"UT","Inverse Ra":83.0,"Elevation ":6980.0,"City0":"Park City","Population":"0 - 9,999","Rank0":18.0,"id":"a623nem35rg9","County0":"Summit County"},"type":"Feature","geometry":{"type":"Point","coordinates":[-111.497970581055,40.6460609436035]}},{"properties":{"State 0":"UT","Inverse Ra":13.0,"Elevation ":5322.0,"City0":"Vernal","Population":"0 - 9,999","Rank0":88.0,"id":"a623nekuhh09","County0":"Uintah County"},"type":"Feature","geometry":{"type":"Point","coordinates":[-109.528755187988,40.4555206298828]}},{"properties":{"State 0":"CO","Inverse Ra":63.0,"Elevation ":6186.0,"City0":"Craig","Population":"0 - 9,999","Rank0":38.0,"id":"a623nem8529n","County0":"Moffat County"},"type":"Feature","geometry":{"type":"Point","coordinates":[-107.546447753906,40.515251159668]}},{"properties":{"State 0":"CO","Inverse Ra":75.0,"Elevation ":6728.0,"City0":"Steamboat Springs","Population":"0 - 9,999","Rank0":26.0,"id":"a623neknvzmn","County0":"Routt County"},"type":"Feature","geometry":{"type":"Point","coordinates":[-106.83171081543,40.484977722168]}},{"properties":{"State 0":"CO","Inverse Ra":92.0,"Elevation ":7522.0,"City0":"Estes Park","Population":"0 - 9,999","Rank0":9.0,"id":"a623nek0hkjo","County0":"Larimer County"},"type":"Feature","geometry":{"type":"Point","coordinates":[-105.521667480469,40.3772048950195]}},{"properties":{"State 0":"UT","Inverse Ra":40.0,"Elevation ":5566.0,"City0":"Price","Population":"0 - 9,999","Rank0":61.0,"id":"a623nengl2k4","County0":"Carbon County"},"type":"Feature","geometry":{"type":"Point","coordinates":[-110.81071472168,39.5994071960449]}},{"properties":{"State 0":"CO","Inverse Ra":35.0,"Elevation ":5490.0,"City0":"Superior","Population":"0 - 9,999","Rank0":66.0,"id":"a623neuda6il","County0":"Boulder County"},"type":"Feature","geometry":{"type":"Point","coordinates":[-105.168601989746,39.952766418457]}},{"properties":{"State 0":"NM","Inverse Ra":41.0,"Elevation ":5589.0,"City0":"Espanola","Population":"0 - 9,999","Rank0":60.0,"id":"a623netpsln6","County0":"Rio Arriba County"},"type":"Feature","geometry":{"type":"Point","coordinates":[-106.080581665039,35.9911346435547]}},{"properties":{"State 0":"CO","Inverse Ra":21.0,"Elevation ":5353.0,"City0":"Edgewater","Population":"0 - 9,999","Rank0":80.0,"id":"a623nepbjuj3","County0":"Jefferson County"},"type":"Feature","geometry":{"type":"Point","coordinates":[-105.064147949219,39.7530479431152]}},{"properties":{"State 0":"NM","Inverse Ra":73.0,"Elevation ":6680.0,"City0":"Raton","Population":"0 - 9,999","Rank0":28.0,"id":"a623nelcojjj","County0":"Colfax County"},"type":"Feature","geometry":{"type":"Point","coordinates":[-104.439147949219,36.9033584594727]}},{"properties":{"State 0":"NM","Inverse Ra":34.0,"Elevation ":5453.0,"City0":"Bloomfield","Population":"0 - 9,999","Rank0":67.0,"id":"a623neir0xqv","County0":"San Juan County"},"type":"Feature","geometry":{"type":"Point","coordinates":[-107.984512329102,36.7111129760742]}},{"properties":{"State 0":"CO","Inverse Ra":91.0,"Elevation ":7430.0,"City0":"Avon","Population":"0 - 9,999","Rank0":10.0,"id":"a623nell1zw2","County0":"Eagle County"},"type":"Feature","geometry":{"type":"Point","coordinates":[-106.522254943848,39.6313743591309]}},{"properties":{"State 0":"NM","Inverse Ra":43.0,"Elevation ":5623.0,"City0":"Aztec","Population":"0 - 9,999","Rank0":58.0,"id":"a623neo8wecr","County0":"San Juan County"},"type":"Feature","geometry":{"type":"Point","coordinates":[-107.99284362793,36.8222236633301]}},{"properties":{"State 0":"CA","Inverse Ra":97.0,"Elevation ":7920.0,"City0":"Mammoth Lakes","Population":"0 - 9,999","Rank0":4.0,"id":"a623neslielz","County0":"Mono County"},"type":"Feature","geometry":{"type":"Point","coordinates":[-118.972076416016,37.6485443115234]}},{"properties":{"State 0":"CO","Inverse Ra":20.0,"Elevation ":5345.0,"City0":"Rifle","Population":"0 - 9,999","Rank0":81.0,"id":"a623nesndlm8","County0":"Garfield County"},"type":"Feature","geometry":{"type":"Point","coordinates":[-107.78311920166,39.5347023010254]}},{"properties":{"State 0":"CO","Inverse Ra":94.0,"Elevation ":7544.0,"City0":"Alamosa","Population":"0 - 9,999","Rank0":7.0,"id":"a623nepg06mr","County0":"Alamosa County"},"type":"Feature","geometry":{"type":"Point","coordinates":[-105.870018005371,37.4694442749023]}},{"properties":{"State 0":"CO","Inverse Ra":64.0,"Elevation ":6201.0,"City0":"Cortez","Population":"0 - 9,999","Rank0":37.0,"id":"a623neudfw4j","County0":"Montezuma County"},"type":"Feature","geometry":{"type":"Point","coordinates":[-108.585929870605,37.3488807678223]}},{"properties":{"State 0":"CO","Inverse Ra":46.0,"Elevation ":5763.0,"City0":"Glenwood Springs","Population":"0 - 9,999","Rank0":55.0,"id":"a623neqaj6xq","County0":"Garfield County"},"type":"Feature","geometry":{"type":"Point","coordinates":[-107.324783325195,39.5505409240723]}},{"properties":{"State 0":"CO","Inverse Ra":12.0,"Elevation ":5320.0,"City0":"Sheridan","Population":"0 - 9,999","Rank0":89.0,"id":"a623nefnewi9","County0":"Arapahoe County"},"type":"Feature","geometry":{"type":"Point","coordinates":[-105.025260925293,39.6469268798828]}},{"properties":{"State 0":"CO","Inverse Ra":87.0,"Elevation ":7080.0,"City0":"Salida","Population":"0 - 9,999","Rank0":14.0,"id":"a623neps1oqd","County0":"Chaffee County"},"type":"Feature","geometry":{"type":"Point","coordinates":[-105.998901367188,38.5347175598145]}},{"properties":{"State 0":"CO","Inverse Ra":26.0,"Elevation ":5395.0,"City0":"Cherry Hills Village","Population":"0 - 9,999","Rank0":75.0,"id":"a623nencjsvl","County0":"Arapahoe County"},"type":"Feature","geometry":{"type":"Point","coordinates":[-104.959426879883,39.641658782959]}},{"properties":{"State 0":"CO","Inverse Ra":95.0,"Elevation ":7703.0,"City0":"Gunnison","Population":"0 - 9,999","Rank0":6.0,"id":"a623nemjyri4","County0":"Gunnison County"},"type":"Feature","geometry":{"type":"Point","coordinates":[-106.925315856934,38.5458221435547]}},{"properties":{"State 0":"CO","Inverse Ra":62.0,"Elevation ":6170.0,"City0":"Carbondale","Population":"0 - 9,999","Rank0":39.0,"id":"a623nefgzlt5","County0":"Garfield County"},"type":"Feature","geometry":{"type":"Point","coordinates":[-107.21117401123,39.4022064208984]}},{"properties":{"State 0":"UT","Inverse Ra":11.0,"Elevation ":5308.0,"City0":"Richfield","Population":"0 - 9,999","Rank0":90.0,"id":"a623nehgxw4m","County0":"Sevier County"},"type":"Feature","geometry":{"type":"Point","coordinates":[-112.084091186523,38.7724647521973]}},{"properties":{"State 0":"CO","Inverse Ra":96.0,"Elevation ":7907.0,"City0":"Aspen","Population":"0 - 9,999","Rank0":5.0,"id":"a623neqwddsj","County0":"Pitkin County"},"type":"Feature","geometry":{"type":"Point","coordinates":[-106.817535400391,39.1910972595215]}},{"properties":{"State 0":"CO","Inverse Ra":98.0,"Elevation ":8437.0,"City0":"Woodland Park","Population":"0 - 9,999","Rank0":3.0,"id":"a623neicg8ce","County0":"Teller County"},"type":"Feature","geometry":{"type":"Point","coordinates":[-105.056930541992,38.9938812255859]}},{"properties":{"State 0":"CO","Inverse Ra":56.0,"Elevation ":6019.0,"City0":"Trinidad","Population":"0 - 9,999","Rank0":45.0,"id":"a623neocd8fp","County0":"Las Animas County"},"type":"Feature","geometry":{"type":"Point","coordinates":[-104.500541687012,37.1694602966309]}},{"properties":{"State 0":"NM","Inverse Ra":52.0,"Elevation ":5938.0,"City0":"Silver City","Population":"10,000 - 49,999","Rank0":49.0,"id":"a623nerjc0ws","County0":"Grant County"},"type":"Feature","geometry":{"type":"Point","coordinates":[-108.280319213867,32.770076751709]}},{"properties":{"State 0":"AZ","Inverse Ra":23.0,"Elevation ":5368.0,"City0":"Prescott","Population":"10,000 - 49,999","Rank0":78.0,"id":"a623neg2967c","County0":"Yavapai County"},"type":"Feature","geometry":{"type":"Point","coordinates":[-112.468505859375,34.5400238037109]}},{"properties":{"State 0":"WY","Inverse Ra":61.0,"Elevation ":6109.0,"City0":"Green River","Population":"10,000 - 49,999","Rank0":40.0,"id":"a623neoi8hgd","County0":"Sweetwater County"},"type":"Feature","geometry":{"type":"Point","coordinates":[-109.466247558594,41.5285758972168]}},{"properties":{"State 0":"WY","Inverse Ra":78.0,"Elevation ":6749.0,"City0":"Evanston","Population":"10,000 - 49,999","Rank0":23.0,"id":"a623nekcknbs","County0":"Uinta County"},"type":"Feature","geometry":{"type":"Point","coordinates":[-110.963241577148,41.2682762145996]}},{"properties":{"State 0":"CO","Inverse Ra":65.0,"Elevation ":6210.0,"City0":"Castle Rock","Population":"10,000 - 49,999","Rank0":36.0,"id":"a623negm35qw","County0":"Douglas County"},"type":"Feature","geometry":{"type":"Point","coordinates":[-104.856094360352,39.3722076416016]}},{"properties":{"State 0":"CA","Inverse Ra":6.0,"Elevation ":5260.0,"City0":"Campbell","Population":"10,000 - 49,999","Rank0":95.0,"id":"a623nemx85rq","County0":"Santa Clara County"},"type":"Feature","geometry":{"type":"Point","coordinates":[-121.94995880127,37.2871627807617]}},{"properties":{"State 0":"CO","Inverse Ra":51.0,"Elevation ":5868.0,"City0":"Parker","Population":"10,000 - 49,999","Rank0":50.0,"id":"a623netctbef","County0":"Douglas County"},"type":"Feature","geometry":{"type":"Point","coordinates":[-104.761360168457,39.5185966491699]}},{"properties":{"State 0":"CO","Inverse Ra":39.0,"Elevation ":5546.0,"City0":"Fountain","Population":"10,000 - 49,999","Rank0":62.0,"id":"a623nefpleu7","County0":"El Paso County"},"type":"Feature","geometry":{"type":"Point","coordinates":[-104.700805664062,38.6822166442871]}},{"properties":{"State 0":"WY","Inverse Ra":88.0,"Elevation ":7163.0,"City0":"Laramie","Population":"10,000 - 49,999","Rank0":13.0,"id":"a623neoq9sxe","County0":"Albany County"},"type":"Feature","geometry":{"type":"Point","coordinates":[-105.591102600098,41.3113670349121]}},{"properties":{"State 0":"CO","Inverse Ra":25.0,"Elevation ":5389.0,"City0":"Littleton","Population":"10,000 - 49,999","Rank0":76.0,"id":"a623nejy2o07","County0":"Arapahoe County"},"type":"Feature","geometry":{"type":"Point","coordinates":[-105.016654968262,39.6133193969727]}},{"properties":{"State 0":"CO","Inverse Ra":31.0,"Elevation ":5450.0,"City0":"Greenwood Village","Population":"10,000 - 49,999","Rank0":70.0,"id":"a623nenbetvq","County0":"Arapahoe County"},"type":"Feature","geometry":{"type":"Point","coordinates":[-104.950813293457,39.6172103881836]}},{"properties":{"State 0":"CO","Inverse Ra":47.0,"Elevation ":5806.0,"City0":"Montrose","Population":"10,000 - 49,999","Rank0":54.0,"id":"a623neeomzcq","County0":"Montrose County"},"type":"Feature","geometry":{"type":"Point","coordinates":[-107.876174926758,38.4783134460449]}},{"properties":{"State 0":"CO","Inverse Ra":24.0,"Elevation ":5369.0,"City0":"Englewood","Population":"10,000 - 49,999","Rank0":77.0,"id":"a623netyp0bd","County0":"Arapahoe County"},"type":"Feature","geometry":{"type":"Point","coordinates":[-104.987754821777,39.6477699279785]}},{"properties":{"State 0":"CO","Inverse Ra":15.0,"Elevation ":5332.0,"City0":"Canon City","Population":"10,000 - 49,999","Rank0":86.0,"id":"a623nej9bxob","County0":"Fremont County"},"type":"Feature","geometry":{"type":"Point","coordinates":[-105.217216491699,38.4000015258789]}},{"properties":{"State 0":"CA","Inverse Ra":50.0,"Elevation ":5840.0,"City0":"Truckee","Population":"10,000 - 49,999","Rank0":51.0,"id":"a623net59o7u","County0":"Nevada County"},"type":"Feature","geometry":{"type":"Point","coordinates":[-120.183250427246,39.3279647827148]}},{"properties":{"State 0":"UT","Inverse Ra":48.0,"Elevation ":5834.0,"City0":"Cedar City","Population":"10,000 - 49,999","Rank0":53.0,"id":"a623neg7ld4b","County0":"Iron County"},"type":"Feature","geometry":{"type":"Point","coordinates":[-113.061897277832,37.6774787902832]}},{"properties":{"State 0":"CO","Inverse Ra":72.0,"Elevation ":6523.0,"City0":"Durango","Population":"10,000 - 49,999","Rank0":29.0,"id":"a623nee382ts","County0":"La Plata County"},"type":"Feature","geometry":{"type":"Point","coordinates":[-107.880065917969,37.2752838134766]}},{"properties":{"State 0":"NM","Inverse Ra":69.0,"Elevation ":6430.0,"City0":"Las Vegas","Population":"10,000 - 49,999","Rank0":32.0,"id":"a623nefbolr4","County0":"San Miguel County"},"type":"Feature","geometry":{"type":"Point","coordinates":[-105.223892211914,35.5939331054688]}},{"properties":{"State 0":"NM","Inverse Ra":8.0,"Elevation ":5292.0,"City0":"Farmington","Population":"10,000 - 49,999","Rank0":93.0,"id":"a623nekap45o","County0":"San Juan County"},"type":"Feature","geometry":{"type":"Point","coordinates":[-108.218696594238,36.7280654907227]}},{"properties":{"State 0":"CA","Inverse Ra":67.0,"Elevation ":6260.0,"City0":"South Lake Tahoe","Population":"10,000 - 49,999","Rank0":34.0,"id":"a623nep2bpk5","County0":"El Dorado County"},"type":"Feature","geometry":{"type":"Point","coordinates":[-119.984344482422,38.9332389831543]}},{"properties":{"State 0":"NM","Inverse Ra":71.0,"Elevation ":6508.0,"City0":"Gallup","Population":"10,000 - 49,999","Rank0":30.0,"id":"a623nenhdfnp","County0":"McKinley County"},"type":"Feature","geometry":{"type":"Point","coordinates":[-108.742584228516,35.5280838012695]}},{"properties":{"State 0":"CO","Inverse Ra":2.0,"Elevation ":5236.0,"City0":"Lafayette","Population":"10,000 - 49,999","Rank0":99.0,"id":"a623nehih8je","County0":"Boulder County"},"type":"Feature","geometry":{"type":"Point","coordinates":[-105.089714050293,39.993595123291]}},{"properties":{"State 0":"CO","Inverse Ra":16.0,"Elevation ":5337.0,"City0":"Louisville","Population":"10,000 - 49,999","Rank0":85.0,"id":"a623nepgzhvn","County0":"Boulder County"},"type":"Feature","geometry":{"type":"Point","coordinates":[-105.131935119629,39.9777641296387]}},{"properties":{"State 0":"CO","Inverse Ra":44.0,"Elevation ":5674.0,"City0":"Golden","Population":"10,000 - 49,999","Rank0":57.0,"id":"a623neud5dmr","County0":"Jefferson County"},"type":"Feature","geometry":{"type":"Point","coordinates":[-105.221099853516,39.7555503845215]}},{"properties":{"State 0":"CO","Inverse Ra":28.0,"Elevation ":5410.0,"City0":"Wheat Ridge","Population":"10,000 - 49,999","Rank0":73.0,"id":"a623nef29tjk","County0":"Jefferson County"},"type":"Feature","geometry":{"type":"Point","coordinates":[-105.077209472656,39.7660980224609]}},{"properties":{"State 0":"CO","Inverse Ra":27.0,"Elevation ":5400.0,"City0":"Broomfield","Population":"10,000 - 49,999","Rank0":74.0,"id":"a623nepoz1p1","County0":"Broomfield County"},"type":"Feature","geometry":{"type":"Point","coordinates":[-105.086654663086,39.9205436706543]}},{"properties":{"State 0":"CO","Inverse Ra":32.0,"Elevation ":5450.0,"City0":"Northglenn","Population":"10,000 - 49,999","Rank0":69.0,"id":"a623nek7vizc","County0":"Adams County"},"type":"Feature","geometry":{"type":"Point","coordinates":[-104.987205505371,39.8855438232422]}},{"properties":{"State 0":"CO","Inverse Ra":38.0,"Elevation ":5535.0,"City0":"Federal Heights","Population":"10,000 - 49,999","Rank0":63.0,"id":"a623neipnt9r","County0":"Adams County"},"type":"Feature","geometry":{"type":"Point","coordinates":[-104.998596191406,39.851375579834]}},{"properties":{"State 0":"CO","Inverse Ra":33.0,"Elevation ":5450.0,"City0":"Lakewood","Population":"100,000 - 249,999","Rank0":68.0,"id":"a623neo31mts","County0":"Jefferson County"},"type":"Feature","geometry":{"type":"Point","coordinates":[-105.08137512207,39.7047080993652]}},{"properties":{"State 0":"CO","Inverse Ra":9.0,"Elevation ":5300.0,"City0":"Westminster","Population":"100,000 - 249,999","Rank0":92.0,"id":"a623netnebfz","County0":"Adams County"},"type":"Feature","geometry":{"type":"Point","coordinates":[-105.037208557129,39.8366546630859]}},{"properties":{"State 0":"CO","Inverse Ra":17.0,"Elevation ":5340.0,"City0":"Arvada","Population":"100,000 - 249,999","Rank0":84.0,"id":"a623neh8ka8s","County0":"Jefferson County"},"type":"Feature","geometry":{"type":"Point","coordinates":[-105.087478637695,39.8027648925781]}},{"properties":{"State 0":"CO","Inverse Ra":55.0,"Elevation ":6008.0,"City0":"Colorado Springs","Population":"250,000 - 499,999","Rank0":46.0,"id":"a623net0xg4e","County0":"El Paso County"},"type":"Feature","geometry":{"type":"Point","coordinates":[-104.821357727051,38.8338813781738]}},{"properties":{"State 0":"CO","Inverse Ra":29.0,"Elevation ":5435.0,"City0":"Aurora","Population":"250,000 - 499,999","Rank0":72.0,"id":"a623nelsnm02","County0":"Arapahoe County"},"type":"Feature","geometry":{"type":"Point","coordinates":[-104.831924438477,39.7294273376465]}},{"properties":{"State 0":"CO","Inverse Ra":18.0,"Elevation ":5342.0,"City0":"Thornton","Population":"50,000 - 99,999","Rank0":83.0,"id":"a623negnrtp3","County0":"Adams County"},"type":"Feature","geometry":{"type":"Point","coordinates":[-104.971923828125,39.8680458068848]}},{"properties":{"State 0":"CO","Inverse Ra":19.0,"Elevation ":5344.0,"City0":"Boulder","Population":"50,000 - 99,999","Rank0":82.0,"id":"a623neklsrtq","County0":"Boulder County"},"type":"Feature","geometry":{"type":"Point","coordinates":[-105.270545959473,40.0149841308594]}},{"properties":{"State 0":"WY","Inverse Ra":58.0,"Elevation ":6067.0,"City0":"Cheyenne","Population":"50,000 - 99,999","Rank0":43.0,"id":"a623nelnmfqm","County0":"Laramie County"},"type":"Feature","geometry":{"type":"Point","coordinates":[-104.820243835449,41.1399803161621]}},{"properties":{"State 0":"AZ","Inverse Ra":82.0,"Elevation ":6899.0,"City0":"Flagstaff","Population":"50,000 - 99,999","Rank0":19.0,"id":"a623neqze3ty","County0":"Coconino County"},"type":"Feature","geometry":{"type":"Point","coordinates":[-111.651275634766,35.198070526123]}},{"properties":{"State 0":"NM","Inverse Ra":84.0,"Elevation ":6989.0,"City0":"Santa Fe","Population":"50,000 - 99,999","Rank0":17.0,"id":"a623nekygnmi","County0":"Santa Fe County"},"type":"Feature","geometry":{"type":"Point","coordinates":[-105.937797546387,35.6869697570801]}},{"properties":{"State 0":"CO","Inverse Ra":4.0,"Elevation ":5260.0,"City0":"Denver","Population":"500,000 - 999,999","Rank0":97.0,"id":"a623nepip9ij","County0":"Denver County"},"type":"Feature","geometry":{"type":"Point","coordinates":[-104.984703063965,39.7391586303711]}},{"properties":{"State 0":"CO","Inverse Ra":86.0,"Elevation ":7040.0,"City0":"Evergreen","Population":"Undetermined","Rank0":15.0,"id":"a623nen6z66e","County0":"Jefferson County"},"type":"Feature","geometry":{"type":"Point","coordinates":[-105.318389892578,39.6333808898926]}},{"properties":{"State 0":"AZ","Inverse Ra":36.0,"Elevation ":5506.0,"City0":"Chinle","Population":"Undetermined","Rank0":65.0,"id":"a623nettav44","County0":"Apache County"},"type":"Feature","geometry":{"type":"Point","coordinates":[-109.554000854492,36.1544647216797]}},{"properties":{"State 0":"CO","Inverse Ra":30.0,"Elevation ":5450.0,"City0":"Gunbarrel","Population":"Undetermined","Rank0":71.0,"id":"a623nes1i95v","County0":"Boulder County"},"type":"Feature","geometry":{"type":"Point","coordinates":[-105.171684265137,40.0655174255371]}},{"properties":{"State 0":"CO","Inverse Ra":99.0,"Elevation ":8697.0,"City0":"Columbine","Population":"Undetermined","Rank0":2.0,"id":"a623nenk0apu","County0":"Routt County"},"type":"Feature","geometry":{"type":"Point","coordinates":[-106.967788696289,40.8540496826172]}},{"properties":{"State 0":"UT","Inverse Ra":42.0,"Elevation ":5595.0,"City0":"Heber","Population":"Undetermined","Rank0":59.0,"id":"a623nekysswb","County0":"Wasatch County"},"type":"Feature","geometry":{"type":"Point","coordinates":[-111.417587280273,40.5086708068848]}},{"properties":{"State 0":"CO","Inverse Ra":89.0,"Elevation ":7226.0,"City0":"Edwards","Population":"Undetermined","Rank0":12.0,"id":"a623nem4l5fa","County0":"Eagle County"},"type":"Feature","geometry":{"type":"Point","coordinates":[-106.595527648926,39.6451568603516]}},{"properties":{"State 0":"NM","Inverse Ra":54.0,"Elevation ":5950.0,"City0":"White Rock","Population":"Undetermined","Rank0":47.0,"id":"a623nerw8ni1","County0":"Los Alamos County"},"type":"Feature","geometry":{"type":"Point","coordinates":[-106.210998535156,35.803825378418]}},{"properties":{"State 0":"CA","Inverse Ra":80.0,"Elevation ":6757.0,"City0":"Big Bear City","Population":"Undetermined","Rank0":21.0,"id":"a623nen2rho8","County0":"San Bernardino County"},"type":"Feature","geometry":{"type":"Point","coordinates":[-116.846870422363,34.2609596252441]}},{"properties":{"State 0":"CO","Inverse Ra":99.0,"Elevation ":8697.0,"City0":"Columbine","Population":"Undetermined","Rank0":2.0,"id":"a623nep0ajge","County0":"Jefferson County"},"type":"Feature","geometry":{"type":"Point","coordinates":[-105.0693359375,39.5878868103027]}},{"properties":{"State 0":"CO","Inverse Ra":49.0,"Elevation ":5835.0,"City0":"Fort Carson","Population":"Undetermined","Rank0":52.0,"id":"a623nergfqjg","County0":"El Paso County"},"type":"Feature","geometry":{"type":"Point","coordinates":[-104.782745361328,38.7419624328613]}},{"properties":{"State 0":"NV","Inverse Ra":45.0,"Elevation ":5700.0,"City0":"Spring Creek","Population":"Undetermined","Rank0":56.0,"id":"a623nefasdxz","County0":"Elko County"},"type":"Feature","geometry":{"type":"Point","coordinates":[-115.59676361084,40.7384262084961]}},{"properties":{"State 0":"NM","Inverse Ra":77.0,"Elevation ":6737.0,"City0":"Los Alamos","Population":"Undetermined","Rank0":24.0,"id":"a623netw6r3y","County0":"Los Alamos County"},"type":"Feature","geometry":{"type":"Point","coordinates":[-106.294097900391,35.8762397766113]}},{"properties":{"State 0":"CA","Inverse Ra":57.0,"Elevation ":6040.0,"City0":"Running Springs","Population":"Undetermined","Rank0":44.0,"id":"a623nee6i0h3","County0":"San Bernardino County"},"type":"Feature","geometry":{"type":"Point","coordinates":[-117.110427856445,34.2080421447754]}},{"properties":{"State 0":"CO","Inverse Ra":90.0,"Elevation ":7379.0,"City0":"Black Forest","Population":"Undetermined","Rank0":11.0,"id":"a623nee9wlbg","County0":"El Paso County"},"type":"Feature","geometry":{"type":"Point","coordinates":[-104.668663024902,39.0463180541992]}},{"properties":{"State 0":"AZ","Inverse Ra":3.0,"Elevation ":5245.0,"City0":"Whiteriver","Population":"Undetermined","Rank0":98.0,"id":"a623nequzl7f","County0":"Navajo County"},"type":"Feature","geometry":{"type":"Point","coordinates":[-109.962272644043,33.8389701843262]}},{"properties":{"State 0":"CO","Inverse Ra":100.0,"Elevation ":9220.0,"City0":"Twin Lakes","Population":"Undetermined","Rank0":1.0,"id":"a623nejxhsyg","County0":"Lake County"},"type":"Feature","geometry":{"type":"Point","coordinates":[-106.382843017578,39.0789413452148]}}],"is_temporal":false,"author":{"url":"http://www.city-data.com/top13.html","metadata":null,"contact_name":"","contact_address":"","source":"City Data.com","contact_phone":""},"source":"http://www.city-data.com/top13.html","pagination":{"sort":null,"start":0,"total":91,"limit":1000000},"state":"complete","tags":"elevation,topography","published":"2014-08-11T07:38:46-04:00","id":6908}