{"type":"FeatureCollection","data_type":"Dataset","url_type":null,"permissions":[{"permissions":{"download":true,"view":true},"group_id":"everyone"}],"classification":null,"title":"Japanese War Crimes, World, World War II","count":17,"stream_id":7302,"contributor":{"url":"http://geocommons.com/users/2","name":"data"},"data_attributes":null,"calculation_params":null,"icon_link":null,"link":"http://geocommons.com/overlays/7302.json","extent":[99.5092,-4.1972,152.168,47.3477],"geometry_types":["point"],"unique_name":null,"name":"Japanese War Crimes, World, World War II","feature_count":17,"description":"This dataset shows the Locations of various Japanese War Crimes during World War 2. This dataset was downloaded as a simple KML file which links back to a Wikipedia article about each location and war crime.Source: Google Earth CommunityDate Accessed: 01-14-08Source: http://bbs.keyhole.com/ubb/showflat.php?Cat=0&amp;Number=112882","next_feature":null,"is_raster":false,"short_classification":"Y","stats":{"z coordina":{"max":0.0,"mean":0.0,"variance":0.0,"stdev":0.0,"min":0.0,"median":0.0}},"features":[{"properties":{"descriptio":"04/02/1942\nhttp://en.wikipedia.org/wiki/Battle_of_Rabaul_%281942%29#Tol_Plantati","z coordina":0.0,"name0":"Tol Plantation Massacre","id":"a68eb2ou66a8"},"type":"Feature","geometry":{"type":"Point","coordinates":[152.168304306465,-4.19720185491214]}},{"properties":{"descriptio":"13/12/1937\nhttp://en.wikipedia.org/wiki/Nanjing_Massacre","z coordina":0.0,"name0":"Nanking Massacre","id":"a68eb2nhlvno"},"type":"Feature","geometry":{"type":"Point","coordinates":[118.765082798546,32.0577811766624]}},{"properties":{"descriptio":"15/02/1942\nhttp://en.wikipedia.org/wiki/Battle_of_Singapore#Alexandra_Hospital_m","z coordina":0.0,"name0":"Alexandra Hospital Massacre","id":"a68eb2r3l6wd"},"type":"Feature","geometry":{"type":"Point","coordinates":[103.816146482319,1.28719139834979]}},{"properties":{"descriptio":"16/02/1942\nhttp://en.wikipedia.org/wiki/Banka_Island_Massacre","z coordina":0.0,"name0":"Banka Island Massacre","id":"a68eb2os4tdu"},"type":"Feature","geometry":{"type":"Point","coordinates":[106.06727346603,-2.38280273102787]}},{"properties":{"descriptio":"1937 to 1945\nhttp://en.wikipedia.org/wiki/Unit_100","z coordina":0.0,"name0":"Unit 100","id":"a68eb2zy3xj2"},"type":"Feature","geometry":{"type":"Point","coordinates":[123.459396571526,41.812217017699]}},{"properties":{"descriptio":"1937 to 1945\nhttp://en.wikipedia.org/wiki/Unit_1644","z coordina":0.0,"name0":"Unit 1644","id":"a68eb2oyneyt"},"type":"Feature","geometry":{"type":"Point","coordinates":[118.771539871188,32.0608771141269]}},{"properties":{"descriptio":"1937 to 1945\nhttp://en.wikipedia.org/wiki/Unit_516","z coordina":0.0,"name0":"Unit 516","id":"a68eb32nsnyy"},"type":"Feature","geometry":{"type":"Point","coordinates":[123.967047633628,47.3477042048195]}},{"properties":{"descriptio":"1937 to 1945\nhttp://en.wikipedia.org/wiki/Unit_731","z coordina":0.0,"name0":"Unit 731","id":"a68eb30jv61y"},"type":"Feature","geometry":{"type":"Point","coordinates":[126.574331661479,45.7803699517705]}},{"properties":{"descriptio":"1938 to 1942\nhttp://en.wikipedia.org/wiki/Kaimingye_germ_weapon_attack","z coordina":0.0,"name0":"Kaimingye Germ Weapon Attacks","id":"a68eb2naynd2"},"type":"Feature","geometry":{"type":"Point","coordinates":[121.507393672651,29.8808011218057]}},{"properties":{"descriptio":"1942\nhttp://en.wikipedia.org/wiki/Bataan_Death_March","z coordina":0.0,"name0":"Bataan Death March","id":"a68eb2onvqe2"},"type":"Feature","geometry":{"type":"Point","coordinates":[121.028439294225,13.8330231745585]}},{"properties":{"descriptio":"1942 to 1943 \nhttp://en.wikipedia.org/wiki/Death_Railway","z coordina":0.0,"name0":"Death Railway","id":"a68eb2vs7ibc"},"type":"Feature","geometry":{"type":"Point","coordinates":[99.5091664398325,14.0370817168795]}},{"properties":{"descriptio":"1942 to 1945\nhttp://en.wikipedia.org/wiki/Sandakan_Death_Marches","z coordina":0.0,"name0":"Sandakan Death Marches","id":"a68eb2xjfhyy"},"type":"Feature","geometry":{"type":"Point","coordinates":[118.105439405721,5.85226872545958]}},{"properties":{"descriptio":"1942 to 1945\nhttp://en.wikipedia.org/wiki/Sook_Ching_Massacre","z coordina":0.0,"name0":"\"Sook Ching\" Massacre","id":"a68eb2t1mhuh"},"type":"Feature","geometry":{"type":"Point","coordinates":[103.843899027008,1.35016114676702]}},{"properties":{"descriptio":"23/01/1942\nhttp://en.wikipedia.org/wiki/Parit_Sulong#Parit_Sulong_Massacre","z coordina":0.0,"name0":"Parit Sulong Massacre","id":"a68eb306wso3"},"type":"Feature","geometry":{"type":"Point","coordinates":[102.885275463599,1.8572253104822]}},{"properties":{"descriptio":"April to May, 1943\nhttp://en.wikipedia.org/wiki/Changteh_Chemical_Weapon_Attack","z coordina":0.0,"name0":"Changde Chemical Weapon Attack","id":"a68eb2q1wmbo"},"type":"Feature","geometry":{"type":"Point","coordinates":[111.677227986034,29.0366841686019]}},{"properties":{"descriptio":"February, 1942\nhttp://en.wikipedia.org/wiki/Battle_of_Ambon#The_Laha_massacre","z coordina":0.0,"name0":"The Laha Massacre","id":"a68eb2qic1fu"},"type":"Feature","geometry":{"type":"Point","coordinates":[128.097072272825,-3.713914081501]}},{"properties":{"descriptio":"February, 1945\nhttp://en.wikipedia.org/wiki/Manila_Massacre","z coordina":0.0,"name0":"Manila Massacre","id":"a68eb2ozcw3x"},"type":"Feature","geometry":{"type":"Point","coordinates":[121.001636052401,14.6114767025174]}}],"is_temporal":false,"author":{"url":"http://bbs.keyhole.com/ubb/showflat.php?Cat=0&Number=112882","metadata":null,"contact_name":"","contact_address":"","source":"Google Earth Community","contact_phone":""},"source":"http://bbs.keyhole.com/ubb/showflat.php?Cat=0&Number=112882","pagination":{"sort":null,"start":0,"total":17,"limit":1000000},"state":"complete","tags":"history,military,war","published":"2008-01-14T12:00:00Z","id":7302}