{"type":"FeatureCollection","data_type":"Dataset","url_type":null,"permissions":[{"permissions":{"download":true,"view":true},"group_id":"everyone"}],"classification":null,"title":"western fertlizer plant data2","count":777,"stream_id":87526,"contributor":{"url":"http://geocommons.com/users/14766","name":"dpkennedy"},"data_attributes":null,"calculation_params":null,"icon_link":null,"link":"http://geocommons.com/overlays/87526.json","extent":[-102.038,35.9998,-89.2347,44.7838],"geometry_types":["point"],"unique_name":null,"name":"western fertlizer plant data2","feature_count":777,"description":"","next_feature":null,"is_raster":false,"short_classification":"Y","stats":{"id":{"max":2817,"mean":2429.0,"variance":50375.5,"stdev":224.444870736669,"min":2041,"median":2429}},"features":[{"properties":{"ship_phone":null,"city":"NEW HAVEN","name":"BACKES &amp; TOELKE AGRI PRODUCTS INC","column_10":null,"zip":"63068","st":"MO","comments":null,"geo_score":0.805,"column_9":"573-237-2191","id":"a62spzk8pewb","geo_precision":"range","address":"9948 HWY 100"},"type":"Feature","geometry":{"type":"Point","coordinates":[-91.256029,38.600119]}},{"properties":{"ship_phone":null,"city":"WASHINGTON","name":"MFA COOP ASSOCIATION 2","column_10":null,"zip":"63090","st":"MO","comments":null,"geo_score":0.568,"column_9":"314-239-2068","id":"a62spzc6bw05","geo_precision":"street","address":"FRONT &amp; MARKET STREETS"},"type":"Feature","geometry":{"type":"Point","coordinates":[-91.009087,38.559613]}},{"properties":{"ship_phone":null,"city":"ST CHARLES","name":"SIMON SOIL SERVICE INC","column_10":null,"zip":"63301","st":"MO","comments":null,"geo_score":0.834,"column_9":"314-258-4350","id":"a62spzj8fb0y","geo_precision":"range","address":"5055 NORTH HIGHWAY 94"},"type":"Feature","geometry":{"type":"Point","coordinates":[-90.444878,38.875762]}},{"properties":{"ship_phone":null,"city":"ST CHARLES","name":"ST CHARLES COUNTY COOPERATIVE CO INC","column_10":"DELETE PER REP","zip":"63301","st":"MO","comments":null,"geo_score":0.551,"column_9":"314-723-4878","id":"a62spzhnsa0w","geo_precision":"street","address":"2139 FIRST CAPITOL DRIVE"},"type":"Feature","geometry":{"type":"Point","coordinates":[-90.52882,38.81087]}},{"properties":{"ship_phone":null,"city":"SAINT CHARLES","name":"ST CHARLES COUNTY COOPERATIVE CO INC","column_10":"UNDELETE PER A CREEK","zip":"63301","st":"MO","comments":null,"geo_score":0.837,"column_9":"314-258-3805","id":"a62spzld4v7u","geo_precision":"range","address":"5055 NORTH HIGHWAY 94"},"type":"Feature","geometry":{"type":"Point","coordinates":[-90.444878,38.875762]}},{"properties":{"ship_phone":null,"city":"BELLFLOWER","name":"SERVICE &amp; SUPPLY COOPERATIVE","column_10":null,"zip":"63333","st":"MO","comments":null,"geo_score":0.408,"column_9":"314-929-3222","id":"a62spzntwmqu","geo_precision":"street","address":"ROUTE 1"},"type":"Feature","geometry":{"type":"Point","coordinates":[-90.77801,38.7459]}},{"properties":{"ship_phone":null,"city":"BOWLING GREEN","name":"VIGORO INDUSTRIES","column_10":null,"zip":"63334","st":"MO","comments":null,"geo_score":0.655,"column_9":"314-324-3188","id":"a62spzkj0e92","geo_precision":"street","address":"BUSINESS HIGHWAY 61 NORTH"},"type":"Feature","geometry":{"type":"Point","coordinates":[-91.178316,39.333926]}},{"properties":{"ship_phone":null,"city":"BOWLING GREEN","name":"NIEMEYER TRACTOR &amp; FARM SUPPLY INC","column_10":null,"zip":"63334","st":"MO","comments":null,"geo_score":0.439,"column_9":"314-324-3337","id":"a62spzqpndb8","geo_precision":"street","address":"RURAL ROUTE 3 BOX 73"},"type":"Feature","geometry":{"type":"Point","coordinates":[-91.387025,39.076125]}},{"properties":{"ship_phone":null,"city":"ELSBERRY","name":"MFA INC","column_10":"CLEAN","zip":"63343","st":"MO","comments":null,"geo_score":0.805,"column_9":"573-898-5757","id":"a62spznmithh","geo_precision":"range","address":"402 NORTH MAIN ST"},"type":"Feature","geometry":{"type":"Point","coordinates":[-90.782422,39.168801]}},{"properties":{"ship_phone":null,"city":"FORISTELL","name":"VEHIGE ENTERPRISES INC","column_10":null,"zip":"63348","st":"MO","comments":null,"geo_score":0.827,"column_9":"314-673-2202","id":"a62spzo3z2y2","geo_precision":"range","address":"1112 HIGHWAY T"},"type":"Feature","geometry":{"type":"Point","coordinates":[-90.962346,38.765601]}},{"properties":{"ship_phone":null,"city":"JONESBURG","name":"JONESBURG GRAIN","column_10":null,"zip":"63351","st":"MO","comments":null,"geo_score":0.857,"column_9":"314-488-5814","id":"a62spzievfde","geo_precision":"street","address":"ARLINGTON ST"},"type":"Feature","geometry":{"type":"Point","coordinates":[-91.309546,38.85026]}},{"properties":{"ship_phone":null,"city":"LADDONIA","name":"MFA INC","column_10":"CLEAN","zip":"63352","st":"MO","comments":null,"geo_score":0.524,"column_9":"314-373-5333","id":"a62spzesx76d","geo_precision":"street","address":"WEST MAIN"},"type":"Feature","geometry":{"type":"Point","coordinates":[-91.646059,39.243202]}},{"properties":{"ship_phone":null,"city":"LOUISIANA","name":"ACE FEEDS &amp; FERTILIZERS INC","column_10":null,"zip":"63353","st":"MO","comments":null,"geo_score":0.562,"column_9":"314-324-2423","id":"a62spzh4nr27","geo_precision":"street","address":"HIGHWAY 54 WEST"},"type":"Feature","geometry":{"type":"Point","coordinates":[-91.051431,39.454834]}},{"properties":{"ship_phone":null,"city":"LOUISIANA","name":"MFA INC","column_10":null,"zip":"63353","st":"MO","comments":null,"geo_score":0.743,"column_9":"314-754-4422","id":"a62spzfdy2to","geo_precision":"range","address":"400 SOUTH MAIN"},"type":"Feature","geometry":{"type":"Point","coordinates":[-91.04481,39.448229]}},{"properties":{"ship_phone":null,"city":"MIDDLETOWN","name":"G C DUNN &amp; SONS INC","column_10":null,"zip":"63359","st":"MO","comments":null,"geo_score":0.314,"column_9":"314-549-2444","id":"a62spzcbfh2l","geo_precision":"street","address":"CENTER &amp; MAIN STREET"},"type":"Feature","geometry":{"type":"Point","coordinates":[-91.412135,39.127244]}},{"properties":{"ship_phone":null,"city":"MONTGOMERY CITY","name":"PRODUCERS GRAIN COMPANY #31","column_10":"PER REP","zip":"63361","st":"MO","comments":null,"geo_score":0.582,"column_9":"314-564-2241","id":"a62spzdqrevp","geo_precision":"street","address":"226 N WALKER"},"type":"Feature","geometry":{"type":"Point","coordinates":[-91.500148,38.968029]}},{"properties":{"ship_phone":null,"city":"MONTGOMERY CITY","name":"PRAIRIE MILLING COMPANY","column_10":null,"zip":"63361","st":"MO","comments":null,"geo_score":0.624,"column_9":"314-564-2281","id":"a62spzbuks28","geo_precision":"range","address":"204 WEST SECOND"},"type":"Feature","geometry":{"type":"Point","coordinates":[-91.505934,38.97698]}},{"properties":{"ship_phone":null,"city":"MONTGOMERY CITY","name":"MFA INC","column_10":null,"zip":"63361","st":"MO","comments":null,"geo_score":0.582,"column_9":"314-564-2241","id":"a62spzexfahs","geo_precision":"street","address":"226 NORTH WALKER"},"type":"Feature","geometry":{"type":"Point","coordinates":[-91.500148,38.968029]}},{"properties":{"ship_phone":null,"city":"NEW FLORENCE","name":"SERVICE &amp; SUPPLY COOPERATIVE","column_10":null,"zip":"63363","st":"MO","comments":null,"geo_score":0.74,"column_9":"314-835-2485","id":"a62spzigi4tr","geo_precision":"street","address":"SOUTH ADAMS STREET"},"type":"Feature","geometry":{"type":"Point","coordinates":[-91.452202,38.901526]}},{"properties":{"ship_phone":null,"city":"NEW FLORENCE","name":"FARMLAND IND OPI/SERVICE &amp; SUPPLY","column_10":null,"zip":"63363","st":"MO","comments":null,"geo_score":0.373,"column_9":"816-459-6601","id":"a62spzfqvvzr","geo_precision":"street","address":"176 S. ADAMS ST/PO 176"},"type":"Feature","geometry":{"type":"Point","coordinates":[-91.447362,38.906562]}},{"properties":{"ship_phone":null,"city":"OLD MONROE","name":"OLD MONROE ELEVATOR &amp; SUPPLY CO INC","column_10":"CLEAN","zip":"63369","st":"MO","comments":null,"geo_score":0.669,"column_9":"314-665-5121","id":"a62spzn0rcwg","geo_precision":"street","address":"EAST MAIN ST"},"type":"Feature","geometry":{"type":"Point","coordinates":[-90.746339,38.929978]}},{"properties":{"ship_phone":null,"city":"OLNEY","name":"CENTRAL ELEVATOR INC","column_10":null,"zip":"63370","st":"MO","comments":null,"geo_score":0.381,"column_9":"314-656-3326","id":"a62spzejjgld","geo_precision":"street","address":"ROUTE 2 BOX 43"},"type":"Feature","geometry":{"type":"Point","coordinates":[-91.504992,38.977484]}},{"properties":{"ship_phone":null,"city":"PORTAGE DES SIX","name":"SIMON SOIL SERVICE INC","column_10":null,"zip":"63373","st":"MO","comments":null,"geo_score":0.385,"column_9":"314-258-4350","id":"a62spzb2lwyy","geo_precision":"street","address":"ROUTE 1 BOX 27"},"type":"Feature","geometry":{"type":"Point","coordinates":[-90.649459,38.784159]}},{"properties":{"ship_phone":null,"city":"SILEX","name":"CENTRAL ELEVATOR INC","column_10":"CLEAN","zip":"63377","st":"MO","comments":null,"geo_score":0.383,"column_9":"573-384-5235","id":"a62spzdygi69","geo_precision":"street","address":"RT 2 BOX 6"},"type":"Feature","geometry":{"type":"Point","coordinates":[-91.055469,39.124268]}},{"properties":{"ship_phone":null,"city":"TROY","name":"LINCOLN COUNTY FARMERS COOPERATIVE INC","column_10":null,"zip":"63379","st":"MO","comments":null,"geo_score":0.848,"column_9":"314-528-6141","id":"a62spzq7k1lw","geo_precision":"range","address":"811 EAST CHERRY STREET"},"type":"Feature","geometry":{"type":"Point","coordinates":[-90.971191,38.982805]}},{"properties":{"ship_phone":null,"city":"VANDALIA","name":"SERVICE &amp; SUPPLY COOPERATIVE","column_10":"CLEAN","zip":"63382","st":"MO","comments":null,"geo_score":0.643,"column_9":"314-594-6421","id":"a62spzf9sf66","geo_precision":"street","address":"ROUTE 1 HIGHWAY 54 WEST"},"type":"Feature","geometry":{"type":"Point","coordinates":[-91.488342,39.310781]}},{"properties":{"ship_phone":null,"city":"VANDALIA","name":"SERVICE AND SUPPLY COOPERATIVE","column_10":"DUP S/T","zip":"63382","st":"MO","comments":null,"geo_score":0.673,"column_9":"314-594-6421","id":"a62spzbgi5h7","geo_precision":"street","address":"HIGHWAY 54 WEST"},"type":"Feature","geometry":{"type":"Point","coordinates":[-91.489257,39.310407]}},{"properties":{"ship_phone":null,"city":"VANDALIA","name":"MFA AGRISERVICES","column_10":null,"zip":"63382","st":"MO","comments":null,"geo_score":0.902,"column_9":"314-594-6415","id":"a62spzd3ytuj","geo_precision":"range","address":"411 W STATE ST"},"type":"Feature","geometry":{"type":"Point","coordinates":[-91.489862,39.307673]}},{"properties":{"ship_phone":null,"city":"VANDALIA","name":"TRI-COUNTY GROWERS INC","column_10":"CLEAN","zip":"63382","st":"MO","comments":null,"geo_score":0.819,"column_9":"314-594-2931","id":"a62spzcmcd8b","geo_precision":"range","address":"1200 SOUTH MAIN"},"type":"Feature","geometry":{"type":"Point","coordinates":[-91.481624,39.301172]}},{"properties":{"ship_phone":null,"city":"WARRENTON","name":"MFA EXCHANGE-TRUESDALE","column_10":null,"zip":"63383","st":"MO","comments":null,"geo_score":0.771,"column_9":"314-456-3378","id":"a62spzkjtrv2","geo_precision":"range","address":"800 BOONESLICK ROAD EAST"},"type":"Feature","geometry":{"type":"Point","coordinates":[-91.134222,38.81184]}},{"properties":{"ship_phone":null,"city":"WELLSVILLE","name":"SUPERIOR CHEMICALS AND FERTILIZER","column_10":null,"zip":"63384","st":"MO","comments":null,"geo_score":0.476,"column_9":"314-684-2271","id":"a62spziaxm1v","geo_precision":"street","address":"ROUTE 1 BOX 13"},"type":"Feature","geometry":{"type":"Point","coordinates":[-91.570591,39.071327]}},{"properties":{"ship_phone":null,"city":"WELLSVILLE","name":"SCHAFER FERTILIZER INC","column_10":"WAS DUNBAR AG SERVICE","zip":"63384","st":"MO","comments":null,"geo_score":0.6,"column_9":"314-684-2271","id":"a62spzq29h4b","geo_precision":"street","address":"ROUTE AA"},"type":"Feature","geometry":{"type":"Point","coordinates":[-91.566982,39.082986]}},{"properties":{"ship_phone":null,"city":"WENTZVILLE","name":"MFA INC","column_10":null,"zip":"63385","st":"MO","comments":null,"geo_score":0.813,"column_9":"314-327-6236","id":"a62spzk40heb","geo_precision":"range","address":"210 WEST SOUTH MAIN STREET"},"type":"Feature","geometry":{"type":"Point","coordinates":[-90.854334,38.810734]}},{"properties":{"ship_phone":null,"city":"WEST ALTON","name":"SAALE FARM AND GRAIN COMPANY INC","column_10":null,"zip":"63386","st":"MO","comments":null,"geo_score":0.902,"column_9":"314-899-0933","id":"a62spzqxsgg3","geo_precision":"range","address":"535 SAALE ROAD"},"type":"Feature","geometry":{"type":"Point","coordinates":[-90.287566,38.886777]}},{"properties":{"ship_phone":null,"city":"WEST ALTON","name":"VOLUNTARY PURCHASING GROUPS INC","column_10":"CLEAN","zip":"63386","st":"MO","comments":null,"geo_score":0.902,"column_9":"314-899-0933","id":"a62spzd0pkj1","geo_precision":"range","address":"535 SAALE RD"},"type":"Feature","geometry":{"type":"Point","coordinates":[-90.287566,38.886777]}},{"properties":{"ship_phone":null,"city":"HANNIBAL","name":"MFA-HANNIBAL","column_10":null,"zip":"63401","st":"MO","comments":null,"geo_score":0.618,"column_9":"314-221-7113","id":"a62spzh8bz41","geo_precision":"street","address":"HIGHWAY 24"},"type":"Feature","geometry":{"type":"Point","coordinates":[-91.518634,39.770424]}},{"properties":{"ship_phone":null,"city":"ANABEL","name":"TRIPLE S FERTILIZER","column_10":null,"zip":"63431","st":"MO","comments":null,"geo_score":0.714,"column_9":"816-699-3884","id":"a62spzrbar7n","geo_precision":"street","address":"MAIN STREET"},"type":"Feature","geometry":{"type":"Point","coordinates":[-91.90987,40.115539]}},{"properties":{"ship_phone":null,"city":"CANTON","name":"MFA INC","column_10":null,"zip":"63435","st":"MO","comments":null,"geo_score":0.824,"column_9":"314-288-4404","id":"a62spzqx90gz","geo_precision":"range","address":"130 LEWIS STREET"},"type":"Feature","geometry":{"type":"Point","coordinates":[-91.514985,40.130461]}},{"properties":{"ship_phone":null,"city":"CENTER","name":"SUPERIOR CHEMICALS AND FERTILIZER","column_10":null,"zip":"63436","st":"MO","comments":null,"geo_score":0.512,"column_9":"314-267-3411","id":"a62spzfhnq5v","geo_precision":"street","address":"HIGHWAY 19"},"type":"Feature","geometry":{"type":"Point","coordinates":[-91.528039,39.509584]}},{"properties":{"ship_phone":null,"city":"CENTER","name":"LITER FERTILIZER &amp; CHEMICAL INC","column_10":null,"zip":"63436","st":"MO","comments":null,"geo_score":0.545,"column_9":"314-267-3411","id":"a62spzqp2bo1","geo_precision":"range","address":"401 WEST HIGHWAY 19"},"type":"Feature","geometry":{"type":"Point","coordinates":[-91.525645,39.510761]}},{"properties":{"ship_phone":null,"city":"CLARENCE","name":"VIGORO INDUSTRIES","column_10":null,"zip":"63437","st":"MO","comments":null,"geo_score":0.764,"column_9":"816-699-3314","id":"a62spzmwcl1o","geo_precision":"range","address":"204 WEST CHESTNUT"},"type":"Feature","geometry":{"type":"Point","coordinates":[-92.262598,39.742107]}},{"properties":{"ship_phone":null,"city":"CLARENCE","name":"MFA - CLARENCE","column_10":"MOVED TO 66602 FROM 66702-5/22","zip":"63437","st":"MO","comments":null,"geo_score":0.707,"column_9":"816-699-2424","id":"a62spzipd0rf","geo_precision":"range","address":"90 WEST GRAND"},"type":"Feature","geometry":{"type":"Point","coordinates":[-92.262551,39.742124]}},{"properties":{"ship_phone":null,"city":"EWING","name":"FARMERS COOPERATIVE SERVICES INC","column_10":null,"zip":"63440","st":"MO","comments":null,"geo_score":0.52,"column_9":"314-494-3221","id":"a62spzbn0gqt","geo_precision":"street","address":"115 SOUTH GILEAD"},"type":"Feature","geometry":{"type":"Point","coordinates":[-91.713839,40.006837]}},{"properties":{"ship_phone":null,"city":"KAHOKA","name":"MFA INC","column_10":"CLEAN","zip":"63445","st":"MO","comments":null,"geo_score":0.381,"column_9":"816-727-3371","id":"a62spzl2xf0w","geo_precision":"street","address":"RURAL ROUTE 3"},"type":"Feature","geometry":{"type":"Point","coordinates":[-91.500138,40.042144]}},{"properties":{"ship_phone":null,"city":"KAHOKA","name":"BALL FERTILIZER INC","column_10":"CLEAN","zip":"63445","st":"MO","comments":null,"geo_score":0.782,"column_9":"816-727-3102","id":"a62spzetrbi3","geo_precision":"range","address":"345 MONTGOMERY ST"},"type":"Feature","geometry":{"type":"Point","coordinates":[-91.715566,40.418964]}},{"properties":{"ship_phone":null,"city":"LA BELLE","name":"MFA INC","column_10":null,"zip":"63447","st":"MO","comments":null,"geo_score":0.373,"column_9":"816-462-3211","id":"a62spzn0hiad","geo_precision":"street","address":"WEST 3RD"},"type":"Feature","geometry":{"type":"Point","coordinates":[-91.91145,40.114315]}},{"properties":{"ship_phone":null,"city":"LABELLE","name":"HEETCO FARM CENTER","column_10":null,"zip":"63447","st":"MO","comments":null,"geo_score":0.444,"column_9":"816-462-3402","id":"a62spzfbekt5","geo_precision":"street","address":"HIGHWAY 6 EAST"},"type":"Feature","geometry":{"type":"Point","coordinates":[-91.923032,40.120447]}},{"properties":{"ship_phone":null,"city":"LEONARD","name":"SALT RIVER AG SERVICE INC","column_10":null,"zip":"63451","st":"MO","comments":null,"geo_score":0.443,"column_9":"816-762-4430","id":"a62spzp3rlf7","geo_precision":"street","address":"151 SOUTH STREET"},"type":"Feature","geometry":{"type":"Point","coordinates":[-91.502489,40.040914]}},{"properties":{"ship_phone":null,"city":"LEWISTOWN","name":"BEVILL FERTILIZER","column_10":null,"zip":"63452","st":"MO","comments":null,"geo_score":0.477,"column_9":"314-439-2740","id":"a62spzph3l1v","geo_precision":"street","address":"117 WEST MAIN"},"type":"Feature","geometry":{"type":"Point","coordinates":[-91.811996,40.086028]}},{"properties":{"ship_phone":null,"city":"MONROE CITY","name":"FARMERS ELEVATOR &amp; EXCHANGE COMPANY","column_10":null,"zip":"63456","st":"MO","comments":null,"geo_score":0.516,"column_9":"314-735-4543","id":"a62spzbuzo9u","geo_precision":"range","address":"107 S VINE PO BOX 7"},"type":"Feature","geometry":{"type":"Point","coordinates":[-91.735254,39.652926]}},{"properties":{"ship_phone":null,"city":"MONTICELLO","name":"HUMPHREY FEED AND SEED","column_10":null,"zip":"63457","st":"MO","comments":null,"geo_score":0.429,"column_9":"314-767-5383","id":"a62spzg3zto4","geo_precision":"street","address":"RR"},"type":"Feature","geometry":{"type":"Point","coordinates":[-91.362135,39.713105]}},{"properties":{"ship_phone":null,"city":"NEW LONDON","name":"FARMERS COOPERATIVE SERVICES INC","column_10":null,"zip":"63459","st":"MO","comments":null,"geo_score":0.488,"column_9":"314-985-5661","id":"a62spzogjk90","geo_precision":"range","address":"116 EAST 4TH"},"type":"Feature","geometry":{"type":"Point","coordinates":[-91.402189,39.585402]}},{"properties":{"ship_phone":null,"city":"NEW LONDON","name":"UAP-RICHTER","column_10":"WAS COLE/GROWER 3694","zip":"63459","st":"MO","comments":null,"geo_score":0.482,"column_9":"314-221-3177","id":"a62spzq60xl2","geo_precision":"street","address":"HIGHWAY M ROUTE 3"},"type":"Feature","geometry":{"type":"Point","coordinates":[-91.403808,39.586245]}},{"properties":{"ship_phone":null,"city":"NEW LONDON","name":"UAP-RICHTER","column_10":null,"zip":"63459","st":"MO","comments":null,"geo_score":0.536,"column_9":"314-221-3177","id":"a62spzrakocs","geo_precision":"street","address":"HANNIBAL WAREHOUSE HWY M RR 3"},"type":"Feature","geometry":{"type":"Point","coordinates":[-91.470627,39.620613]}},{"properties":{"ship_phone":null,"city":"PALMYRA","name":"GARD CROP SERVICE","column_10":null,"zip":"63461","st":"MO","comments":null,"geo_score":0.457,"column_9":"314-769-4888","id":"a62spzk23nbi","geo_precision":"street","address":"RR 1"},"type":"Feature","geometry":{"type":"Point","coordinates":[-91.422435,39.460859]}},{"properties":{"ship_phone":null,"city":"PALMYRA","name":"GREAT RIVER CHEMICAL INC","column_10":"OUT OF BUSINESS","zip":"63461","st":"MO","comments":null,"geo_score":0.381,"column_9":"314-769-4888","id":"a62spzfm8k37","geo_precision":"street","address":"RURAL ROUTE 1"},"type":"Feature","geometry":{"type":"Point","coordinates":[-91.422435,39.460859]}},{"properties":{"ship_phone":null,"city":"PALMYRA","name":"FARMERS COOPERATIVE SERVICES INC","column_10":null,"zip":"63461","st":"MO","comments":null,"geo_score":0.721,"column_9":"314-769-2151","id":"a62spzi1znuc","geo_precision":"range","address":"400 S MAIN"},"type":"Feature","geometry":{"type":"Point","coordinates":[-91.523102,39.796938]}},{"properties":{"ship_phone":null,"city":"PALMYRA","name":"UAP-RICHTER DBA GARD CROP SERVICE","column_10":"WAS GARD CROP SERVICE","zip":"63461","st":"MO","comments":null,"geo_score":0.393,"column_9":"314-769-4888","id":"a62spzkhcdp1","geo_precision":"street","address":"ROUTE 1"},"type":"Feature","geometry":{"type":"Point","coordinates":[-92.33525,39.746098]}},{"properties":{"ship_phone":null,"city":"PALMYRA","name":"MFA CROP PROTECTION","column_10":null,"zip":"63461","st":"MO","comments":null,"geo_score":0.319,"column_9":"314-769-4000","id":"a62spzfnc8rk","geo_precision":"street","address":"RURAL ROUTE  BOX 72"},"type":"Feature","geometry":{"type":"Point","coordinates":[-91.355454,39.701935]}},{"properties":{"ship_phone":null,"city":"PERRY","name":"GOUGH FERTILIZER INC","column_10":null,"zip":"63462","st":"MO","comments":null,"geo_score":0.381,"column_9":"314-565-2860","id":"a62spzko79gr","geo_precision":"street","address":"RURAL ROUTE 1"},"type":"Feature","geometry":{"type":"Point","coordinates":[-91.422435,39.460859]}},{"properties":{"ship_phone":null,"city":"PHILADELPHIA","name":"EDWARD J AND LORETTA BEVILL","column_10":null,"zip":"63463","st":"MO","comments":null,"geo_score":0.381,"column_9":"314-439-5250","id":"a62spzi4zazm","geo_precision":"street","address":"RURAL ROUTE 1"},"type":"Feature","geometry":{"type":"Point","coordinates":[-91.422435,39.460859]}},{"properties":{"ship_phone":null,"city":"SHELBINA","name":"MFA INC/SHELBINA","column_10":null,"zip":"63468","st":"MO","comments":null,"geo_score":0.744,"column_9":"314-588-4140","id":"a62spzby7zrl","geo_precision":"range","address":"207 EAST MAPLE"},"type":"Feature","geometry":{"type":"Point","coordinates":[-92.03842,39.693575]}},{"properties":{"ship_phone":null,"city":"SHELBINA","name":"RICKETTS FARM SERVICE OF SHELBINA INC","column_10":"WAS HY-WAY 2885","zip":"63468","st":"MO","comments":null,"geo_score":0.494,"column_9":"314-588-4123","id":"a62spzo7d3hk","geo_precision":"street","address":"BUS ROUTE 36 EAST"},"type":"Feature","geometry":{"type":"Point","coordinates":[-92.114497,39.711082]}},{"properties":{"ship_phone":null,"city":"TAYLOR","name":"BRUMBAUGH INC","column_10":null,"zip":"63471","st":"MO","comments":null,"geo_score":0.619,"column_9":"314-769-4887","id":"a62spzfa0cev","geo_precision":"street","address":"TAYLOR ROAD SOUTH"},"type":"Feature","geometry":{"type":"Point","coordinates":[-91.567472,39.449009]}},{"properties":{"ship_phone":null,"city":"WAYLAND","name":"GABE LOGSDON AND SONS","column_10":"CLEAN","zip":"63472","st":"MO","comments":null,"geo_score":0.777,"column_9":"816-754-6417","id":"a62spzjyl3q5","geo_precision":"range","address":"201 MAIN"},"type":"Feature","geometry":{"type":"Point","coordinates":[-91.582777,40.395666]}},{"properties":{"ship_phone":null,"city":"WILLIAMSTOWN","name":"MORGAN FERTILIZER INC.","column_10":"CLEAN","zip":"63473","st":"MO","comments":null,"geo_score":0.457,"column_9":null,"id":"a62spzq0dwuv","geo_precision":"street","address":"RT 1"},"type":"Feature","geometry":{"type":"Point","coordinates":[-91.422435,39.460859]}},{"properties":{"ship_phone":null,"city":"WYACONDA","name":"MORGAN FERTILIZER INC","column_10":"CLEAN","zip":"63474","st":"MO","comments":null,"geo_score":0.574,"column_9":"816-479-5471","id":"a62spzl9txw5","geo_precision":"street","address":"101 EAST JEFFERSON"},"type":"Feature","geometry":{"type":"Point","coordinates":[-91.921095,40.391662]}},{"properties":{"ship_phone":null,"city":"WYACONDO","name":"TERRA INTERNATIONAL INC","column_10":"PER TERRA","zip":"63474","st":"MO","comments":null,"geo_score":0.732,"column_9":"816-479-5441","id":"a62spzoy54nu","geo_precision":"street","address":"MAIN STREET"},"type":"Feature","geometry":{"type":"Point","coordinates":[-91.926486,40.38847]}},{"properties":{"ship_phone":null,"city":"WYACONDA","name":"SMITH BROTHERS FARM SUPPLY INC","column_10":null,"zip":"63474","st":"MO","comments":null,"geo_score":0.542,"column_9":"816-479-5441","id":"a62spzoyahff","geo_precision":"street","address":"SOUTH HIGHWAY A"},"type":"Feature","geometry":{"type":"Point","coordinates":[-91.922305,40.391329]}},{"properties":{"ship_phone":null,"city":"KIRKSVILLE","name":"KIRKSVILLE AG SERVICE","column_10":null,"zip":"63501","st":"MO","comments":null,"geo_score":0.698,"column_9":"816-665-2581","id":"a62spzm8r42s","geo_precision":"street","address":"BREWINGTON AVENUE"},"type":"Feature","geometry":{"type":"Point","coordinates":[-92.582655,40.231707]}},{"properties":{"ship_phone":null,"city":"KIRKSVILLE","name":"MFA AGRISERVICE","column_10":null,"zip":"63501","st":"MO","comments":null,"geo_score":0.752,"column_9":"816-665-4750","id":"a62spzj4n413","geo_precision":"range","address":"501 W BREWINGTON"},"type":"Feature","geometry":{"type":"Point","coordinates":[-92.587358,40.231653]}},{"properties":{"ship_phone":null,"city":"KIRKSVILLE","name":"KIRKSVILLE AGRI PRODUCTS","column_10":"DELETE PER REP-CLEAN","zip":"63501","st":"MO","comments":null,"geo_score":0.761,"column_9":"816-627-5368","id":"a62spzfxlvyp","geo_precision":"range","address":"2208 E ILLINOIS"},"type":"Feature","geometry":{"type":"Point","coordinates":[-92.558323,40.196944]}},{"properties":{"ship_phone":null,"city":"ATLANTA","name":"CROP PRODUCTION SERVICES","column_10":null,"zip":"63530","st":"MO","comments":null,"geo_score":0.381,"column_9":"816-239-4317","id":"a62spzkxyopx","geo_precision":"street","address":"RT 1"},"type":"Feature","geometry":{"type":"Point","coordinates":[-92.483821,39.897678]}},{"properties":{"ship_phone":null,"city":"BARING","name":"HY-WAY FARM SUPPLY, INC.","column_10":"REGIONAL REQUEST","zip":"63531","st":"MO","comments":null,"geo_score":0.429,"column_9":"816-892-4411","id":"a62spzltid7w","geo_precision":"street","address":"RT. 1., DRAWER N"},"type":"Feature","geometry":{"type":"Point","coordinates":[-92.544303,40.105976]}},{"properties":{"ship_phone":null,"city":"BRASHEAR","name":"BRASHEAR AG SERVICE","column_10":"CLEAN","zip":"63533","st":"MO","comments":null,"geo_score":0.464,"column_9":"816-323-5220","id":"a62spzn738ix","geo_precision":"street","address":"HIGHWAY 6 EAST"},"type":"Feature","geometry":{"type":"Point","coordinates":[-92.447978,40.164485]}},{"properties":{"ship_phone":null,"city":"CALLAO","name":"NORTHEAST MISSOURI COOP SERVICE INC","column_10":"CLEAN","zip":"63534","st":"MO","comments":null,"geo_score":0.714,"column_9":"816-768-5715","id":"a62spzqnzzwe","geo_precision":"street","address":"MAIN STREET"},"type":"Feature","geometry":{"type":"Point","coordinates":[-92.707464,40.231753]}},{"properties":{"ship_phone":null,"city":"DOWNIGN","name":"KETCHUM FERTILIZER","column_10":"DELETE PER REP-CLEAN","zip":"63536","st":"MO","comments":null,"geo_score":0.429,"column_9":null,"id":"a62spzfiua47","geo_precision":"street","address":"RT2 BOX 25A"},"type":"Feature","geometry":{"type":"Point","coordinates":[-92.544303,40.105976]}},{"properties":{"ship_phone":null,"city":"DOWNING","name":"MORGAN FERTILIZER INC","column_10":"CLEAN","zip":"63536","st":"MO","comments":null,"geo_score":0.476,"column_9":"816-379-2482","id":"a62spzibtn3l","geo_precision":"street","address":"HIGHWAY V"},"type":"Feature","geometry":{"type":"Point","coordinates":[-92.412005,40.14826]}},{"properties":{"ship_phone":null,"city":"EDINA","name":"C.Q. AG SERVICE","column_10":"DELETE PER REP-CLEAN","zip":"63537","st":"MO","comments":null,"geo_score":0.476,"column_9":null,"id":"a62spzc4r3h1","geo_precision":"street","address":"RT 2 BOX 50A"},"type":"Feature","geometry":{"type":"Point","coordinates":[-92.173892,40.168482]}},{"properties":{"ship_phone":null,"city":"EDINA","name":"NORTHEAST MISSOURI COOP SERV","column_10":"CLEAN","zip":"63537","st":"MO","comments":null,"geo_score":0.592,"column_9":"816-397-2272","id":"a62spzcmy369","geo_precision":"street","address":"WEST REID STREET"},"type":"Feature","geometry":{"type":"Point","coordinates":[-92.544303,40.105976]}},{"properties":{"ship_phone":null,"city":"EDINA","name":"UNITED SUPPLIERS INC","column_10":"CLEAN","zip":"63537","st":"MO","comments":null,"geo_score":0.721,"column_9":"816-397-2243","id":"a62spzbplqiv","geo_precision":"range","address":"403 EAST REID STREET"},"type":"Feature","geometry":{"type":"Point","coordinates":[-92.476964,39.72899]}},{"properties":{"ship_phone":null,"city":"EDINA","name":"MORGAN FERTILIZER INC","column_10":null,"zip":"63537","st":"MO","comments":null,"geo_score":0.571,"column_9":null,"id":"a62spzd7vw8t","geo_precision":"street","address":"HIGHWAY 6 EAST"},"type":"Feature","geometry":{"type":"Point","coordinates":[-92.172686,40.16755]}},{"properties":{"ship_phone":null,"city":"EDINA","name":"MORGAN FERTILIZER INC","column_10":null,"zip":"63537","st":"MO","comments":null,"geo_score":0.571,"column_9":"816-397-3145","id":"a62spzjeq0yr","geo_precision":"street","address":"HIGHWAY 6 E"},"type":"Feature","geometry":{"type":"Point","coordinates":[-92.172686,40.16755]}},{"properties":{"ship_phone":null,"city":"LANCASTER","name":"MFA INC","column_10":null,"zip":"63548","st":"MO","comments":null,"geo_score":0.531,"column_9":"816-457-3729","id":"a62spzq2jrb4","geo_precision":"street","address":"HIGHWAY 63 NORTH"},"type":"Feature","geometry":{"type":"Point","coordinates":[-92.465459,39.735312]}},{"properties":{"ship_phone":null,"city":"LA PLATA","name":"CROP PRODUCTION SERVICES INC","column_10":"CLEAN","zip":"63549","st":"MO","comments":null,"geo_score":0.673,"column_9":"816-332-4324","id":"a62spzl2qwwj","geo_precision":"street","address":"WEST CLEVELAND STREET ROUTE 1 BOX 18"},"type":"Feature","geometry":{"type":"Point","coordinates":[-92.494144,40.029279]}},{"properties":{"ship_phone":null,"city":"LA PLATA","name":"MFA AGRISERVICE","column_10":null,"zip":"63549","st":"MO","comments":null,"geo_score":0.429,"column_9":"816-332-7312","id":"a62spzlhvf27","geo_precision":"street","address":"ROUTE 2"},"type":"Feature","geometry":{"type":"Point","coordinates":[-92.682925,40.023436]}},{"properties":{"ship_phone":null,"city":"LA PLATA","name":"NORTHEAST MISSOURI COOP SERVICE INC","column_10":"CLEAN","zip":"63549","st":"MO","comments":null,"geo_score":0.643,"column_9":"816-332-7414","id":"a62spzopc9uw","geo_precision":"street","address":"GEX NTH"},"type":"Feature","geometry":{"type":"Point","coordinates":[-92.491611,40.021063]}},{"properties":{"ship_phone":null,"city":"MACON","name":"MFA AGRISERVICE","column_10":"CLEAN","zip":"63552","st":"MO","comments":null,"geo_score":0.393,"column_9":"816-385-5753","id":"a62spzbiczhw","geo_precision":"street","address":"HIGHWAY 63 NORTH BOX 340"},"type":"Feature","geometry":{"type":"Point","coordinates":[-92.465459,39.735312]}},{"properties":{"ship_phone":null,"city":"MEMPHIS","name":"MFA INC","column_10":"DELETE PER REP-CLEAN","zip":"63555","st":"MO","comments":null,"geo_score":0.536,"column_9":null,"id":"a62spzqhpdd1","geo_precision":"street","address":"RT 1"},"type":"Feature","geometry":{"type":"Point","coordinates":[-92.177801,40.463073]}},{"properties":{"ship_phone":null,"city":"MEMPHIS","name":"MORGAN FERTILIZER INC","column_10":null,"zip":"63555","st":"MO","comments":null,"geo_score":0.378,"column_9":"816-328-6213","id":"a62spzjtasrj","geo_precision":"street","address":"RURAL ROUTE 2"},"type":"Feature","geometry":{"type":"Point","coordinates":[-92.544326,40.108802]}},{"properties":{"ship_phone":null,"city":"MEMPHIS","name":"C E G LIQUID FERTILIZER, INC.","column_10":"PER E ATTAWAY","zip":"63555","st":"MO","comments":null,"geo_score":0.414,"column_9":"816-328-6211","id":"a62spzdof565","geo_precision":"street","address":"RR 2 BOX 145C"},"type":"Feature","geometry":{"type":"Point","coordinates":[-92.652647,40.28363]}},{"properties":{"ship_phone":null,"city":"MEMPHIS","name":"CUNNINGHAM FERTILIZER","column_10":null,"zip":"63555","st":"MO","comments":null,"geo_score":0.403,"column_9":"816-328-6211","id":"a62spzk2lt0f","geo_precision":"street","address":"ROUTE 2 BOX 145C"},"type":"Feature","geometry":{"type":"Point","coordinates":[-92.652647,40.28363]}},{"properties":{"ship_phone":null,"city":"MEMPHIS","name":"KERR GRAIN &amp; SEED INC","column_10":null,"zip":"63555","st":"MO","comments":null,"geo_score":0.829,"column_9":"816-465-8561","id":"a62spzpr2le7","geo_precision":"range","address":"345 EAST HUNTINGTON"},"type":"Feature","geometry":{"type":"Point","coordinates":[-92.167514,40.453827]}},{"properties":{"ship_phone":null,"city":"MEMPHIS","name":"FARMERS ELEVATOR &amp; PRODUCE COMPANY #53","column_10":null,"zip":"63555","st":"MO","comments":null,"geo_score":0.857,"column_9":"816-465-8994","id":"a62spzga6c7w","geo_precision":"zip","address":"RURAL ROUTE"},"type":"Feature","geometry":{"type":"Point","coordinates":[-92.198203,40.460129]}},{"properties":{"ship_phone":null,"city":"MILAN","name":"MFA AGRISERVICE","column_10":"CLEAN","zip":"63556","st":"MO","comments":null,"geo_score":0.429,"column_9":"816-265-4202","id":"a62spzp6x79e","geo_precision":"street","address":"EAST 3RD &amp; RR TRACKS PO BOX 38"},"type":"Feature","geometry":{"type":"Point","coordinates":[-93.124563,40.202103]}},{"properties":{"ship_phone":null,"city":"UNIONVILLE","name":"FOWLER ELEVATOR INC","column_10":"CLEAN","zip":"63565","st":"MO","comments":null,"geo_score":0.522,"column_9":"816-947-2488","id":"a62spzgogg59","geo_precision":"range","address":"JUNCTION 5 &amp; 136 BOX 307"},"type":"Feature","geometry":{"type":"Point","coordinates":[-93.009051,40.477278]}},{"properties":{"ship_phone":null,"city":"UNIONVILLE","name":"MFA AGRISERVICE","column_10":null,"zip":"63565","st":"MO","comments":null,"geo_score":0.443,"column_9":"816-947-2256","id":"a62spzhxfvr8","geo_precision":"street","address":"23RD &amp; GARFIELD"},"type":"Feature","geometry":{"type":"Point","coordinates":[-93.011587,40.471039]}},{"properties":{"ship_phone":null,"city":"WORTHINGTON","name":"WORTHINGTON AG SERVICE INC","column_10":"CLEAN","zip":"63567","st":"MO","comments":null,"geo_score":0.714,"column_9":"816-355-4440","id":"a62spzo3reqr","geo_precision":"street","address":"MAIN STREET"},"type":"Feature","geometry":{"type":"Point","coordinates":[-92.707464,40.231753]}},{"properties":{"ship_phone":null,"city":"FULLERTON","name":"DINSDALE BROTHERS INC","column_10":null,"zip":"63638","st":"NE","comments":null,"geo_score":0.472,"column_9":"308-536-2740","id":"a62spzdl65tu","geo_precision":"street","address":"FULLERTON DIVISION SOUTH HIGHWAY 14"},"type":"Feature","geometry":{"type":"Point","coordinates":[-90.555428,37.923089]}},{"properties":{"ship_phone":null,"city":"GREAT BEND","name":"GREAT BEND COOPERATIVE ASSOCIATION","column_10":null,"zip":"63642","st":"KS","comments":null,"geo_score":0.0,"column_9":"316-793-5031","id":"a62spzga9puh","geo_precision":"unmatched","address":"606 MAIN STREET"},"type":"Feature","geometry":null},{"properties":{"ship_phone":null,"city":"HEADLAND","name":"HEADLAND PEANUT WAREHOUSE CO-OP","column_10":null,"zip":"63645","st":"AL","comments":null,"geo_score":0.732,"column_9":"205-693-3313","id":"a62spzr2wctn","geo_precision":"zip","address":"HIGHWAY 134 WEST"},"type":"Feature","geometry":{"type":"Point","coordinates":[-90.310116,37.42172]}},{"properties":{"ship_phone":null,"city":"SAINTE GENEVIEVE","name":"LOIDA SUPPLY COMPANY INC","column_10":"CLEAN","zip":"63670","st":"MO","comments":null,"geo_score":0.424,"column_9":"573-883-3552","id":"a62spzjf1ujp","geo_precision":"street","address":"HIGHWAY 61 SOUTH ROUTE 1"},"type":"Feature","geometry":{"type":"Point","coordinates":[-90.036971,37.966809]}},{"properties":{"ship_phone":null,"city":"SAINTE GENEVIEVE","name":"MFA INCORPORATED","column_10":null,"zip":"63670","st":"MO","comments":null,"geo_score":0.51,"column_9":"573-883-3538","id":"a62spzfojt17","geo_precision":"street","address":"HIGHWAY 32"},"type":"Feature","geometry":{"type":"Point","coordinates":[-90.330823,37.801214]}},{"properties":{"ship_phone":null,"city":"SAINT MARY","name":"TRI COUNTY FEED &amp; FERTILIZER INC","column_10":null,"zip":"63673","st":"MO","comments":null,"geo_score":0.816,"column_9":"573-543-2228","id":"a62spzll2h3c","geo_precision":"range","address":"777 MULBERRY STREET"},"type":"Feature","geometry":{"type":"Point","coordinates":[-89.945962,37.871428]}},{"properties":{"ship_phone":null,"city":"ADVANCE","name":"SOUTHEAST COOPERATIVE SERVICE COMPANY","column_10":"CLEAN","zip":"63730","st":"MO","comments":null,"geo_score":0.478,"column_9":"314-722-3522","id":"a62spzr2frfs","geo_precision":"street","address":"HIGHWAY 25 SOUTH"},"type":"Feature","geometry":{"type":"Point","coordinates":[-89.8164,37.152209]}},{"properties":{"ship_phone":null,"city":"ADVANCE","name":"MFA INC","column_10":null,"zip":"63730","st":"MO","comments":null,"geo_score":0.36,"column_9":"573-722-3541","id":"a62spzhl7c7h","geo_precision":"street","address":"HIGHWAY C SOUTH OAK"},"type":"Feature","geometry":{"type":"Point","coordinates":[-89.915269,37.104703]}},{"properties":{"ship_phone":null,"city":"ADVANCE","name":"MFA EXCHANGE","column_10":"DUP S/T PER CUST","zip":"63730","st":"MO","comments":null,"geo_score":0.735,"column_9":"314-722-3341","id":"a62spzqeiqt6","geo_precision":"zip","address":"HIGHWAY 22"},"type":"Feature","geometry":{"type":"Point","coordinates":[-89.884815,37.116163]}},{"properties":{"ship_phone":null,"city":"BENTON","name":"HALTER SEEDS INC","column_10":null,"zip":"63736","st":"MO","comments":null,"geo_score":0.414,"column_9":"314-545-3666","id":"a62spzpbn0te","geo_precision":"street","address":"ROUTE 1 BOX 438"},"type":"Feature","geometry":{"type":"Point","coordinates":[-89.714835,37.386224]}},{"properties":{"ship_phone":null,"city":"BENTON","name":"MFA INC","column_10":null,"zip":"63736","st":"MO","comments":null,"geo_score":0.471,"column_9":"573-545-3939","id":"a62spzhokxs1","geo_precision":"street","address":"HIGHWAY 77 EAST"},"type":"Feature","geometry":{"type":"Point","coordinates":[-89.563457,37.094802]}},{"properties":{"ship_phone":null,"city":"CHAFFEE","name":"VIGORO INDUSTRIES","column_10":"PER CUST/K SYNDER","zip":"63740","st":"MO","comments":null,"geo_score":0.446,"column_9":"314-887-3528","id":"a62spzfvfa7q","geo_precision":"street","address":"ROUTE 25 141 NORTH FRISCO"},"type":"Feature","geometry":{"type":"Point","coordinates":[-89.65244,37.179036]}},{"properties":{"ship_phone":null,"city":"CHAFFEE","name":"MFA AGRISERVICES","column_10":null,"zip":"63740","st":"MO","comments":null,"geo_score":0.475,"column_9":"314-887-3568","id":"a62spzg87dw1","geo_precision":"street","address":"HIGHWAY 77 NORTH"},"type":"Feature","geometry":{"type":"Point","coordinates":[-89.660221,37.222986]}},{"properties":{"ship_phone":null,"city":"CHAFFEE","name":"MFA AGRISERVICES","column_10":null,"zip":"63740","st":"MO","comments":null,"geo_score":0.475,"column_9":"573-887-3568","id":"a62spze7ko9n","geo_precision":"street","address":"HIGHWAY 77 NORTH"},"type":"Feature","geometry":{"type":"Point","coordinates":[-89.660221,37.222986]}},{"properties":{"ship_phone":null,"city":"JACKSON","name":"COOP SERVICE CENTER INC","column_10":null,"zip":"63755","st":"MO","comments":null,"geo_score":0.819,"column_9":"314-243-3563","id":"a62spzjbscia","geo_precision":"range","address":"506 EAST WASHINGTON STREET"},"type":"Feature","geometry":{"type":"Point","coordinates":[-89.662989,37.383017]}},{"properties":{"ship_phone":null,"city":"JACKSON","name":"MFA INC","column_10":null,"zip":"63755","st":"MO","comments":null,"geo_score":0.5,"column_9":"573-243-3549","id":"a62spzlf5kl6","geo_precision":"street","address":"JUNCTION HIGHWAY 25261"},"type":"Feature","geometry":{"type":"Point","coordinates":[-89.904405,37.031461]}},{"properties":{"ship_phone":null,"city":"PERRYVILLE","name":"LOIDA SUPPLY COMPANY INC","column_10":null,"zip":"63775","st":"MO","comments":null,"geo_score":0.731,"column_9":"573-547-2563","id":"a62spzqyxip7","geo_precision":"range","address":"214 NORTH MAIN"},"type":"Feature","geometry":{"type":"Point","coordinates":[-89.862397,37.726976]}},{"properties":{"ship_phone":null,"city":"PERRYVILLE","name":"MFA INC","column_10":null,"zip":"63775","st":"MO","comments":null,"geo_score":0.689,"column_9":"573-547-2547","id":"a62spzdwb6xi","geo_precision":"range","address":"10 NORTH WEST STREET"},"type":"Feature","geometry":{"type":"Point","coordinates":[-89.864846,37.724907]}},{"properties":{"ship_phone":null,"city":"PERRYVILLE","name":"BUCHHEIT INC","column_10":null,"zip":"63775","st":"MO","comments":null,"geo_score":0.333,"column_9":"573-547-1016","id":"a62spzhsb69b","geo_precision":"street","address":"RT 7 BOX 239"},"type":"Feature","geometry":{"type":"Point","coordinates":[-89.517153,37.22508]}},{"properties":{"ship_phone":null,"city":"MC BRIDE","name":"LOIDA FARM SERVICE","column_10":null,"zip":"63776","st":"MO","comments":null,"geo_score":0.714,"column_9":"314-547-2561","id":"a62spzph2wnn","geo_precision":"street","address":"MAIN STREET"},"type":"Feature","geometry":{"type":"Point","coordinates":[-89.553304,37.093185]}},{"properties":{"ship_phone":null,"city":"VANDUSER","name":"VANDUSER GIN COMPANY","column_10":null,"zip":"63784","st":"MO","comments":null,"geo_score":0.476,"column_9":"314-471-1903","id":"a62spzcgyd71","geo_precision":"street","address":"HIGHWAY Z"},"type":"Feature","geometry":{"type":"Point","coordinates":[-89.671089,37.312951]}},{"properties":{"ship_phone":null,"city":"SIKESTON","name":"TERRA INTERNATIONAL INC","column_10":null,"zip":"63801","st":"MO","comments":null,"geo_score":0.543,"column_9":"573-471-9709","id":"a62spzkmpuoy","geo_precision":"street","address":"HIGHWAY 61 SOUTH"},"type":"Feature","geometry":{"type":"Point","coordinates":[-89.587567,36.876737]}},{"properties":{"ship_phone":null,"city":"SIKESTON","name":"WARTERFIELD GRAIN CARSON CHEMICAL COMPANY","column_10":null,"zip":"63801","st":"MO","comments":null,"geo_score":0.488,"column_9":"573-472-3100","id":"a62spzhw7xi7","geo_precision":"zip","address":"110 SOUTH ACRES DRIVE"},"type":"Feature","geometry":{"type":"Point","coordinates":[-89.683416,36.918107]}},{"properties":{"ship_phone":null,"city":"BERNIE","name":"STODDARD COUNTY COTTON CO","column_10":"NO LONGER WANTS TO BR AGCENTR","zip":"63822","st":"MO","comments":null,"geo_score":0.481,"column_9":"314-293-4621","id":"a62spzb8zlr2","geo_precision":"street","address":"HIGHWAY 25 SOUTH"},"type":"Feature","geometry":{"type":"Point","coordinates":[-89.968768,36.666754]}},{"properties":{"ship_phone":null,"city":"BERNIE","name":"MFA INC","column_10":null,"zip":"63822","st":"MO","comments":null,"geo_score":0.481,"column_9":"573-293-5311","id":"a62spzbd4iz2","geo_precision":"street","address":"HIGHWAY 25 SOUTH"},"type":"Feature","geometry":{"type":"Point","coordinates":[-89.968768,36.666754]}},{"properties":{"ship_phone":null,"city":"BERNIE","name":"MFA EXCHANGE","column_10":"DUP S/T","zip":"63822","st":"MO","comments":null,"geo_score":0.626,"column_9":"314-293-5311","id":"a62spzifs9nv","geo_precision":"range","address":"311 NORTH DRAKE"},"type":"Feature","geometry":{"type":"Point","coordinates":[-89.967032,36.671549]}},{"properties":{"ship_phone":null,"city":"CARUTHERSVILLE","name":"MCCARTY FARM CENTER","column_10":"WAS CUST #522","zip":"63830","st":"MO","comments":null,"geo_score":0.544,"column_9":"314-333-1866","id":"a62spzjbndmx","geo_precision":"street","address":"ROUTE 1 HIGHWAY D"},"type":"Feature","geometry":{"type":"Point","coordinates":[-89.699653,36.16614]}},{"properties":{"ship_phone":null,"city":"CHARLESTON","name":"DELINE SEED/CLEVELAND CHEMICAL CO","column_10":null,"zip":"63834","st":"MO","comments":null,"geo_score":0.319,"column_9":"314-683-3476","id":"a62spzqkjq4r","geo_precision":"street","address":"RFD#2 BOX 99A"},"type":"Feature","geometry":{"type":"Point","coordinates":[-89.450831,36.910413]}},{"properties":{"ship_phone":null,"city":"CHARLESTON","name":"DELTA GROWERS ASSOCIATION","column_10":"NOT A DUP","zip":"63834","st":"MO","comments":null,"geo_score":0.509,"column_9":"314-649-3036","id":"a62spzmmkz0e","geo_precision":"street","address":"HIGHWAY 105 SOUTH"},"type":"Feature","geometry":{"type":"Point","coordinates":[-89.355901,36.877069]}},{"properties":{"ship_phone":null,"city":"CHARLESTON","name":"FARMLAND INDUSTRIES INC","column_10":"PER REP NO SALES","zip":"63834","st":"MO","comments":null,"geo_score":0.495,"column_9":null,"id":"a62spzm3g6x8","geo_precision":"street","address":"OPI WAREHOUSE HWY 105 SOUTH"},"type":"Feature","geometry":{"type":"Point","coordinates":[-89.355901,36.877069]}},{"properties":{"ship_phone":null,"city":"CHARLESTON","name":"WILFARM L.L.C. C/O DELTA GROWERS ASSN","column_10":"WAS FARMLAND 3204","zip":"63834","st":"MO","comments":null,"geo_score":0.548,"column_9":"314-649-3036","id":"a62spzjqqvwi","geo_precision":"street","address":"HIGHWAY 105"},"type":"Feature","geometry":{"type":"Point","coordinates":[-89.355901,36.877069]}},{"properties":{"ship_phone":null,"city":"CHARLESTON","name":"DELTA GROWERS ASSOCIATION","column_10":"NOT A DUP/GENERAL STORE BLDG","zip":"63834","st":"MO","comments":null,"geo_score":0.509,"column_9":"314-649-3047","id":"a62spzedn140","geo_precision":"street","address":"HIGHWAY 105 SOUTH"},"type":"Feature","geometry":{"type":"Point","coordinates":[-89.355901,36.877069]}},{"properties":{"ship_phone":null,"city":"CHARLESTON","name":"DELTA GROWERS ASSOCIATION","column_10":"NOT A DUP","zip":"63834","st":"MO","comments":null,"geo_score":0.824,"column_9":"314-683-4623","id":"a62spzlrwdxx","geo_precision":"range","address":"600 E IRON BANKS ROAD"},"type":"Feature","geometry":{"type":"Point","coordinates":[-89.34254,36.914441]}},{"properties":{"ship_phone":null,"city":"CLARKTON","name":"HELENA CHEM. NORTH DELTA","column_10":"CLEAN-WAS CUST # 3981","zip":"63837","st":"MO","comments":null,"geo_score":0.347,"column_9":null,"id":"a62spzksbc0n","geo_precision":"street","address":"BOX 163"},"type":"Feature","geometry":{"type":"Point","coordinates":[-89.693739,36.844781]}},{"properties":{"ship_phone":null,"city":"CLARKTON","name":"HAWKINS MFA PLANT FOODS","column_10":"BOUGHT BY HELENA IN HAYTI,MO","zip":"63837","st":"MO","comments":null,"geo_score":0.593,"column_9":"314-448-5357","id":"a62spzi8y344","geo_precision":"street","address":"HIGHWAY 25 NORTH"},"type":"Feature","geometry":{"type":"Point","coordinates":[-89.967205,36.450246]}},{"properties":{"ship_phone":null,"city":"COOTER","name":"TERRA INTERNATIONAL INC","column_10":"CLEAN-WAS LYNN SEED 217","zip":"63839","st":"MO","comments":null,"geo_score":0.571,"column_9":"314-695-2126","id":"a62spzi5x7vi","geo_precision":"street","address":"ROUTE E"},"type":"Feature","geometry":{"type":"Point","coordinates":[-89.810047,36.046552]}},{"properties":{"ship_phone":null,"city":"DEERING","name":"DEERING FERTILIZER COMPANY","column_10":"CLEAN","zip":"63840","st":"MO","comments":null,"geo_score":0.714,"column_9":"314-757-6263","id":"a62spzkhxtwr","geo_precision":"street","address":"HIGHWAY J"},"type":"Feature","geometry":{"type":"Point","coordinates":[-89.736443,36.241143]}},{"properties":{"ship_phone":null,"city":"DEXTER","name":"BREHMER FERTILIZER INC","column_10":null,"zip":"63841","st":"MO","comments":null,"geo_score":0.346,"column_9":"573-624-2003","id":"a62spzh8agcl","geo_precision":"street","address":"ROUTE 1 BOX 346"},"type":"Feature","geometry":{"type":"Point","coordinates":[-89.947396,36.792789]}},{"properties":{"ship_phone":null,"city":"DEXTER","name":"SOUTHEAST COOPERATIVE SERVICE COMPANY","column_10":"CLEAN","zip":"63841","st":"MO","comments":null,"geo_score":0.518,"column_9":"573-624-7444","id":"a62spzodzgkt","geo_precision":"street","address":"HIGHWAY 25 SOUTH"},"type":"Feature","geometry":{"type":"Point","coordinates":[-89.949418,36.792339]}},{"properties":{"ship_phone":null,"city":"EAST PRAIRIE","name":"HOGAN'S FARM AND HOME CENTER","column_10":"NOW A SATELLITE OF 3981","zip":"63845","st":"MO","comments":null,"geo_score":0.483,"column_9":"314-649-3589","id":"a62spzge97y7","geo_precision":"street","address":"HIGHWAY 80 EAST"},"type":"Feature","geometry":{"type":"Point","coordinates":[-89.385798,36.779598]}},{"properties":{"ship_phone":null,"city":"EAST PRAIRIE","name":"HOGANS FARM AND HOME CENTER","column_10":null,"zip":"63845","st":"MO","comments":null,"geo_score":0.823,"column_9":"314-649-3589","id":"a62spzfgz9r4","geo_precision":"range","address":"702 E WASHINGTON ST"},"type":"Feature","geometry":{"type":"Point","coordinates":[-89.37498,36.77574]}},{"properties":{"ship_phone":null,"city":"ESSEX","name":"MFA AGRISERVICES","column_10":null,"zip":"63846","st":"MO","comments":null,"geo_score":0.429,"column_9":"573-568-3292","id":"a62spzofyj1v","geo_precision":"street","address":"RT 2"},"type":"Feature","geometry":{"type":"Point","coordinates":[-89.805028,36.000384]}},{"properties":{"ship_phone":null,"city":"GIDEON","name":"MCCORD GIN COMPANY","column_10":"INSUFFICIENT BUSINESS","zip":"63848","st":"MO","comments":null,"geo_score":0.492,"column_9":"314-448-3581","id":"a62spzot06nl","geo_precision":"street","address":"HIGHWAY 162 EAST"},"type":"Feature","geometry":{"type":"Point","coordinates":[-89.918576,36.452052]}},{"properties":{"ship_phone":null,"city":"HAYTI","name":"DORROH SEEDS &amp; SUPPLY COMPANY","column_10":"PER RUBEN GARZA/INSUFFIC BUS","zip":"63851","st":"MO","comments":null,"geo_score":0.457,"column_9":"314-359-2222","id":"a62spzcmplr3","geo_precision":"street","address":"HWY 84 EAST"},"type":"Feature","geometry":{"type":"Point","coordinates":[-89.752977,36.233958]}},{"properties":{"ship_phone":null,"city":"HAYTI","name":"HELENA/NORTH DELTA DIVISION","column_10":"CLEAN","zip":"63851","st":"MO","comments":null,"geo_score":0.805,"column_9":"314-359-2080","id":"a62spzm90wgu","geo_precision":"range","address":"501 EAST MAIN STREET"},"type":"Feature","geometry":{"type":"Point","coordinates":[-89.746755,36.232048]}},{"properties":{"ship_phone":null,"city":"HAYTI","name":"LEE M DORROH DBA DORROH SEED &amp; SUPPLY CO","column_10":"CLEAN","zip":"63851","st":"MO","comments":null,"geo_score":0.333,"column_9":"314-359-2222","id":"a62spzogte29","geo_precision":"street","address":"RT 1 BOX 12E"},"type":"Feature","geometry":{"type":"Point","coordinates":[-89.751733,36.232047]}},{"properties":{"ship_phone":null,"city":"HOLLAND","name":"CAPEHART SEED SERVICE","column_10":"CREDIT PROBLEMS","zip":"63853","st":"MO","comments":null,"geo_score":0.514,"column_9":"314-695-4447","id":"a62spzg1z97g","geo_precision":"street","address":"ROUTE 1, HWY 61 SOUTH"},"type":"Feature","geometry":{"type":"Point","coordinates":[-89.870998,36.058783]}},{"properties":{"ship_phone":null,"city":"HORNERSVILLE","name":"TERRA INTERNATIONAL","column_10":"CLEAN","zip":"63855","st":"MO","comments":null,"geo_score":0.393,"column_9":null,"id":"a62spze1mryd","geo_precision":"street","address":"RT. 1  210 NORTH PECAN"},"type":"Feature","geometry":{"type":"Point","coordinates":[-90.110574,36.039688]}},{"properties":{"ship_phone":null,"city":"HORNERSVILLE","name":"HORNERSVILLE AGRI SERVICE","column_10":null,"zip":"63855","st":"MO","comments":null,"geo_score":0.762,"column_9":"314-737-2597","id":"a62spzmnxyye","geo_precision":"street","address":"PECAN STREET"},"type":"Feature","geometry":{"type":"Point","coordinates":[-90.109935,36.043731]}},{"properties":{"ship_phone":null,"city":"KENNETT","name":"KENNETT FERTILIZER COMPANY","column_10":"CLEAN","zip":"63857","st":"MO","comments":null,"geo_score":0.483,"column_9":"314-888-5361","id":"a62spzo8v6uj","geo_precision":"street","address":"HIGHWAY 25 NORTH"},"type":"Feature","geometry":{"type":"Point","coordinates":[-90.032966,36.240102]}},{"properties":{"ship_phone":null,"city":"KENNETT","name":"KEN-MO AGRI CENTER INC","column_10":"CLEAN","zip":"63857","st":"MO","comments":null,"geo_score":0.455,"column_9":"314-888-5933","id":"a62spzg7sv7q","geo_precision":"street","address":"ROUTE EE NORTH BYPASS"},"type":"Feature","geometry":{"type":"Point","coordinates":[-90.052527,36.251266]}},{"properties":{"ship_phone":null,"city":"KEWANEE","name":"DELTA GROWERS ASSOCIATION","column_10":"PER REP NO SALES","zip":"63860","st":"MO","comments":null,"geo_score":0.857,"column_9":"314-748-2504","id":"a62spzjiqrmj","geo_precision":"zip","address":"HIGHWAY Y"},"type":"Feature","geometry":{"type":"Point","coordinates":[-89.563896,36.672641]}},{"properties":{"ship_phone":null,"city":"KEWANEE","name":"DELTA GROWERS ASSOCIATION","column_10":"DELETE PER REP","zip":"63860","st":"MO","comments":null,"geo_score":0.429,"column_9":"314-748-2504","id":"a62spzdt37sh","geo_precision":"street","address":"HWY W"},"type":"Feature","geometry":{"type":"Point","coordinates":[-89.584339,36.758962]}},{"properties":{"ship_phone":null,"city":"LILBOURN","name":"DELTA AGRICULTURAL CHEM/MFA INC","column_10":null,"zip":"63862","st":"MO","comments":null,"geo_score":0.564,"column_9":"573-688-2152","id":"a62spzoco045","geo_precision":"street","address":"HWY D"},"type":"Feature","geometry":{"type":"Point","coordinates":[-89.615016,36.589231]}},{"properties":{"ship_phone":null,"city":"MARSTON","name":"ADAMS FARM CENTER, INC","column_10":null,"zip":"63866","st":"MO","comments":null,"geo_score":0.626,"column_9":"314-643-2527","id":"a62spzlejqbr","geo_precision":"street","address":"201 TONEY"},"type":"Feature","geometry":{"type":"Point","coordinates":[-89.614308,36.51789]}},{"properties":{"ship_phone":null,"city":"MARSTON","name":"CLEVELAND CHEM CO","column_10":null,"zip":"63866","st":"MO","comments":null,"geo_score":0.626,"column_9":"314-643-2343","id":"a62spzoq70d4","geo_precision":"street","address":"201 TONEY"},"type":"Feature","geometry":{"type":"Point","coordinates":[-89.614308,36.51789]}},{"properties":{"ship_phone":null,"city":"MATTHEWS","name":"CROP PRODUCTION SERVICES INC","column_10":"UNDELETE PER REP/JUDY P REQ","zip":"63867","st":"MO","comments":null,"geo_score":0.429,"column_9":"573-667-5160","id":"a62spzl6my3u","geo_precision":"street","address":"RT 1 BOX 207"},"type":"Feature","geometry":{"type":"Point","coordinates":[-89.23467,36.963738]}},{"properties":{"ship_phone":null,"city":"MATTHEWS","name":"DELTA GROWERS ASSOCIATION","column_10":null,"zip":"63867","st":"MO","comments":null,"geo_score":0.442,"column_9":"314-472-0527","id":"a62spzfsfagh","geo_precision":"street","address":"RAILROAD STREET"},"type":"Feature","geometry":{"type":"Point","coordinates":[-89.583917,36.750057]}},{"properties":{"ship_phone":null,"city":"MATTHEWS","name":"DELTA GROWERS ASSOC","column_10":"DUP OF 206719","zip":"63867","st":"MO","comments":null,"geo_score":0.403,"column_9":null,"id":"a62spzl8xkoj","geo_precision":"street","address":"BOX 15 RAILROAD ST"},"type":"Feature","geometry":{"type":"Point","coordinates":[-89.583917,36.750057]}},{"properties":{"ship_phone":null,"city":"NEW MADRID","name":"PHILLIPS FERTILIZER COMPANY INC","column_10":null,"zip":"63869","st":"MO","comments":null,"geo_score":0.546,"column_9":"314-748-2105","id":"a62spze68pn0","geo_precision":"street","address":"HIGHWAY 61 NORTH"},"type":"Feature","geometry":{"type":"Point","coordinates":[-89.555849,36.581179]}},{"properties":{"ship_phone":null,"city":"PARMA","name":"Q M I FERTILIZER AND GRAIN","column_10":null,"zip":"63870","st":"MO","comments":null,"geo_score":0.584,"column_9":"314-357-4322","id":"a62spzevm2j3","geo_precision":"street","address":"109 MAIN"},"type":"Feature","geometry":{"type":"Point","coordinates":[-89.819622,36.613142]}},{"properties":{"ship_phone":null,"city":"PORTAGEVILLE","name":"TERRA INTERNATIONAL INC","column_10":null,"zip":"63873","st":"MO","comments":null,"geo_score":0.575,"column_9":"314-379-3816","id":"a62spzdw8len","geo_precision":"street","address":"HIGHWAY 61 SOUTH"},"type":"Feature","geometry":{"type":"Point","coordinates":[-89.612613,36.512974]}},{"properties":{"ship_phone":null,"city":"PORTAGEVILLE","name":"TERRA INTERNATIONAL INC","column_10":"TERR CHANGE PER REP","zip":"63873","st":"MO","comments":null,"geo_score":0.575,"column_9":"573-379-3816","id":"a62spzna7l71","geo_precision":"street","address":"HIGHWAY 61 SOUTH"},"type":"Feature","geometry":{"type":"Point","coordinates":[-89.612613,36.512974]}},{"properties":{"ship_phone":null,"city":"PORTAGEVILLE","name":"ADAMS FARM CENTER INC","column_10":null,"zip":"63873","st":"MO","comments":null,"geo_score":0.575,"column_9":"314-379-5421","id":"a62spzer8u7c","geo_precision":"street","address":"HIGHWAY 61 SOUTH"},"type":"Feature","geometry":{"type":"Point","coordinates":[-89.612613,36.512974]}},{"properties":{"ship_phone":null,"city":"PORTAGEVILLE","name":"TRI-STATE DELTA CHEMICALS INC","column_10":null,"zip":"63873","st":"MO","comments":null,"geo_score":0.575,"column_9":"573-379-5449","id":"a62spzoug9w6","geo_precision":"street","address":"HWY 61 NORTH"},"type":"Feature","geometry":{"type":"Point","coordinates":[-89.612613,36.512974]}},{"properties":{"ship_phone":null,"city":"SENATH","name":"TERRA INTERNATIONAL","column_10":"CLEAN","zip":"63876","st":"MO","comments":null,"geo_score":0.357,"column_9":"314-738-2616","id":"a62spzo0htlj","geo_precision":"street","address":"P.O. BOX 199"},"type":"Feature","geometry":{"type":"Point","coordinates":[-90.161223,36.134082]}},{"properties":{"ship_phone":null,"city":"SENATH","name":"SENATH LIQUID FERTILIZER","column_10":null,"zip":"63876","st":"MO","comments":null,"geo_score":0.799,"column_9":"314-738-2814","id":"a62spzr3qkhn","geo_precision":"range","address":"405 WEST COMMERCIAL ST."},"type":"Feature","geometry":{"type":"Point","coordinates":[-90.164288,36.134104]}},{"properties":{"ship_phone":null,"city":"SENATH","name":"SENATH AVIATION","column_10":"CLEAN","zip":"63876","st":"MO","comments":null,"geo_score":0.432,"column_9":"314-738-3383","id":"a62spzaxlvbi","geo_precision":"street","address":"HIGHWAY 412 NORTH AIRPORT"},"type":"Feature","geometry":{"type":"Point","coordinates":[-90.168343,36.11978]}},{"properties":{"ship_phone":null,"city":"STEELE","name":"HAGGARD SEED COMPANY","column_10":null,"zip":"63877","st":"MO","comments":null,"geo_score":0.405,"column_9":"314-695-3150","id":"a62spzigw4pr","geo_precision":"street","address":"ROUTE 2"},"type":"Feature","geometry":{"type":"Point","coordinates":[-89.874202,35.999759]}},{"properties":{"ship_phone":null,"city":"WARDELL","name":"WARDELL FERTILIZER","column_10":"CLEAN","zip":"63879","st":"MO","comments":null,"geo_score":0.417,"column_9":null,"id":"a62spzbg96qd","geo_precision":"street","address":"RT. 1 BOX 134"},"type":"Feature","geometry":{"type":"Point","coordinates":[-89.935452,36.886029]}},{"properties":{"ship_phone":null,"city":"WHITEOAK","name":"WHITE OAK FEED","column_10":"CLEAN","zip":"63880","st":"MO","comments":null,"geo_score":0.286,"column_9":null,"id":"a62spzmw588e","geo_precision":"street","address":"P O BOX 120"},"type":"Feature","geometry":{"type":"Point","coordinates":[-89.682865,36.845231]}},{"properties":{"ship_phone":null,"city":"POPLAR BLUFF","name":"MAGEE FARM EQUIPMENT COMPANY","column_10":"CLEAN","zip":"63901","st":"MO","comments":null,"geo_score":0.329,"column_9":"314-785-2025","id":"a62spzk5fjiz","geo_precision":"street","address":"ROUTE 7 BOX 343"},"type":"Feature","geometry":{"type":"Point","coordinates":[-90.399216,36.755798]}},{"properties":{"ship_phone":null,"city":"CAMPBELL","name":"BLAKEMORE COTTON &amp; GRAIN COMPANY","column_10":"BECAME A TERRA WAREHOUSE","zip":"63933","st":"MO","comments":null,"geo_score":0.393,"column_9":"314-246-2535","id":"a62spzlb6c7e","geo_precision":"street","address":"ROUTE 1"},"type":"Feature","geometry":{"type":"Point","coordinates":[-90.407842,36.763512]}},{"properties":{"ship_phone":null,"city":"DUDLEY","name":"FARMERS FERTILIZER SERVICE","column_10":"WAS BERNIE FERT  CLEAN","zip":"63936","st":"MO","comments":null,"geo_score":0.554,"column_9":"314-967-3747","id":"a62spzeaupu4","geo_precision":"street","address":"HIGHWAY 60 WEST"},"type":"Feature","geometry":{"type":"Point","coordinates":[-90.115214,36.794064]}},{"properties":{"ship_phone":null,"city":"PUXICO","name":"SOUTHEAST COOPERATIVE SERVICE COMPANY","column_10":"CLEAN","zip":"63960","st":"MO","comments":null,"geo_score":0.481,"column_9":"573-222-3525","id":"a62spzoq9drx","geo_precision":"street","address":"HIGHWAY 51 SOUTH"},"type":"Feature","geometry":{"type":"Point","coordinates":[-90.160649,36.948481]}},{"properties":{"ship_phone":null,"city":"QULIN","name":"GLENNONVILLE FERTILIZER","column_10":"CLEAN","zip":"63961","st":"MO","comments":null,"geo_score":0.269,"column_9":null,"id":"a62spze0t43j","geo_precision":"street","address":"RT. 1 BOX 63"},"type":"Feature","geometry":{"type":"Point","coordinates":[-91.015036,37.000637]}},{"properties":{"ship_phone":null,"city":"QULIN","name":"HOPKINS SEED &amp; CHEMICAL","column_10":"CLEAN","zip":"63961","st":"MO","comments":null,"geo_score":0.529,"column_9":"314-328-4132","id":"a62spzo27bni","geo_precision":"street","address":"HIGHWAY 53"},"type":"Feature","geometry":{"type":"Point","coordinates":[-90.304779,36.645154]}},{"properties":{"ship_phone":null,"city":"ALMA","name":"ALMA FARMERS COOPERATIVE ASSOCIATION","column_10":null,"zip":"64001","st":"MO","comments":null,"geo_score":0.673,"column_9":"816-674-2291","id":"a62spzjguap5","geo_precision":"street","address":"CLAY &amp; COLLINS STREET"},"type":"Feature","geometry":{"type":"Point","coordinates":[-93.544403,39.093156]}},{"properties":{"ship_phone":null,"city":"BELTON","name":"EFFERTZ BROTHERS CORP","column_10":null,"zip":"64012","st":"MO","comments":null,"geo_score":0.405,"column_9":"816-331-4837","id":"a62spzmeb7xu","geo_precision":"street","address":"ROUTE 1"},"type":"Feature","geometry":{"type":"Point","coordinates":[-94.499106,38.818087]}},{"properties":{"ship_phone":null,"city":"CENTERVIEW","name":"MFA INC","column_10":null,"zip":"64019","st":"MO","comments":null,"geo_score":0.729,"column_9":"816-656-3311","id":"a62spzo67bf8","geo_precision":"street","address":"MAIN STREET"},"type":"Feature","geometry":{"type":"Point","coordinates":[-93.848243,38.734176]}},{"properties":{"ship_phone":null,"city":"CONCORDIA","name":"ENVIRO AG SERVICES INC","column_10":null,"zip":"64020","st":"MO","comments":null,"geo_score":0.419,"column_9":"816-463-7488","id":"a62spzjbvg02","geo_precision":"street","address":"RURAL ROUTE 2 BOX 259 A"},"type":"Feature","geometry":{"type":"Point","coordinates":[-93.642114,39.057134]}},{"properties":{"ship_phone":null,"city":"CONCORDIA","name":"CONCORDIA FARMERS COOPERATIVE COMPANY","column_10":"WAS B/T 2612, NOW 4561","zip":"64020","st":"MO","comments":null,"geo_score":0.542,"column_9":"816-463-2256","id":"a62spzdyu38l","geo_precision":"street","address":"708 BISMARK"},"type":"Feature","geometry":{"type":"Point","coordinates":[-93.570538,38.981242]}},{"properties":{"ship_phone":null,"city":"HARDIN","name":"RAY CARROLL COUNTY GRAIN GROWERS INC","column_10":null,"zip":"64035","st":"MO","comments":null,"geo_score":0.655,"column_9":"816-398-4541","id":"a62spzqudbr6","geo_precision":"street","address":"WEST HIGHWAY 10"},"type":"Feature","geometry":{"type":"Point","coordinates":[-93.861047,39.2751]}},{"properties":{"ship_phone":null,"city":"HARDIN","name":"MFA INC","column_10":null,"zip":"64035","st":"MO","comments":null,"geo_score":0.729,"column_9":"816-398-4321","id":"a62spzphc0fy","geo_precision":"range","address":"104 EAST MAIN"},"type":"Feature","geometry":{"type":"Point","coordinates":[-93.833424,39.269061]}},{"properties":{"ship_phone":null,"city":"HARDIN","name":"FARMLAND INDUSTRIES OPI/RAY CARROLL SEED CO","column_10":"LOCATION CLOSED","zip":"64035","st":"MO","comments":null,"geo_score":0.665,"column_9":"816-398-4351","id":"a62spzmrqura","geo_precision":"street","address":"MAIN ST/BOX 595"},"type":"Feature","geometry":{"type":"Point","coordinates":[-93.832264,39.269448]}},{"properties":{"ship_phone":null,"city":"HIGGINSVILLE","name":"KOCH AGRI SERVICES INC","column_10":"WAS HIGGINSVILLE FERT CO","zip":"64037","st":"MO","comments":null,"geo_score":0.846,"column_9":"816-584-2222","id":"a62spzhq3gq9","geo_precision":"range","address":"1905 SHELBY"},"type":"Feature","geometry":{"type":"Point","coordinates":[-93.715798,39.075927]}},{"properties":{"ship_phone":null,"city":"HIGGINSVILLE","name":"MFA INC","column_10":null,"zip":"64037","st":"MO","comments":null,"geo_score":0.678,"column_9":"816-584-3676","id":"a62spzkx5o68","geo_precision":"range","address":"105 W 22ND"},"type":"Feature","geometry":{"type":"Point","coordinates":[-93.718587,39.072754]}},{"properties":{"ship_phone":null,"city":"HOLDEN","name":"CENTRAL COOPERATIVE INC.","column_10":null,"zip":"64040","st":"MO","comments":null,"geo_score":0.756,"column_9":"816-885-5620","id":"a62spzksgqli","geo_precision":"range","address":"301 EAST MADISON"},"type":"Feature","geometry":{"type":"Point","coordinates":[-93.987271,38.718675]}},{"properties":{"ship_phone":null,"city":"HOLDEN","name":"HOLDEN FERTILIZER","column_10":"PER REP OUT OF BUSINESS","zip":"64040","st":"MO","comments":null,"geo_score":0.756,"column_9":"816-732-5567","id":"a62spzm7wyfo","geo_precision":"range","address":"301 EAST MADISON"},"type":"Feature","geometry":{"type":"Point","coordinates":[-93.987271,38.718675]}},{"properties":{"ship_phone":null,"city":"HOLDEN","name":"CENTRAL COOPERATIVE INC","column_10":null,"zip":"64040","st":"MO","comments":null,"geo_score":0.756,"column_9":"816-732-5666","id":"a62spziw5hoz","geo_precision":"range","address":"301 EAST MADISON"},"type":"Feature","geometry":{"type":"Point","coordinates":[-93.987271,38.718675]}},{"properties":{"ship_phone":null,"city":"LAWSON","name":"MFA INC","column_10":null,"zip":"64062","st":"MO","comments":null,"geo_score":0.463,"column_9":"816-296-3262","id":"a62spzdypnkz","geo_precision":"street","address":"624 NORTH PENN"},"type":"Feature","geometry":{"type":"Point","coordinates":[-94.599423,38.818284]}},{"properties":{"ship_phone":null,"city":"LAWSON","name":"SUR-GRO FINANCE INC","column_10":"PER CUSTOMER","zip":"64062","st":"MO","comments":null,"geo_score":0.359,"column_9":"816-296-3247","id":"a62spzha6gr8","geo_precision":"street","address":"1001 E. 10"},"type":"Feature","geometry":{"type":"Point","coordinates":[-94.204645,39.443931]}},{"properties":{"ship_phone":null,"city":"LEVASY","name":"MFA INC","column_10":null,"zip":"64066","st":"MO","comments":null,"geo_score":0.554,"column_9":"816-249-3122","id":"a62spzj0m6tf","geo_precision":"street","address":"HIGHWAY 24 WEST"},"type":"Feature","geometry":{"type":"Point","coordinates":[-94.128002,39.031524]}},{"properties":{"ship_phone":null,"city":"LEXINGTON","name":"MFA INC","column_10":null,"zip":"64067","st":"MO","comments":null,"geo_score":0.6,"column_9":"816-259-2261","id":"a62spzql6926","geo_precision":"street","address":"24TH &amp; MONROE"},"type":"Feature","geometry":{"type":"Point","coordinates":[-93.866373,39.188178]}},{"properties":{"ship_phone":null,"city":"LIBERTY","name":"SUR-GRO FINANCE INC","column_10":"PER BARB UNDELETE","zip":"64068","st":"MO","comments":null,"geo_score":0.564,"column_9":"816-781-3927","id":"a62spzg023zx","geo_precision":"street","address":"HIGHWAY 210 EAST"},"type":"Feature","geometry":{"type":"Point","coordinates":[-94.385021,39.193017]}},{"properties":{"ship_phone":null,"city":"MAYVIEW","name":"RAY CARROLL COUNTY GRAIN GROWERS INC","column_10":null,"zip":"64071","st":"MO","comments":null,"geo_score":0.607,"column_9":"816-237-4333","id":"a62spzlwt8sr","geo_precision":"street","address":"RAILROAD STREET"},"type":"Feature","geometry":{"type":"Point","coordinates":[-94.272071,38.937784]}},{"properties":{"ship_phone":null,"city":"ODESSA","name":"CENTRAL COOPERATIVE INC","column_10":null,"zip":"64076","st":"MO","comments":null,"geo_score":0.538,"column_9":"816-633-6531","id":"a62spzj7yqt1","geo_precision":"street","address":"113 SOUTH WEST RAILROAD STREET"},"type":"Feature","geometry":{"type":"Point","coordinates":[-93.955518,38.999306]}},{"properties":{"ship_phone":null,"city":"ODESSA","name":"MFA INC","column_10":null,"zip":"64076","st":"MO","comments":null,"geo_score":0.513,"column_9":"816-633-5591","id":"a62spznccjhk","geo_precision":"street","address":"111 NW RAILROAD STREET"},"type":"Feature","geometry":{"type":"Point","coordinates":[-93.955518,38.999306]}},{"properties":{"ship_phone":null,"city":"ORRICK","name":"S. C. F., INC.","column_10":"OUT OF BUS","zip":"64077","st":"MO","comments":null,"geo_score":0.429,"column_9":"0","id":"a62spznhkvg8","geo_precision":"street","address":"RR"},"type":"Feature","geometry":{"type":"Point","coordinates":[-94.258877,38.927645]}},{"properties":{"ship_phone":null,"city":"ORRICK","name":"ORRICK FARM SERVICE INC","column_10":null,"zip":"64077","st":"MO","comments":null,"geo_score":0.714,"column_9":"816-496-3323","id":"a62spznj8a9b","geo_precision":"street","address":"NORTH FRONT STREET"},"type":"Feature","geometry":{"type":"Point","coordinates":[-94.127552,39.214331]}},{"properties":{"ship_phone":null,"city":"PECULIAR","name":"PARROT FARM SUPPLY","column_10":null,"zip":"64078","st":"MO","comments":null,"geo_score":0.514,"column_9":"0","id":"a62spzh0se94","geo_precision":"street","address":"PO BOX 365  216 W 2ND"},"type":"Feature","geometry":{"type":"Point","coordinates":[-94.439415,38.729352]}},{"properties":{"ship_phone":null,"city":"PLEASANT HILL","name":"SUPERIOR CHEMICALS AND FERTILIZER","column_10":null,"zip":"64080","st":"MO","comments":null,"geo_score":0.298,"column_9":"816-987-3101","id":"a62spzpljgm1","geo_precision":"street","address":"RR BOX 173"},"type":"Feature","geometry":{"type":"Point","coordinates":[-94.344389,38.805592]}},{"properties":{"ship_phone":null,"city":"PLEASANT HILL","name":"CENTRAL COOPERATIVE INC","column_10":null,"zip":"64080","st":"MO","comments":null,"geo_score":0.496,"column_9":"816-537-7711","id":"a62spzbfm06i","geo_precision":"zip","address":"105 WELSH"},"type":"Feature","geometry":{"type":"Point","coordinates":[-94.245502,38.793898]}},{"properties":{"ship_phone":null,"city":"RICHMOND","name":"RAY CARROLL COUNTY GRAIN GROWERS INC","column_10":"NOW UNDER A STATELLITE","zip":"64085","st":"MO","comments":null,"geo_score":0.679,"column_9":"816-776-3400","id":"a62spzlmrdka","geo_precision":"street","address":"WEST HIGHWAY 10"},"type":"Feature","geometry":{"type":"Point","coordinates":[-94.152067,39.2217]}},{"properties":{"ship_phone":null,"city":"RICHMOND","name":"RAY CARROLL CO GRAIN","column_10":null,"zip":"64085","st":"MO","comments":null,"geo_score":0.679,"column_9":"816-776-3400","id":"a62spznchf3p","geo_precision":"street","address":"WEST HWY 10"},"type":"Feature","geometry":{"type":"Point","coordinates":[-94.152067,39.2217]}},{"properties":{"ship_phone":null,"city":"RICHMOND","name":"RAY CARROLL COUNTY GRAIN GROWERS","column_10":null,"zip":"64085","st":"MO","comments":null,"geo_score":0.829,"column_9":"816-470-8373","id":"a62spzga64md","geo_precision":"range","address":"304 GOODRICH DRIVE"},"type":"Feature","geometry":{"type":"Point","coordinates":[-93.980553,39.286736]}},{"properties":{"ship_phone":null,"city":"SMITHVILLE","name":"UNITED COOPERATIVES INC.","column_10":null,"zip":"64089","st":"MO","comments":null,"geo_score":0.4,"column_9":null,"id":"a62spzkjwak8","geo_precision":"street","address":"103 N. 2ND"},"type":"Feature","geometry":{"type":"Point","coordinates":[-94.577007,39.391931]}},{"properties":{"ship_phone":null,"city":"WAVERLY","name":"ALMA FARMERS COOPERATIVE ASSOCIATION","column_10":null,"zip":"64096","st":"MO","comments":null,"geo_score":0.469,"column_9":"816-493-2218","id":"a62spzjqzo2c","geo_precision":"street","address":"ELEVATOR HILL ROAD"},"type":"Feature","geometry":{"type":"Point","coordinates":[-94.491204,38.827289]}},{"properties":{"ship_phone":null,"city":"WAVERLY","name":"BARTLETT AND COMPANY","column_10":"WAS BILLING TO 3229 KC","zip":"64096","st":"MO","comments":null,"geo_score":0.592,"column_9":"816-493-2294","id":"a62spzcaqa7c","geo_precision":"street","address":"RIVER ROAD"},"type":"Feature","geometry":{"type":"Point","coordinates":[-94.831867,39.281285]}},{"properties":{"ship_phone":null,"city":"WESTON","name":"SUR-GRO FINANCE INC","column_10":null,"zip":"64098","st":"MO","comments":null,"geo_score":0.72,"column_9":"816-386-2296","id":"a62spzk8h3ka","geo_precision":"range","address":"335 MAIN"},"type":"Feature","geometry":{"type":"Point","coordinates":[-94.903188,39.409531]}},{"properties":{"ship_phone":null,"city":"KANSAS CITY","name":"BARTLETT AND CO.","column_10":null,"zip":"64112","st":"MO","comments":null,"geo_score":0.735,"column_9":"816-753-6300","id":"a62spzl18bj2","geo_precision":"range","address":"4800 MAIN ST SUITE 600"},"type":"Feature","geometry":{"type":"Point","coordinates":[-94.587083,39.03933]}},{"properties":{"ship_phone":null,"city":"KANSAS CITY","name":"PUEBLO CHEMICAL COMPANY","column_10":"CLEAN-TERR#/S DODWY","zip":"64116","st":"MO","comments":null,"geo_score":0.716,"column_9":"816-221-2742","id":"a62spzh2o8m6","geo_precision":"range","address":"1103 ERIE"},"type":"Feature","geometry":{"type":"Point","coordinates":[-94.576207,39.128752]}},{"properties":{"ship_phone":null,"city":"KANSAS CITY","name":"SUPERIOR CHEMICALS AND FERTILIZER","column_10":null,"zip":"64131","st":"MO","comments":null,"geo_score":0.777,"column_9":"816-942-8630","id":"a62spzqbymni","geo_precision":"range","address":"10401 HOLMES SUITE 200"},"type":"Feature","geometry":{"type":"Point","coordinates":[-94.582714,38.938998]}},{"properties":{"ship_phone":null,"city":"KANSAS CITY","name":"UNITED COOPERATIVES INC.","column_10":null,"zip":"64155","st":"MO","comments":null,"geo_score":0.39,"column_9":null,"id":"a62spzi402xv","geo_precision":"street","address":"1019 N.E. 103RD TERRACE"},"type":"Feature","geometry":{"type":"Point","coordinates":[-94.578058,39.280679]}},{"properties":{"ship_phone":null,"city":"ALBANY","name":"ALBANY FEED AND GRAIN INC","column_10":null,"zip":"64402","st":"MO","comments":null,"geo_score":0.394,"column_9":"816-726-3919","id":"a62spzim5cyi","geo_precision":"street","address":"RAILROAD AND MILL"},"type":"Feature","geometry":{"type":"Point","coordinates":[-94.337454,40.243811]}},{"properties":{"ship_phone":null,"city":"ALBANY","name":"MFA INC","column_10":null,"zip":"64402","st":"MO","comments":null,"geo_score":0.741,"column_9":"816-726-5216","id":"a62spzlbd74q","geo_precision":"range","address":"408 SOUTH BIRCH"},"type":"Feature","geometry":{"type":"Point","coordinates":[-94.341339,40.245327]}},{"properties":{"ship_phone":null,"city":"BARNARD","name":"SUPERIOR CHEMICALS AND FERTILIZER","column_10":null,"zip":"64423","st":"MO","comments":null,"geo_score":0.297,"column_9":"816-652-3803","id":"a62spzcikj6g","geo_precision":"street","address":"HIGHWAY M WEST BOX 126"},"type":"Feature","geometry":{"type":"Point","coordinates":[-94.821132,40.174277]}},{"properties":{"ship_phone":null,"city":"BARNARD","name":"BARNARD FERTILIZER INC","column_10":null,"zip":"64423","st":"MO","comments":null,"geo_score":0.35,"column_9":"816-652-3803","id":"a62spzr68ewr","geo_precision":"street","address":"RT 1 BOX 10"},"type":"Feature","geometry":{"type":"Point","coordinates":[-94.821132,40.174277]}},{"properties":{"ship_phone":null,"city":"BETHANY","name":"MFA INC","column_10":null,"zip":"64424","st":"MO","comments":null,"geo_score":0.531,"column_9":"816-425-7045","id":"a62spzpktzql","geo_precision":"street","address":"HIGHWAY 69 NORTH"},"type":"Feature","geometry":{"type":"Point","coordinates":[-94.027383,40.2694]}},{"properties":{"ship_phone":null,"city":"BETHANY","name":"PRAIRIE-VU INC","column_10":null,"zip":"64424","st":"MO","comments":null,"geo_score":0.457,"column_9":"816-425-3733","id":"a62spzp3njka","geo_precision":"street","address":"RR 1"},"type":"Feature","geometry":{"type":"Point","coordinates":[-94.186126,39.768471]}},{"properties":{"ship_phone":null,"city":"BETHANY","name":"CTL FARM SERVICE INC","column_10":null,"zip":"64424","st":"MO","comments":null,"geo_score":0.286,"column_9":"816-425-6343","id":"a62spzo1rnp9","geo_precision":"street","address":"ROUTE 3 BOX 210"},"type":"Feature","geometry":{"type":"Point","coordinates":[-94.028332,40.15246]}},{"properties":{"ship_phone":null,"city":"BETHANY","name":"FORDYCE SEED &amp; SUPPLY &amp; UNITED SUPPLIERS FINANCIAL SERVICES","column_10":"NONPAYMENT","zip":"64424","st":"MO","comments":null,"geo_score":0.393,"column_9":"816-425-6411","id":"a62spzcb339c","geo_precision":"street","address":"R R"},"type":"Feature","geometry":{"type":"Point","coordinates":[-95.354649,40.558356]}},{"properties":{"ship_phone":null,"city":"BURLINGTON JUNCT","name":"THE FARMERS ELEV CO OF HOPKINS INC","column_10":"WAS FARMERS SUPPLY CO","zip":"64428","st":"MO","comments":null,"geo_score":0.554,"column_9":"816-725-3343","id":"a62spzpli7bj","geo_precision":"street","address":"HIGHWAY 136 EAST"},"type":"Feature","geometry":{"type":"Point","coordinates":[-95.063273,40.445744]}},{"properties":{"ship_phone":null,"city":"BURLINGTON JUNCT","name":"MFA INC","column_10":null,"zip":"64428","st":"MO","comments":null,"geo_score":0.554,"column_9":"816-725-3302","id":"a62spzn085vh","geo_precision":"street","address":"HIGHWAY 136 WEST"},"type":"Feature","geometry":{"type":"Point","coordinates":[-95.063273,40.445744]}},{"properties":{"ship_phone":null,"city":"BURLINGTON JUNCT","name":"SUR-GRO FINANCE INC","column_10":null,"zip":"64428","st":"MO","comments":null,"geo_score":0.481,"column_9":"816-725-3375","id":"a62spzo3gruj","geo_precision":"street","address":"HIGHWAY 113 SOUTH"},"type":"Feature","geometry":{"type":"Point","coordinates":[-95.063251,40.444929]}},{"properties":{"ship_phone":null,"city":"CAMERON","name":"CAMERON COOP ELEV ASSOCIATION","column_10":null,"zip":"64429","st":"MO","comments":null,"geo_score":0.768,"column_9":"816-632-2124","id":"a62spzfjqtzs","geo_precision":"range","address":"102 SOUTH WALNUT"},"type":"Feature","geometry":{"type":"Point","coordinates":[-94.235909,39.739954]}},{"properties":{"ship_phone":null,"city":"CONCEPTION JUNCT","name":"MFA INC","column_10":null,"zip":"64434","st":"MO","comments":null,"geo_score":0.457,"column_9":"816-944-2418","id":"a62spzd6kurb","geo_precision":"street","address":"MAIN STREET &amp; WABASH"},"type":"Feature","geometry":{"type":"Point","coordinates":[-94.69161,40.265124]}},{"properties":{"ship_phone":null,"city":"BIGELOW","name":"SCF FERTILIZER CO","column_10":"WAS SLUSHER CHEM &amp; FERT","zip":"64437","st":"MO","comments":null,"geo_score":0.514,"column_9":"816-442-5454","id":"a62spzmlpz46","geo_precision":"street","address":"ROUTE 1 BOX 24D"},"type":"Feature","geometry":{"type":"Point","coordinates":[-95.325103,40.190577]}},{"properties":{"ship_phone":null,"city":"CRAIG","name":"CRAIG SUPPLY","column_10":"CLEAN","zip":"64437","st":"MO","comments":null,"geo_score":0.321,"column_9":"816-683-5631","id":"a62spzpji68x","geo_precision":"street","address":"HWY 111 BOX 260"},"type":"Feature","geometry":{"type":"Point","coordinates":[-95.343158,40.057695]}},{"properties":{"ship_phone":null,"city":"DEARBORNE","name":"ROBERTS FERTILIZER INC","column_10":null,"zip":"64439","st":"MO","comments":null,"geo_score":0.603,"column_9":"816-992-3322","id":"a62spzqjrzxt","geo_precision":"street","address":"HIGHWAY Z"},"type":"Feature","geometry":{"type":"Point","coordinates":[-94.771171,39.521076]}},{"properties":{"ship_phone":null,"city":"DEARBORN","name":"DEBRUCE AG SERVICE INC","column_10":null,"zip":"64439","st":"MO","comments":null,"geo_score":0.72,"column_9":"816-992-3322","id":"a62spzcgnigk","geo_precision":"range","address":"512 HWY Z"},"type":"Feature","geometry":{"type":"Point","coordinates":[-94.771456,39.521457]}},{"properties":{"ship_phone":null,"city":"EAGLEVILLE","name":"FORDYCE SEED AND SUPPLY INC.","column_10":"CLEAN","zip":"64442","st":"MO","comments":null,"geo_score":0.429,"column_9":"816-867-3211","id":"a62spzimicgm","geo_precision":"street","address":"RT 1 BOX 126"},"type":"Feature","geometry":{"type":"Point","coordinates":[-94.261958,39.622065]}},{"properties":{"ship_phone":null,"city":"FAIRFAX","name":"MFA INC","column_10":null,"zip":"64446","st":"MO","comments":null,"geo_score":0.612,"column_9":"816-686-2231","id":"a62spzn3id6r","geo_precision":"street","address":"NORTH HIGHWAY 59"},"type":"Feature","geometry":{"type":"Point","coordinates":[-95.396822,40.342334]}},{"properties":{"ship_phone":null,"city":"FAIRFAX","name":"TRUE AGRICULTURAL PRODUCTS","column_10":null,"zip":"64446","st":"MO","comments":null,"geo_score":0.392,"column_9":"816-686-3585","id":"a62spzmbf5gh","geo_precision":"street","address":"RT. 1 BOX 2A"},"type":"Feature","geometry":{"type":"Point","coordinates":[-94.76927,39.521083]}},{"properties":{"ship_phone":null,"city":"FAIRFAX","name":"FERTILIZER SERVICE COMPANY","column_10":null,"zip":"64446","st":"MO","comments":null,"geo_score":0.532,"column_9":"816-686-2402","id":"a62spzdxt1tn","geo_precision":"street","address":"100 W RAILROAD BOX 169"},"type":"Feature","geometry":{"type":"Point","coordinates":[-94.596257,39.61139]}},{"properties":{"ship_phone":null,"city":"FAIRFAX","name":"YOCUM FERTILIZER INC","column_10":null,"zip":"64446","st":"MO","comments":null,"geo_score":0.551,"column_9":"816-686-3563","id":"a62spzbhwisu","geo_precision":"street","address":"HWY 59 N"},"type":"Feature","geometry":{"type":"Point","coordinates":[-95.396822,40.342334]}},{"properties":{"ship_phone":null,"city":"FILLMORE","name":"FILLMORE AGRI-SERVICE","column_10":"CLEAN","zip":"64449","st":"MO","comments":null,"geo_score":0.531,"column_9":"816-487-3895","id":"a62spzm1jkmc","geo_precision":"street","address":"BOX 100"},"type":"Feature","geometry":{"type":"Point","coordinates":[-94.311681,39.673518]}},{"properties":{"ship_phone":null,"city":"FOREST CITY","name":"CARGILL INC","column_10":"CLEAN","zip":"64451","st":"MO","comments":null,"geo_score":0.729,"column_9":"816-442-5427","id":"a62spzr980uz","geo_precision":"zip","address":"RURAL ROUTE"},"type":"Feature","geometry":{"type":"Point","coordinates":[-95.257755,40.048886]}},{"properties":{"ship_phone":null,"city":"FOREST CITY","name":"SUR-GRO PLANT FOOD","column_10":"CLEAN","zip":"64451","st":"MO","comments":null,"geo_score":0.729,"column_9":"816-446-3376","id":"a62spzc0orgi","geo_precision":"street","address":"GRAND AVENUE"},"type":"Feature","geometry":{"type":"Point","coordinates":[-95.192714,39.982346]}},{"properties":{"ship_phone":null,"city":"GRANT CITY","name":"MFA INC","column_10":null,"zip":"64456","st":"MO","comments":null,"geo_score":0.73,"column_9":"816-564-2211","id":"a62spzlm6mmz","geo_precision":"street","address":"NORTH HIGH STREET"},"type":"Feature","geometry":{"type":"Point","coordinates":[-94.413361,40.488222]}},{"properties":{"ship_phone":null,"city":"GUILFORD","name":"MFA INC","column_10":null,"zip":"64457","st":"MO","comments":null,"geo_score":0.857,"column_9":"816-652-3360","id":"a62spzbxm7q7","geo_precision":"street","address":"HWY M"},"type":"Feature","geometry":{"type":"Point","coordinates":[-94.738149,40.170275]}},{"properties":{"ship_phone":null,"city":"HOPKINS","name":"PEVE FEED &amp; FERTILIZER INC","column_10":"NONPAYMENT","zip":"64461","st":"MO","comments":null,"geo_score":0.563,"column_9":"816-778-3822","id":"a62spze29uau","geo_precision":"street","address":"102 THIRD STREET"},"type":"Feature","geometry":{"type":"Point","coordinates":[-94.819395,40.54905]}},{"properties":{"ship_phone":null,"city":"HOPKINS","name":"THE FARMERS ELEV CO OF HOPKINS INC","column_10":"WAS FARMERS SUPPLY CO","zip":"64461","st":"MO","comments":null,"geo_score":0.516,"column_9":"816-778-3331","id":"a62spzkr03lo","geo_precision":"street","address":"DEPOT ST BOX 355"},"type":"Feature","geometry":{"type":"Point","coordinates":[-94.449657,39.569625]}},{"properties":{"ship_phone":null,"city":"KING CITY","name":"SUR-GRO FINANCE INC","column_10":null,"zip":"64463","st":"MO","comments":null,"geo_score":0.625,"column_9":"816-535-4461","id":"a62spzrctptk","geo_precision":"street","address":"HIGHWAY 169 SOUTH"},"type":"Feature","geometry":{"type":"Point","coordinates":[-94.523034,40.056385]}},{"properties":{"ship_phone":null,"city":"LANGDON","name":"SUPERIOR CHEMICALS AND FERTILIZER","column_10":null,"zip":"64464","st":"MO","comments":null,"geo_score":0.5,"column_9":"816-744-2996","id":"a62spzp0w047","geo_precision":"street","address":"BOX 246 MAIN STREET"},"type":"Feature","geometry":{"type":"Point","coordinates":[-93.79565,40.331067]}},{"properties":{"ship_phone":null,"city":"LATHROP","name":"ROBINSON ELEVATOR","column_10":null,"zip":"64465","st":"MO","comments":null,"geo_score":0.732,"column_9":"816-528-4255","id":"a62spzoxttus","geo_precision":"zip","address":"GENERAL DELIVERY"},"type":"Feature","geometry":{"type":"Point","coordinates":[-94.276333,39.498893]}},{"properties":{"ship_phone":null,"city":"MAITLAND","name":"MAITLAND GRAIN &amp; FEED","column_10":"CLEAN-WAS B/T CRAIG SUPPLY","zip":"64466","st":"MO","comments":null,"geo_score":0.708,"column_9":"816-935-2263","id":"a62spzlp1g7q","geo_precision":"street","address":"101 MAIN STREET"},"type":"Feature","geometry":{"type":"Point","coordinates":[-95.075107,40.200587]}},{"properties":{"ship_phone":null,"city":"MARYVILLE","name":"MFA INC","column_10":null,"zip":"64468","st":"MO","comments":null,"geo_score":0.743,"column_9":"816-582-2102","id":"a62spzlpfxcy","geo_precision":"range","address":"211 NORTH DEPOT"},"type":"Feature","geometry":{"type":"Point","coordinates":[-94.856096,40.346775]}},{"properties":{"ship_phone":null,"city":"MARYVILLE","name":"CONSUMER OIL CO.","column_10":"OWN AGRICENTER","zip":"64468","st":"MO","comments":null,"geo_score":0.387,"column_9":"0","id":"a62spzcmzwzg","geo_precision":"street","address":"BOX 130, 1ST &amp; DEPOT"},"type":"Feature","geometry":{"type":"Point","coordinates":[-94.828172,40.258357]}},{"properties":{"ship_phone":null,"city":"MARYVILLE","name":"CONSUMERS OIL COMPANY","column_10":null,"zip":"64468","st":"MO","comments":null,"geo_score":0.492,"column_9":"816-582-2106","id":"a62spzqj1zd1","geo_precision":"street","address":"1ST AND DEPOT"},"type":"Feature","geometry":{"type":"Point","coordinates":[-94.856111,40.345303]}},{"properties":{"ship_phone":null,"city":"MAYSVILLE","name":"MFA INC","column_10":"CLEAN","zip":"64469","st":"MO","comments":null,"geo_score":0.819,"column_9":"816-449-2128","id":"a62spzb6mh10","geo_precision":"range","address":"201 SOUTH POLK"},"type":"Feature","geometry":{"type":"Point","coordinates":[-94.359352,39.888703]}},{"properties":{"ship_phone":null,"city":"MOUND CITY","name":"YOCUM SERVICES INC","column_10":"CLEAN","zip":"64470","st":"MO","comments":null,"geo_score":0.805,"column_9":"816-442-3879","id":"a62spzjnagoe","geo_precision":"range","address":"203 EAST 2ND STREET"},"type":"Feature","geometry":{"type":"Point","coordinates":[-95.228812,40.1288]}},{"properties":{"ship_phone":null,"city":"MOUND CITY","name":"NORTHWEST FERTILIZER","column_10":"CLEAN","zip":"64470","st":"MO","comments":null,"geo_score":0.756,"column_9":"816-442-3163","id":"a62spzba9cu8","geo_precision":"range","address":"301 WEST 2ND STREET"},"type":"Feature","geometry":{"type":"Point","coordinates":[-95.228033,40.129805]}},{"properties":{"ship_phone":null,"city":"OREGON","name":"WILLIAMS FERTILIZER SERVICE","column_10":"WAS UNDER 3793","zip":"64473","st":"MO","comments":null,"geo_score":0.493,"column_9":"816-446-2523","id":"a62spzqae727","geo_precision":"street","address":"600 NODWAY ROUTE 3"},"type":"Feature","geometry":{"type":"Point","coordinates":[-95.158079,39.986818]}},{"properties":{"ship_phone":null,"city":"OSBORN","name":"SUR-GRO FINANCE INC","column_10":null,"zip":"64474","st":"MO","comments":null,"geo_score":0.643,"column_9":"816-675-2203","id":"a62spzmtxelw","geo_precision":"street","address":"M HIGHWAY"},"type":"Feature","geometry":{"type":"Point","coordinates":[-94.356724,39.761238]}},{"properties":{"ship_phone":null,"city":"OSBORN","name":"UNITED COOPERATIVES INC","column_10":null,"zip":"64474","st":"MO","comments":null,"geo_score":0.619,"column_9":"816-675-2298","id":"a62spzr4csul","geo_precision":"street","address":"101 CLINTON STREET HIGHWAY M"},"type":"Feature","geometry":{"type":"Point","coordinates":[-94.356561,39.753066]}},{"properties":{"ship_phone":null,"city":"PLATTSBURG","name":"SUR GRO FINANCE INC","column_10":null,"zip":"64477","st":"MO","comments":null,"geo_score":0.437,"column_9":"816-539-2106","id":"a62spzdax0uu","geo_precision":"street","address":"100 NORTH STREET"},"type":"Feature","geometry":{"type":"Point","coordinates":[-94.457004,39.569822]}},{"properties":{"ship_phone":null,"city":"PLATTSBURG","name":"UNITED COOPERATIVES INC","column_10":null,"zip":"64477","st":"MO","comments":null,"geo_score":0.717,"column_9":"816-930-2171","id":"a62spzbldv3u","geo_precision":"range","address":"401 NORTH 7TH STREET"},"type":"Feature","geometry":{"type":"Point","coordinates":[-94.455248,39.567254]}},{"properties":{"ship_phone":null,"city":"RAVENWOOD","name":"THERMOGAS OF RAVENMOOD","column_10":null,"zip":"64479","st":"MO","comments":null,"geo_score":0.735,"column_9":null,"id":"a62spzjwkj2m","geo_precision":"street","address":"105 EAST HAWK, BOX 185"},"type":"Feature","geometry":{"type":"Point","coordinates":[-94.670814,40.352112]}},{"properties":{"ship_phone":null,"city":"RAVENWOOD","name":"SUPERIOR CHEMICALS AND FERTILIZER","column_10":null,"zip":"64479","st":"MO","comments":null,"geo_score":0.607,"column_9":"816-937-3535","id":"a62spze1pxgs","geo_precision":"street","address":"MAIN STREET BOX 117"},"type":"Feature","geometry":{"type":"Point","coordinates":[-94.673189,40.351206]}},{"properties":{"ship_phone":null,"city":"RAVENWOOD","name":"NODAWAY FERTILIZER &amp; GRAIN","column_10":null,"zip":"64479","st":"MO","comments":null,"geo_score":0.796,"column_9":"816-937-3151","id":"a62spzgkm0mt","geo_precision":"street","address":"WEST HAWK STREET"},"type":"Feature","geometry":{"type":"Point","coordinates":[-94.670814,40.352112]}},{"properties":{"ship_phone":null,"city":"RAVENWOOD","name":"SKELGAS INC","column_10":"PURCH BY NODAWAY","zip":"64479","st":"MO","comments":null,"geo_score":0.902,"column_9":"816-937-3335","id":"a62spzdknvnl","geo_precision":"range","address":"109 SOUTH MAIN STREET"},"type":"Feature","geometry":{"type":"Point","coordinates":[-94.673157,40.352051]}},{"properties":{"ship_phone":null,"city":"RIDGEWAY","name":"FORDYCE SEED &amp; SUPPLY INC","column_10":"S/T 203242","zip":"64481","st":"MO","comments":null,"geo_score":0.5,"column_9":null,"id":"a62spzawua5g","geo_precision":"street","address":"MAIN ST  BOX 161"},"type":"Feature","geometry":{"type":"Point","coordinates":[-93.937174,40.370653]}},{"properties":{"ship_phone":null,"city":"RIDGEWAY","name":"FORDYCE SEED &amp; SUPPLY INC","column_10":"NONPAYMENT","zip":"64481","st":"MO","comments":null,"geo_score":0.714,"column_9":"816-425-6411","id":"a62spzb8qxdh","geo_precision":"zip","address":"HWY Y"},"type":"Feature","geometry":{"type":"Point","coordinates":[-94.040786,40.398333]}},{"properties":{"ship_phone":null,"city":"ROCKPORT","name":"SCF DBA TRUE AG PRODUCTS","column_10":"PER KB","zip":"64482","st":"MO","comments":null,"geo_score":0.715,"column_9":null,"id":"a62spzcqx4h8","geo_precision":"range","address":"209 HIGHWAY 136 EAST"},"type":"Feature","geometry":{"type":"Point","coordinates":[-95.512442,40.41683]}},{"properties":{"ship_phone":null,"city":"ROCK PORT","name":"ATCHISON COUNTY COOPERATIVE ASSOC","column_10":"M SUMMA","zip":"64482","st":"MO","comments":null,"geo_score":0.582,"column_9":"816-744-5325","id":"a62spznil51n","geo_precision":"street","address":"HWY 136 WEST"},"type":"Feature","geometry":{"type":"Point","coordinates":[-95.513808,40.416844]}},{"properties":{"ship_phone":null,"city":"ROCK PORT","name":"TRUE AGRICULTURAL PRODUCTS","column_10":null,"zip":"64482","st":"MO","comments":null,"geo_score":0.715,"column_9":"816-744-5393","id":"a62spzns2rtn","geo_precision":"range","address":"209 HWY 136 EAST"},"type":"Feature","geometry":{"type":"Point","coordinates":[-95.512442,40.41683]}},{"properties":{"ship_phone":null,"city":"ROCK PORT","name":"MO VALLEY AGRI-SERVICE OF ATCHISON CO INC","column_10":null,"zip":"64482","st":"MO","comments":null,"geo_score":0.343,"column_9":"816-744-5325","id":"a62spzcfkzi1","geo_precision":"street","address":"RURAL ROUTE 4 BOX 234"},"type":"Feature","geometry":{"type":"Point","coordinates":[-95.517006,40.416871]}},{"properties":{"ship_phone":null,"city":"ROCK PORT","name":"NORTHWEST FERTILIZER","column_10":null,"zip":"64482","st":"MO","comments":null,"geo_score":0.345,"column_9":"816-744-6373","id":"a62spzqou02s","geo_precision":"street","address":"RURAL ROUTE 1 I-29 &amp; LANGDON EXIT 107"},"type":"Feature","geometry":{"type":"Point","coordinates":[-95.515928,40.414316]}},{"properties":{"ship_phone":null,"city":"ROCK PORT","name":"BROWN'S AGRI SERVICE","column_10":null,"zip":"64482","st":"MO","comments":null,"geo_score":0.759,"column_9":"816-744-6289","id":"a62spzerqcxw","geo_precision":"range","address":"105 EAST HIGHWAY 136"},"type":"Feature","geometry":{"type":"Point","coordinates":[-95.513808,40.416844]}},{"properties":{"ship_phone":null,"city":"RUSHVILLE","name":"SUPERIOR CHEMICALS AND FERTILIZER","column_10":null,"zip":"64484","st":"MO","comments":null,"geo_score":0.357,"column_9":"816-688-7760","id":"a62spzmlqkg3","geo_precision":"street","address":"DOWNTOWN BOX 6"},"type":"Feature","geometry":{"type":"Point","coordinates":[-94.498798,39.751574]}},{"properties":{"ship_phone":null,"city":"RUSHVILLE","name":"RUSHVILLE FERTILIZER PLANT","column_10":null,"zip":"64484","st":"MO","comments":null,"geo_score":0.357,"column_9":"816-688-7760","id":"a62spze4si3p","geo_precision":"street","address":"DOWNTOWN BOX 6"},"type":"Feature","geometry":{"type":"Point","coordinates":[-94.498798,39.751574]}},{"properties":{"ship_phone":null,"city":"SAVANNAH","name":"CONSUMERS OIL COMPANY","column_10":"CLEAN","zip":"64485","st":"MO","comments":null,"geo_score":0.561,"column_9":"816-324-3111","id":"a62spzkawqbr","geo_precision":"street","address":"HIGHWAY 71 SOUTH"},"type":"Feature","geometry":{"type":"Point","coordinates":[-94.821974,39.939257]}},{"properties":{"ship_phone":null,"city":"SAVANNAH","name":"SUR-GRO FINANCE INC","column_10":null,"zip":"64485","st":"MO","comments":null,"geo_score":0.548,"column_9":"816-324-3325","id":"a62spzdnttrt","geo_precision":"street","address":"HIGHWAY 71 NORTH"},"type":"Feature","geometry":{"type":"Point","coordinates":[-94.879813,39.996663]}},{"properties":{"ship_phone":null,"city":"SHERIDAN","name":"MFA INC","column_10":"CLEAN","zip":"64486","st":"MO","comments":null,"geo_score":0.429,"column_9":"816-799-2425","id":"a62spzdqgkgv","geo_precision":"street","address":"1ST &amp; JEFFERSON"},"type":"Feature","geometry":{"type":"Point","coordinates":[-94.614313,40.517967]}},{"properties":{"ship_phone":null,"city":"SHERIDAN","name":"SUR GRO FINANCE INC","column_10":"CLEAN","zip":"64486","st":"MO","comments":null,"geo_score":0.5,"column_9":"816-799-2325","id":"a62spzbik2eg","geo_precision":"street","address":"1ST AND MAIN"},"type":"Feature","geometry":{"type":"Point","coordinates":[-95.017102,39.5866]}},{"properties":{"ship_phone":null,"city":"SKIDMORE","name":"NODAWAY-HOLT FERTILIZER INC","column_10":null,"zip":"64487","st":"MO","comments":null,"geo_score":0.662,"column_9":"816-928-3662","id":"a62spzhj7r1i","geo_precision":"street","address":"HIGHWAY 113"},"type":"Feature","geometry":{"type":"Point","coordinates":[-95.082245,40.28637]}},{"properties":{"ship_phone":null,"city":"STANBERRY","name":"GAGE FERTILIZER &amp; GRAIN INC","column_10":"CLEAN","zip":"64489","st":"MO","comments":null,"geo_score":0.469,"column_9":"816-783-2167","id":"a62spzn7rmoi","geo_precision":"street","address":"RAILROAD STREET"},"type":"Feature","geometry":{"type":"Point","coordinates":[-94.840198,40.450839]}},{"properties":{"ship_phone":null,"city":"STANBERRY","name":"ALLDREDGE FEED AND SEED INC","column_10":null,"zip":"64489","st":"MO","comments":null,"geo_score":0.81,"column_9":"816-783-2420","id":"a62spzqexgak","geo_precision":"street","address":"SOUTH WILLOW STREET"},"type":"Feature","geometry":{"type":"Point","coordinates":[-94.54007,40.214098]}},{"properties":{"ship_phone":null,"city":"STEWARTSVILLE","name":"SUPERIOR CHEMICALS AND FERTILIZER","column_10":null,"zip":"64490","st":"MO","comments":null,"geo_score":0.408,"column_9":"816-669-3215","id":"a62spzqtfuhr","geo_precision":"street","address":"DOWNTOWN  BOX 147"},"type":"Feature","geometry":{"type":"Point","coordinates":[-94.338191,39.557247]}},{"properties":{"ship_phone":null,"city":"TARKIO","name":"BROWN'S AGRI SERVICE","column_10":"NOW A SATELITE LOC","zip":"64491","st":"MO","comments":null,"geo_score":0.429,"column_9":"816-736-5751","id":"a62spzg7zv9i","geo_precision":"street","address":"ROUTE 2"},"type":"Feature","geometry":{"type":"Point","coordinates":[-95.376961,40.439157]}},{"properties":{"ship_phone":null,"city":"TARKIO","name":"LYLE BROWN","column_10":null,"zip":"64491","st":"MO","comments":null,"geo_score":0.429,"column_9":"816-736-5751","id":"a62spzqwnh0w","geo_precision":"street","address":"ROUTE 2"},"type":"Feature","geometry":{"type":"Point","coordinates":[-95.376961,40.439157]}},{"properties":{"ship_phone":null,"city":"UNION STAR","name":"SUPERIOR CHEMICALS AND FERTILIZER","column_10":null,"zip":"64494","st":"MO","comments":null,"geo_score":0.408,"column_9":"816-593-2822","id":"a62spzebl5el","geo_precision":"street","address":"DOWNTOWN BOX 176"},"type":"Feature","geometry":{"type":"Point","coordinates":[-94.75635,40.030028]}},{"properties":{"ship_phone":null,"city":"WESTBORO","name":"WESTBORO AG SERVICES","column_10":null,"zip":"64498","st":"MO","comments":null,"geo_score":0.714,"column_9":"816-984-5432","id":"a62spzj238nf","geo_precision":"street","address":"ADAMS &amp; MAIN"},"type":"Feature","geometry":{"type":"Point","coordinates":[-95.322701,40.534466]}},{"properties":{"ship_phone":null,"city":"SAINT JOSEPH","name":"MFA INC","column_10":"CLEAN","zip":"64501","st":"MO","comments":null,"geo_score":0.707,"column_9":"816-232-8474","id":"a62spzl6le9i","geo_precision":"range","address":"2715 SOUTH 6TH"},"type":"Feature","geometry":{"type":"Point","coordinates":[-94.852824,39.740965]}},{"properties":{"ship_phone":null,"city":"SAINT JOSEPH","name":"WILFARM L.L.C.","column_10":"CLEAN-WAS FARMLAND 3024","zip":"64503","st":"MO","comments":null,"geo_score":0.84,"column_9":"816-364-3192","id":"a62spzr5iqb8","geo_precision":"range","address":"4301 S LEONARD ROAD"},"type":"Feature","geometry":{"type":"Point","coordinates":[-94.787057,39.728499]}},{"properties":{"ship_phone":null,"city":"SAINT JOSEPH","name":"TERRA INTERNATIONAL INC","column_10":null,"zip":"64505","st":"MO","comments":null,"geo_score":0.823,"column_9":"816-233-5944","id":"a62spzlgwbu9","geo_precision":"range","address":"2305 ST JOSEPH AVENUE"},"type":"Feature","geometry":{"type":"Point","coordinates":[-94.850472,39.783788]}},{"properties":{"ship_phone":null,"city":"ST JOSEPH","name":"ST JOSEPH AGRI SERVICE INC","column_10":"BECAME ITS OWN BILL TO","zip":"64507","st":"MO","comments":null,"geo_score":0.705,"column_9":"816-232-1664","id":"a62spzhhkpbg","geo_precision":"range","address":"4620 HIGHWAY 169 NORTH"},"type":"Feature","geometry":{"type":"Point","coordinates":[-94.782985,39.723862]}},{"properties":{"ship_phone":null,"city":"SAINT JOSEPH","name":"ST JOSEPH AGRI-SERVICES INC","column_10":null,"zip":"64507","st":"MO","comments":null,"geo_score":0.704,"column_9":"816-232-1664","id":"a62spzclq7j5","geo_precision":"range","address":"4620 HWY 169 S"},"type":"Feature","geometry":{"type":"Point","coordinates":[-94.782985,39.723862]}},