{"type":"FeatureCollection","data_type":"Dataset","url_type":null,"permissions":[{"permissions":{"download":true,"view":true},"group_id":"everyone"}],"classification":null,"title":"SHEN SiteVisits wDATA","count":298,"stream_id":98196,"contributor":{"url":"http://geocommons.com/users/9443","name":"burke99"},"data_attributes":null,"calculation_params":null,"icon_link":null,"link":"http://geocommons.com/overlays/98196.json","extent":[-78.8275,38.0968,-78.1657,38.8442],"geometry_types":["point"],"unique_name":null,"name":"SHEN SiteVisits wDATA","feature_count":298,"description":"","next_feature":null,"is_raster":false,"short_classification":"Y","stats":{"tons":{"max":4.2375,"mean":0.9000062250016,"variance":0.399291368266988,"stdev":0.631895061119319,"min":0.0,"median":0.784999989718},"AvgLitterD":{"max":14.59649016,"mean":3.18757134604027,"variance":5.34778323087903,"stdev":2.31252745516221,"min":0.0,"median":2.818202304},"sDate":{"max":null,"min":null,"median":null},"AvgDuffDep":{"max":3.6375,"mean":1.0566051672557,"variance":0.324051560015616,"stdev":0.569255267885696,"min":0.0,"median":0.9875},"hundredHR":{"max":15,"mean":2.93624161073825,"variance":7.86460804917181,"stdev":2.80439085171304,"min":0,"median":2},"tenHR":{"max":34,"mean":6.92953020134228,"variance":28.3485526404989,"stdev":5.3243358872726,"min":0,"median":6},"R":{"max":17,"mean":2.61073825503356,"variance":8.2789415406865,"stdev":2.87731498808985,"min":0,"median":2},"S":{"max":17,"mean":2.37919463087248,"variance":6.74124918084648,"stdev":2.59639156924499,"min":0,"median":2},"UTMY_N":{"max":4303281.0,"mean":4265472.10635453,"variance":540730701.887866,"stdev":23253.6169635579,"min":4218837.0,"median":4267573.0},"oneHR":{"max":142,"mean":19.3523489932886,"variance":253.589236887894,"stdev":15.9244854512758,"min":0,"median":17},"UTMX_E":{"max":746222.0,"mean":721791.761954027,"variance":220959118.058586,"stdev":14864.6936752355,"min":690477.0,"median":726735.0}},"features":[{"properties":{"tons":3.4625,"AvgLitterD":3.915174528,"sDate":"2001/05/22 00:00:00 +0000","SiteID":"SHNP501","AvgDuffDep":2.1875,"hundredHR":5,"tenHR":4,"R":0,"Site_Name":"South district","Project":"VEGMAP","S":4,"UTMY_N":4220220.00008,"id":"a72g3l5qawse","oneHR":18,"UTMX_E":693690.0,"SiteVisitI":"2001-05-22_SHNP501"},"type":"Feature","geometry":{"type":"Point","coordinates":[-78.7907523931544,38.1090526331605]}},{"properties":{"tons":4.2375,"AvgLitterD":2.559282144,"sDate":"2001/05/22 00:00:00 +0000","SiteID":"SHNP502","AvgDuffDep":1.55,"hundredHR":1,"tenHR":12,"R":0,"Site_Name":"South district Sawmill Run","Project":"VEGMAP","S":1,"UTMY_N":4220190.00008,"id":"a72g3l28c7py","oneHR":12,"UTMX_E":694530.0,"SiteVisitI":"2001-05-22_SHNP502"},"type":"Feature","geometry":{"type":"Point","coordinates":[-78.78118605708,38.1086019501785]}},{"properties":{"tons":1.3625,"AvgLitterD":5.865065424,"sDate":"2001/05/23 00:00:00 +0000","SiteID":"SHNP503","AvgDuffDep":0.425,"hundredHR":6,"tenHR":12,"R":0,"Site_Name":"South district North of Sawmill Run","Project":"VEGMAP","S":7,"UTMY_N":4221340.00008,"id":"a72g3lejnj72","oneHR":21,"UTMX_E":694540.0,"SiteVisitI":"2001-05-23_SHNP503"},"type":"Feature","geometry":{"type":"Point","coordinates":[-78.780758547964,38.1189566378834]}},{"properties":{"tons":2.4625,"AvgLitterD":1.7484444,"sDate":"2001/05/23 00:00:00 +0000","SiteID":"SHNP504","AvgDuffDep":1.2125,"hundredHR":1,"tenHR":5,"R":0,"Site_Name":"South district Sawmill Run","Project":"VEGMAP","S":6,"UTMY_N":4221395.00008,"id":"a72g3l9hukm0","oneHR":22,"UTMX_E":694603.0,"SiteVisitI":"2001-05-23_SHNP504"},"type":"Feature","geometry":{"type":"Point","coordinates":[-78.7800253607503,38.1194383894943]}},{"properties":{"tons":3.0,"AvgLitterD":10.12314504,"sDate":"2001/05/24 00:00:00 +0000","SiteID":"SHNP506","AvgDuffDep":3.1375,"hundredHR":8,"tenHR":25,"R":1,"Site_Name":"None","Project":"VEGMAP","S":9,"UTMY_N":4236057.0,"id":"a72g3lbviqwz","oneHR":142,"UTMX_E":695182.0,"SiteVisitI":"2001-05-24_SHNP506"},"type":"Feature","geometry":{"type":"Point","coordinates":[-78.7694001186707,38.251356180336]}},{"properties":{"tons":0.0,"AvgLitterD":3.054233568,"sDate":"2001/05/24 00:00:00 +0000","SiteID":"SHNP507","AvgDuffDep":0.0,"hundredHR":2,"tenHR":9,"R":0,"Site_Name":"South district Madison Run fire rd","Project":"VEGMAP","S":3,"UTMY_N":4236600.00008,"id":"a72g3l2nglnt","oneHR":47,"UTMX_E":695293.0,"SiteVisitI":"2001-05-24_SHNP507"},"type":"Feature","geometry":{"type":"Point","coordinates":[-78.7679828190768,38.2562221386879]}},{"properties":{"tons":1.9875,"AvgLitterD":2.21169312,"sDate":"2001/05/24 00:00:00 +0000","SiteID":"SHNP508","AvgDuffDep":1.275,"hundredHR":3,"tenHR":0,"R":0,"Site_Name":"South district","Project":"VEGMAP","S":10,"UTMY_N":4235498.00008,"id":"a72g3l1by8gi","oneHR":6,"UTMX_E":692075.0,"SiteVisitI":"2001-05-24_SHNP508"},"type":"Feature","geometry":{"type":"Point","coordinates":[-78.8050350855241,38.246991287639]}},{"properties":{"tons":1.2,"AvgLitterD":4.3200696,"sDate":"2001/05/29 00:00:00 +0000","SiteID":"SHNP509","AvgDuffDep":1.225,"hundredHR":2,"tenHR":15,"R":6,"Site_Name":"North distruct Thorton Gap Area","Project":"VEGMAP","S":11,"UTMY_N":4282949.00008,"id":"a72g3la7jgis","oneHR":21,"UTMX_E":732674.0,"SiteVisitI":"2001-05-29_SHNP509"},"type":"Feature","geometry":{"type":"Point","coordinates":[-78.3257737662941,38.6645753877463]}},{"properties":{"tons":1.3875,"AvgLitterD":2.467270272,"sDate":"2001/05/29 00:00:00 +0000","SiteID":"SHNP510","AvgDuffDep":1.125,"hundredHR":2,"tenHR":6,"R":0,"Site_Name":"North district Thorton Gap","Project":"VEGMAP","S":4,"UTMY_N":4283950.00008,"id":"a72g3lcxaj3y","oneHR":26,"UTMX_E":732792.0,"SiteVisitI":"2001-05-29_SHNP510"},"type":"Feature","geometry":{"type":"Point","coordinates":[-78.3240832767147,38.6735554034276]}},{"properties":{"tons":0.7875,"AvgLitterD":4.064976672,"sDate":"2001/05/30 00:00:00 +0000","SiteID":"SHNP511","AvgDuffDep":1.0625,"hundredHR":3,"tenHR":11,"R":7,"Site_Name":"North district","Project":"VEGMAP","S":2,"UTMY_N":4282180.00008,"id":"a72g3l4mn0ha","oneHR":23,"UTMX_E":737300.0,"SiteVisitI":"2001-05-30_SHNP511"},"type":"Feature","geometry":{"type":"Point","coordinates":[-78.2729231831704,38.6564258605717]}},{"properties":{"tons":0.535000000149,"AvgLitterD":4.049984352,"sDate":"2001/05/30 00:00:00 +0000","SiteID":"SHNP512","AvgDuffDep":0.8875,"hundredHR":3,"tenHR":11,"R":0,"Site_Name":"North district Beaman","Project":"VEGMAP","S":10,"UTMY_N":4285800.00008,"id":"a72g3l8wfqg6","oneHR":27,"UTMX_E":732730.0,"SiteVisitI":"2001-05-30_SHNP512"},"type":"Feature","geometry":{"type":"Point","coordinates":[-78.3241747018825,38.6902254036914]}},{"properties":{"tons":0.775,"AvgLitterD":5.833958688,"sDate":"2001/05/31 00:00:00 +0000","SiteID":"SHNP513","AvgDuffDep":0.742500000075,"hundredHR":4,"tenHR":19,"R":2,"Site_Name":"North district Thorton Gap","Project":"VEGMAP","S":4,"UTMY_N":4284269.00008,"id":"a72g3l5h46h0","oneHR":37,"UTMX_E":733452.0,"SiteVisitI":"2001-05-31_SHNP513"},"type":"Feature","geometry":{"type":"Point","coordinates":[-78.3163970759367,38.6762532609533]}},{"properties":{"tons":0.835000002384,"AvgLitterD":3.694587216,"sDate":"2001/05/31 00:00:00 +0000","SiteID":"SHNP514","AvgDuffDep":1.5375,"hundredHR":2,"tenHR":13,"R":2,"Site_Name":"North district Thorton Gap","Project":"VEGMAP","S":6,"UTMY_N":4283955.00008,"id":"a72g3lb30a3f","oneHR":26,"UTMX_E":733935.0,"SiteVisitI":"2001-05-31_SHNP514"},"type":"Feature","geometry":{"type":"Point","coordinates":[-78.3109563453724,38.6732991721047]}},{"properties":{"tons":0.75,"AvgLitterD":2.404926432,"sDate":"2001/05/31 00:00:00 +0000","SiteID":"SHNP515","AvgDuffDep":1.3125,"hundredHR":2,"tenHR":6,"R":2,"Site_Name":"North didstrict Thorton Gap","Project":"VEGMAP","S":0,"UTMY_N":4283120.00008,"id":"a72g3l132mrt","oneHR":24,"UTMX_E":733740.0,"SiteVisitI":"2001-05-31_SHNP515"},"type":"Feature","geometry":{"type":"Point","coordinates":[-78.3134766705578,38.6658340509513]}},{"properties":{"tons":1.725,"AvgLitterD":6.322540704,"sDate":"2001/06/06 00:00:00 +0000","SiteID":"SHNP519","AvgDuffDep":1.24250000007,"hundredHR":7,"tenHR":12,"R":0,"Site_Name":"Central district White Oak Canyon","Project":"VEGMAP","S":3,"UTMY_N":4269587.00008,"id":"a72g3lb0swhi","oneHR":20,"UTMX_E":731049.0,"SiteVisitI":"2001-06-06_SHNP519"},"type":"Feature","geometry":{"type":"Point","coordinates":[-78.3488645556946,38.5447122800234]}},{"properties":{"tons":0.4375,"AvgLitterD":5.963120784,"sDate":"2001/06/06 00:00:00 +0000","SiteID":"SHNP520","AvgDuffDep":0.9875,"hundredHR":6,"tenHR":12,"R":0,"Site_Name":"Central district White Oak Canyon","Project":"VEGMAP","S":8,"UTMY_N":4269165.00008,"id":"a72g3l2wc1db","oneHR":29,"UTMX_E":730596.0,"SiteVisitI":"2001-06-06_SHNP520"},"type":"Feature","geometry":{"type":"Point","coordinates":[-78.3541965777143,38.5410308051756]}},{"properties":{"tons":0.625,"AvgLitterD":4.756378704,"sDate":"2001/06/07 00:00:00 +0000","SiteID":"SHNP522","AvgDuffDep":1.425,"hundredHR":4,"tenHR":12,"R":0,"Site_Name":"Central district Limberlost","Project":"VEGMAP","S":9,"UTMY_N":4272692.00008,"id":"a72g3lb02vcx","oneHR":25,"UTMX_E":728684.0,"SiteVisitI":"2001-06-07_SHNP522"},"type":"Feature","geometry":{"type":"Point","coordinates":[-78.3749576564589,38.5732764074861]}},{"properties":{"tons":0.8625,"AvgLitterD":3.262640784,"sDate":"2001/06/07 00:00:00 +0000","SiteID":"SHNP523","AvgDuffDep":1.1625,"hundredHR":3,"tenHR":7,"R":0,"Site_Name":"Central district White Oak Canyon","Project":"VEGMAP","S":6,"UTMY_N":4272644.00008,"id":"a72g3legcbz5","oneHR":22,"UTMX_E":730817.0,"SiteVisitI":"2001-06-07_SHNP523"},"type":"Feature","geometry":{"type":"Point","coordinates":[-78.3505131984194,38.5722928045436]}},{"properties":{"tons":0.9,"AvgLitterD":2.130278304,"sDate":"2001/06/12 00:00:00 +0000","SiteID":"SHNP524","AvgDuffDep":1.025,"hundredHR":1,"tenHR":7,"R":3,"Site_Name":"North district Thorton River Trail","Project":"VEGMAP","S":4,"UTMY_N":4288539.00008,"id":"a72g3l4jks1s","oneHR":23,"UTMX_E":733892.0,"SiteVisitI":"2001-06-12_SHNP524"},"type":"Feature","geometry":{"type":"Point","coordinates":[-78.3099039355804,38.7145751523659]}},{"properties":{"tons":0.325000000373,"AvgLitterD":2.673181872,"sDate":"2001/06/12 00:00:00 +0000","SiteID":"SHNP525","AvgDuffDep":0.875,"hundredHR":1,"tenHR":11,"R":0,"Site_Name":"North district Thorton River Trail","Project":"VEGMAP","S":5,"UTMY_N":4287895.00008,"id":"a72g3l59tlan","oneHR":28,"UTMX_E":735034.0,"SiteVisitI":"2001-06-12_SHNP525"},"type":"Feature","geometry":{"type":"Point","coordinates":[-78.2970013036607,38.7084751890854]}},{"properties":{"tons":0.5875,"AvgLitterD":4.148570496,"sDate":"2001/06/12 00:00:00 +0000","SiteID":"SHNP526","AvgDuffDep":0.8875,"hundredHR":4,"tenHR":8,"R":1,"Site_Name":"North district Thorton River trail","Project":"VEGMAP","S":7,"UTMY_N":4287324.00008,"id":"a72g3lagyvml","oneHR":28,"UTMX_E":735328.0,"SiteVisitI":"2001-06-12_SHNP526"},"type":"Feature","geometry":{"type":"Point","coordinates":[-78.2938175648809,38.703257012814]}},{"properties":{"tons":1.09250000007,"AvgLitterD":6.711931296,"sDate":"2001/06/13 00:00:00 +0000","SiteID":"SHNP527","AvgDuffDep":1.0625,"hundredHR":7,"tenHR":13,"R":2,"Site_Name":"North district Piney Ridge Trail","Project":"VEGMAP","S":6,"UTMY_N":4289238.00008,"id":"a72g3l1o0h4j","oneHR":25,"UTMX_E":735065.0,"SiteVisitI":"2001-06-13_SHNP527"},"type":"Feature","geometry":{"type":"Point","coordinates":[-78.2961894297321,38.7205562907408]}},{"properties":{"tons":0.8625,"AvgLitterD":2.671794384,"sDate":"2001/06/13 00:00:00 +0000","SiteID":"SHNP528","AvgDuffDep":0.85,"hundredHR":2,"tenHR":7,"R":2,"Site_Name":"North district Piney Ridge Trail","Project":"VEGMAP","S":6,"UTMY_N":4289603.00008,"id":"a72g3lc0tqpx","oneHR":12,"UTMX_E":735117.0,"SiteVisitI":"2001-06-13_SHNP528"},"type":"Feature","geometry":{"type":"Point","coordinates":[-78.2954679919484,38.7238280909959]}},{"properties":{"tons":1.15,"AvgLitterD":1.940090016,"sDate":"2001/06/13 00:00:00 +0000","SiteID":"SHNP529","AvgDuffDep":0.592500000075,"hundredHR":2,"tenHR":3,"R":0,"Site_Name":"North district Piney Ridge Trail","Project":"VEGMAP","S":4,"UTMY_N":4290439.00008,"id":"a72g3l6ieugs","oneHR":17,"UTMX_E":734723.0,"SiteVisitI":"2001-06-13_SHNP529"},"type":"Feature","geometry":{"type":"Point","coordinates":[-78.2997120044652,38.7314582720909]}},{"properties":{"tons":0.619047619048,"AvgLitterD":4.388694384,"sDate":"2001/06/14 00:00:00 +0000","SiteID":"SHNP530","AvgDuffDep":0.338095238166,"hundredHR":3,"tenHR":12,"R":1,"Site_Name":"Central district Big Meadows","Project":"VEGMAP","S":0,"UTMY_N":4266013.00008,"id":"a72g3l5n6q75","oneHR":89,"UTMX_E":722978.0,"SiteVisitI":"2001-06-14_SHNP530"},"type":"Feature","geometry":{"type":"Point","coordinates":[-78.4425268429459,38.514595201528]}},{"properties":{"tons":0.7875,"AvgLitterD":0.0,"sDate":"2001/06/14 00:00:00 +0000","SiteID":"SHNP531","AvgDuffDep":0.7,"hundredHR":0,"tenHR":0,"R":0,"Site_Name":"Central district Mill Prong Trail","Project":"VEGMAP","S":0,"UTMY_N":4264270.00008,"id":"a72g3l1p6gs1","oneHR":0,"UTMX_E":723113.0,"SiteVisitI":"2001-06-14_SHNP531"},"type":"Feature","geometry":{"type":"Point","coordinates":[-78.4415355311051,38.4988689613031]}},{"properties":{"tons":0.955000000075,"AvgLitterD":4.874892528,"sDate":"2001/06/14 00:00:00 +0000","SiteID":"SHNP532","AvgDuffDep":0.242500000447,"hundredHR":5,"tenHR":9,"R":3,"Site_Name":"Central district Pinnacles Area","Project":"VEGMAP","S":3,"UTMY_N":4278560.00008,"id":"a72g3lfgf8bl","oneHR":30,"UTMX_E":732724.0,"SiteVisitI":"2001-06-14_SHNP532"},"type":"Feature","geometry":{"type":"Point","coordinates":[-78.3266691101103,38.6250521710414]}},{"properties":{"tons":1.7125,"AvgLitterD":1.280763168,"sDate":"2001/06/19 00:00:00 +0000","SiteID":"SHNP533","AvgDuffDep":1.775,"hundredHR":0,"tenHR":4,"R":0,"Site_Name":"North district Hogwallow","Project":"VEGMAP","S":17,"UTMY_N":4298108.00008,"id":"a72g3l2u7y5y","oneHR":10,"UTMX_E":744926.0,"SiteVisitI":"2001-06-19_SHNP533"},"type":"Feature","geometry":{"type":"Point","coordinates":[-78.1797463299322,38.7977163660241]}},{"properties":{"tons":0.8875,"AvgLitterD":8.095126464,"sDate":"2001/06/19 00:00:00 +0000","SiteID":"SHNP534","AvgDuffDep":1.125,"hundredHR":11,"tenHR":7,"R":0,"Site_Name":"North district","Project":"VEGMAP","S":6,"UTMY_N":4298150.00008,"id":"a72g3l0gwswp","oneHR":21,"UTMX_E":744399.0,"SiteVisitI":"2001-06-19_SHNP534"},"type":"Feature","geometry":{"type":"Point","coordinates":[-78.1857928919689,38.7982406543252]}},{"properties":{"tons":0.385000000149,"AvgLitterD":10.144665072,"sDate":"2001/06/20 00:00:00 +0000","SiteID":"SHNP535","AvgDuffDep":1.0625,"hundredHR":8,"tenHR":31,"R":0,"Site_Name":"Central district Jewel Hollow","Project":"VEGMAP","S":2,"UTMY_N":4281631.00008,"id":"a72g3lacu1uh","oneHR":66,"UTMX_E":729839.0,"SiteVisitI":"2001-06-20_SHNP535"},"type":"Feature","geometry":{"type":"Point","coordinates":[-78.358761447347,38.6534505857011]}},{"properties":{"tons":0.8375,"AvgLitterD":1.531153536,"sDate":"2001/06/26 00:00:00 +0000","SiteID":"SHNP538","AvgDuffDep":1.55,"hundredHR":1,"tenHR":3,"R":0,"Site_Name":"North district Overall Run","Project":"VEGMAP","S":6,"UTMY_N":4297032.00008,"id":"a72g3l1b1e9o","oneHR":33,"UTMX_E":732491.0,"SiteVisitI":"2001-06-26_SHNP538"},"type":"Feature","geometry":{"type":"Point","coordinates":[-78.3231451783895,38.7913977278853]}},{"properties":{"tons":1.275,"AvgLitterD":0.0,"sDate":"2001/06/26 00:00:00 +0000","SiteID":"SHNP539","AvgDuffDep":2.2,"hundredHR":0,"tenHR":0,"R":0,"Site_Name":"North district Overall Run Trail","Project":"VEGMAP","S":0,"UTMY_N":4297044.00008,"id":"a72g3l373nkx","oneHR":0,"UTMX_E":732348.0,"SiteVisitI":"2001-06-26_SHNP539"},"type":"Feature","geometry":{"type":"Point","coordinates":[-78.3247859418051,38.7915434433491]}},{"properties":{"tons":0.510000000149,"AvgLitterD":0.624169392,"sDate":"2001/06/26 00:00:00 +0000","SiteID":"SHNP540","AvgDuffDep":1.9,"hundredHR":0,"tenHR":1,"R":3,"Site_Name":"North district Overall Run Trail","Project":"VEGMAP","S":5,"UTMY_N":4297257.00008,"id":"a72g3l31wv9e","oneHR":20,"UTMX_E":732871.0,"SiteVisitI":"2001-06-26_SHNP540"},"type":"Feature","geometry":{"type":"Point","coordinates":[-78.3186984546139,38.7933228535055]}},{"properties":{"tons":2.075,"AvgLitterD":1.599163728,"sDate":"2001/07/10 00:00:00 +0000","SiteID":"SHNP541","AvgDuffDep":2.21750000007,"hundredHR":1,"tenHR":4,"R":1,"Site_Name":"Central district Rapidan area","Project":"VEGMAP","S":0,"UTMY_N":4259005.00008,"id":"a72g3lcr53as","oneHR":43,"UTMX_E":730055.0,"SiteVisitI":"2001-07-10_SHNP541"},"type":"Feature","geometry":{"type":"Point","coordinates":[-78.3637355311662,38.4497048306039]}},{"properties":{"tons":1.25,"AvgLitterD":2.304361488,"sDate":"2001/07/10 00:00:00 +0000","SiteID":"SHNP542","AvgDuffDep":1.5625,"hundredHR":1,"tenHR":9,"R":2,"Site_Name":"Central district Rapidan area","Project":"VEGMAP","S":5,"UTMY_N":4258908.00008,"id":"a72g3l8jh39l","oneHR":8,"UTMX_E":729959.0,"SiteVisitI":"2001-07-10_SHNP542"},"type":"Feature","geometry":{"type":"Point","coordinates":[-78.3648663245143,38.4488563129312]}},{"properties":{"tons":0.45,"AvgLitterD":0.0,"sDate":"2001/07/10 00:00:00 +0000","SiteID":"SHNP543","AvgDuffDep":0.942500000075,"hundredHR":0,"tenHR":0,"R":0,"Site_Name":"Central district Big Meadows Swamp","Project":"VEGMAP","S":0,"UTMY_N":4267207.00008,"id":"a72g3lccyqip","oneHR":0,"UTMX_E":724031.0,"SiteVisitI":"2001-07-10_SHNP543"},"type":"Feature","geometry":{"type":"Point","coordinates":[-78.4300781126426,38.5250804928017]}},{"properties":{"tons":1.225,"AvgLitterD":1.203119712,"sDate":"2001/07/11 00:00:00 +0000","SiteID":"SHNP544","AvgDuffDep":1.31000000015,"hundredHR":0,"tenHR":6,"R":0,"Site_Name":"Central district Rapidan area","Project":"VEGMAP","S":2,"UTMY_N":4261590.00008,"id":"a72g3l3b3owg","oneHR":28,"UTMX_E":728502.0,"SiteVisitI":"2001-07-11_SHNP544"},"type":"Feature","geometry":{"type":"Point","coordinates":[-78.3806724343795,38.4733759000641]}},{"properties":{"tons":0.55,"AvgLitterD":4.442140608,"sDate":"2001/07/11 00:00:00 +0000","SiteID":"SHNP545","AvgDuffDep":0.9125,"hundredHR":5,"tenHR":4,"R":2,"Site_Name":"Central district Rapidan area","Project":"VEGMAP","S":11,"UTMY_N":4261447.00008,"id":"a72g3l3yrveo","oneHR":42,"UTMX_E":728447.0,"SiteVisitI":"2001-07-11_SHNP545"},"type":"Feature","geometry":{"type":"Point","coordinates":[-78.3813488892474,38.4721025999816]}},{"properties":{"tons":1.3625,"AvgLitterD":2.820693264,"sDate":"2001/07/11 00:00:00 +0000","SiteID":"SHNP546","AvgDuffDep":1.025,"hundredHR":1,"tenHR":12,"R":3,"Site_Name":"Central district Rapidan area","Project":"VEGMAP","S":2,"UTMY_N":4260312.00008,"id":"a72g3l1eih9m","oneHR":23,"UTMX_E":728273.0,"SiteVisitI":"2001-07-11_SHNP546"},"type":"Feature","geometry":{"type":"Point","coordinates":[-78.3837109589865,38.4619290207519]}},{"properties":{"tons":1.2375,"AvgLitterD":1.944494592,"sDate":"2001/07/12 00:00:00 +0000","SiteID":"SHNP547","AvgDuffDep":0.805000000075,"hundredHR":1,"tenHR":6,"R":3,"Site_Name":"Central district South River","Project":"VEGMAP","S":1,"UTMY_N":4250419.00008,"id":"a72g3l8jvs5i","oneHR":32,"UTMX_E":716812.0,"SiteVisitI":"2001-07-12_SHNP547"},"type":"Feature","geometry":{"type":"Point","coordinates":[-78.5180023454397,38.37571394066]}},{"properties":{"tons":0.5125,"AvgLitterD":2.39215968,"sDate":"2001/07/12 00:00:00 +0000","SiteID":"SHNP548","AvgDuffDep":0.6625,"hundredHR":2,"tenHR":5,"R":4,"Site_Name":"Central district South River area","Project":"VEGMAP","S":2,"UTMY_N":4253465.00008,"id":"a72g3l52308d","oneHR":21,"UTMX_E":718495.0,"SiteVisitI":"2001-07-12_SHNP548"},"type":"Feature","geometry":{"type":"Point","coordinates":[-78.497807369503,38.4027298207136]}},{"properties":{"tons":0.1125,"AvgLitterD":2.684421456,"sDate":"2001/07/16 00:00:00 +0000","SiteID":"SHNP549","AvgDuffDep":0.225,"hundredHR":3,"tenHR":3,"R":5,"Site_Name":"Central district Dry Run Falls","Project":"VEGMAP","S":2,"UTMY_N":4253446.00008,"id":"a72g3ld1nvta","oneHR":14,"UTMX_E":715970.0,"SiteVisitI":"2001-07-16_SHNP549"},"type":"Feature","geometry":{"type":"Point","coordinates":[-78.526704280351,38.4031723231039]}},{"properties":{"tons":0.8375,"AvgLitterD":2.908291248,"sDate":"2001/07/16 00:00:00 +0000","SiteID":"SHNP550","AvgDuffDep":1.475,"hundredHR":3,"tenHR":4,"R":1,"Site_Name":"Central district Dry Run Falls","Project":"VEGMAP","S":6,"UTMY_N":4253424.00008,"id":"a72g3lf727hh","oneHR":29,"UTMX_E":716160.0,"SiteVisitI":"2001-07-16_SHNP550"},"type":"Feature","geometry":{"type":"Point","coordinates":[-78.5245370330699,38.4029283161473]}},{"properties":{"tons":0.542500000075,"AvgLitterD":2.53342272,"sDate":"2001/07/17 00:00:00 +0000","SiteID":"SHNP551","AvgDuffDep":1.3625,"hundredHR":2,"tenHR":5,"R":5,"Site_Name":"North district Heiskell Hollow","Project":"VEGMAP","S":2,"UTMY_N":4295291.00008,"id":"a72g3lcq5ahz","oneHR":33,"UTMX_E":731570.0,"SiteVisitI":"2001-07-17_SHNP551"},"type":"Feature","geometry":{"type":"Point","coordinates":[-78.3343227027452,38.7759677574066]}},{"properties":{"tons":1.025,"AvgLitterD":3.495789984,"sDate":"2001/07/17 00:00:00 +0000","SiteID":"SHNP552","AvgDuffDep":1.075,"hundredHR":2,"tenHR":12,"R":0,"Site_Name":"North district Heiskell Hollow","Project":"VEGMAP","S":1,"UTMY_N":4295477.00008,"id":"a72g3lc4l94x","oneHR":54,"UTMX_E":730632.0,"SiteVisitI":"2001-07-17_SHNP552"},"type":"Feature","geometry":{"type":"Point","coordinates":[-78.3450474050911,38.7778878431752]}},{"properties":{"tons":0.7125,"AvgLitterD":5.117302512,"sDate":"2001/07/18 00:00:00 +0000","SiteID":"SHNP553","AvgDuffDep":1.00750000477,"hundredHR":6,"tenHR":6,"R":3,"Site_Name":"North district Knob Mt Trail","Project":"VEGMAP","S":5,"UTMY_N":4292913.00008,"id":"a72g3lbn6gys","oneHR":33,"UTMX_E":733369.0,"SiteVisitI":"2001-07-18_SHNP553"},"type":"Feature","geometry":{"type":"Point","coordinates":[-78.314438039749,38.7540874488754]}},{"properties":{"tons":0.35,"AvgLitterD":1.663411872,"sDate":"2001/07/18 00:00:00 +0000","SiteID":"SHNP554","AvgDuffDep":0.5625,"hundredHR":2,"tenHR":1,"R":1,"Site_Name":"North district Jeremy's Run Trail","Project":"VEGMAP","S":3,"UTMY_N":4292255.00008,"id":"a72g3lay06la","oneHR":19,"UTMX_E":732632.0,"SiteVisitI":"2001-07-18_SHNP554"},"type":"Feature","geometry":{"type":"Point","coordinates":[-78.3231320417134,38.7483587037758]}},{"properties":{"tons":0.430000000075,"AvgLitterD":1.401530496,"sDate":"2001/07/18 00:00:00 +0000","SiteID":"SHNP555","AvgDuffDep":0.730000000075,"hundredHR":1,"tenHR":3,"R":0,"Site_Name":"North district Jeremy's Run Trail","Project":"VEGMAP","S":5,"UTMY_N":4292000.00008,"id":"a72g3lbg1io0","oneHR":21,"UTMX_E":733297.0,"SiteVisitI":"2001-07-18_SHNP555"},"type":"Feature","geometry":{"type":"Point","coordinates":[-78.315573783005,38.7458878066014]}},{"properties":{"tons":0.7875,"AvgLitterD":4.20236592,"sDate":"2001/07/19 00:00:00 +0000","SiteID":"SHNP556","AvgDuffDep":1.19250000007,"hundredHR":5,"tenHR":5,"R":3,"Site_Name":"Central district Red Gate Fire Road","Project":"VEGMAP","S":5,"UTMY_N":4270079.00008,"id":"a72g3l9lfrek","oneHR":13,"UTMX_E":724060.0,"SiteVisitI":"2001-07-19_SHNP556"},"type":"Feature","geometry":{"type":"Point","coordinates":[-78.4288248717565,38.5509297495695]}},{"properties":{"tons":0.75,"AvgLitterD":3.81428832,"sDate":"2001/07/19 00:00:00 +0000","SiteID":"SHNP557","AvgDuffDep":1.4625,"hundredHR":3,"tenHR":10,"R":2,"Site_Name":"Central district Red Gate Fire Rd","Project":"VEGMAP","S":2,"UTMY_N":4269560.00008,"id":"a72g3l0tkk8t","oneHR":40,"UTMX_E":724628.0,"SiteVisitI":"2001-07-19_SHNP557"},"type":"Feature","geometry":{"type":"Point","coordinates":[-78.4224798821391,38.5461139458854]}},{"properties":{"tons":0.675,"AvgLitterD":4.882067424,"sDate":"2001/07/24 00:00:00 +0000","SiteID":"SHNP558","AvgDuffDep":1.025,"hundredHR":4,"tenHR":12,"R":1,"Site_Name":"South district Rocky Mountain Trail","Project":"VEGMAP","S":2,"UTMY_N":4242476.00008,"id":"a72g3l42bgbm","oneHR":66,"UTMX_E":706531.0,"SiteVisitI":"2001-07-24_SHNP558"},"type":"Feature","geometry":{"type":"Point","coordinates":[-78.6379261602594,38.3066218139461]}},{"properties":{"tons":0.7,"AvgLitterD":6.334376256,"sDate":"2001/07/24 00:00:00 +0000","SiteID":"SHNP559","AvgDuffDep":0.825,"hundredHR":8,"tenHR":8,"R":1,"Site_Name":"South district Rocky Mt Trail","Project":"VEGMAP","S":3,"UTMY_N":4242095.00008,"id":"a72g3ld442m1","oneHR":16,"UTMX_E":706249.0,"SiteVisitI":"2001-07-24_SHNP559"},"type":"Feature","geometry":{"type":"Point","coordinates":[-78.6412600053492,38.3032558796362]}},{"properties":{"tons":0.75,"AvgLitterD":3.7365564,"sDate":"2001/07/25 00:00:00 +0000","SiteID":"SHNP560","AvgDuffDep":0.7875,"hundredHR":3,"tenHR":10,"R":2,"Site_Name":"South district Black Rock Trail","Project":"VEGMAP","S":0,"UTMY_N":4232165.00008,"id":"a72g3l6v6ub6","oneHR":39,"UTMX_E":697732.0,"SiteVisitI":"2001-07-25_SHNP560"},"type":"Feature","geometry":{"type":"Point","coordinates":[-78.7413636284997,38.2157493033532]}},{"properties":{"tons":0.775,"AvgLitterD":2.526201264,"sDate":"2001/07/25 00:00:00 +0000","SiteID":"SHNP561","AvgDuffDep":0.325,"hundredHR":2,"tenHR":7,"R":1,"Site_Name":"South district Black Rock/AT","Project":"VEGMAP","S":0,"UTMY_N":4232955.00008,"id":"a72g3l4j95m8","oneHR":26,"UTMX_E":698054.0,"SiteVisitI":"2001-07-25_SHNP561"},"type":"Feature","geometry":{"type":"Point","coordinates":[-78.7374677436507,38.2227928535975]}},{"properties":{"tons":0.9375,"AvgLitterD":1.809549744,"sDate":"2001/07/26 00:00:00 +0000","SiteID":"SHNP562","AvgDuffDep":0.9625,"hundredHR":2,"tenHR":2,"R":0,"Site_Name":"South district Patterson Trail","Project":"VEGMAP","S":1,"UTMY_N":4237812.00008,"id":"a72g3la4gina","oneHR":33,"UTMX_E":703762.0,"SiteVisitI":"2001-07-26_SHNP562"},"type":"Feature","geometry":{"type":"Point","coordinates":[-78.6709137702657,38.2652558209855]}},{"properties":{"tons":1.23500000238,"AvgLitterD":0.0,"sDate":"2001/07/26 00:00:00 +0000","SiteID":"SHNP563","AvgDuffDep":0.780000000075,"hundredHR":0,"tenHR":0,"R":0,"Site_Name":"None","Project":"VEGMAP","S":0,"UTMY_N":4238223.00008,"id":"a72g3lczg1k8","oneHR":0,"UTMX_E":704897.0,"SiteVisitI":"2001-07-26_SHNP563"},"type":"Feature","geometry":{"type":"Point","coordinates":[-78.6578313140441,38.2686986894229]}},{"properties":{"tons":0.8875,"AvgLitterD":1.717803264,"sDate":"2001/08/01 00:00:00 +0000","SiteID":"SHNP567","AvgDuffDep":0.130000000075,"hundredHR":2,"tenHR":2,"R":2,"Site_Name":"Central district Old Rag","Project":"VEGMAP","S":0,"UTMY_N":4270253.00008,"id":"a72g3lf1xpmy","oneHR":14,"UTMX_E":734389.0,"SiteVisitI":"2001-08-01_SHNP567"},"type":"Feature","geometry":{"type":"Point","coordinates":[-78.3103556360839,38.5498338672346]}},{"properties":{"tons":1.33000000007,"AvgLitterD":1.30202712,"sDate":"2001/08/01 00:00:00 +0000","SiteID":"SHNP568","AvgDuffDep":0.0400000002235,"hundredHR":0,"tenHR":5,"R":2,"Site_Name":"Central district Old Rag","Project":"VEGMAP","S":2,"UTMY_N":4270463.00008,"id":"a72g3l84jz2x","oneHR":48,"UTMX_E":734440.0,"SiteVisitI":"2001-08-01_SHNP568"},"type":"Feature","geometry":{"type":"Point","coordinates":[-78.3097005063973,38.5517108645836]}},{"properties":{"tons":0.977499997616,"AvgLitterD":5.575625184,"sDate":"2001/08/02 00:00:00 +0000","SiteID":"SHNP569","AvgDuffDep":1.15,"hundredHR":4,"tenHR":17,"R":1,"Site_Name":"North district Jeremy's Run","Project":"VEGMAP","S":8,"UTMY_N":4286924.00008,"id":"a72g3l5thu3x","oneHR":31,"UTMX_E":731633.0,"SiteVisitI":"2001-08-02_SHNP569"},"type":"Feature","geometry":{"type":"Point","coordinates":[-78.3363993341027,38.70063155699]}},{"properties":{"tons":0.0875,"AvgLitterD":1.104072624,"sDate":"2001/08/02 00:00:00 +0000","SiteID":"SHNP570","AvgDuffDep":0.225,"hundredHR":1,"tenHR":2,"R":0,"Site_Name":"North district Jeremy's Run","Project":"VEGMAP","S":4,"UTMY_N":4287034.00008,"id":"a72g3l1wwtww","oneHR":7,"UTMX_E":730898.0,"SiteVisitI":"2001-08-02_SHNP570"},"type":"Feature","geometry":{"type":"Point","coordinates":[-78.3448061809513,38.7018139480873]}},{"properties":{"tons":0.6875,"AvgLitterD":1.957112352,"sDate":"2001/08/02 00:00:00 +0000","SiteID":"SHNP571","AvgDuffDep":1.5875,"hundredHR":1,"tenHR":6,"R":4,"Site_Name":"North district Jeremy's Run","Project":"VEGMAP","S":5,"UTMY_N":4286921.00008,"id":"a72g3lg3bfsb","oneHR":10,"UTMX_E":730859.0,"SiteVisitI":"2001-08-02_SHNP571"},"type":"Feature","geometry":{"type":"Point","coordinates":[-78.3452918460289,38.7008068876025]}},{"properties":{"tons":0.489999999106,"AvgLitterD":3.359057232,"sDate":"2001/08/07 00:00:00 +0000","SiteID":"SHNP572","AvgDuffDep":1.0025000006,"hundredHR":1,"tenHR":16,"R":0,"Site_Name":"Central district Pocosin","Project":"VEGMAP","S":4,"UTMY_N":4253433.00008,"id":"a72g3laejuv1","oneHR":23,"UTMX_E":720574.0,"SiteVisitI":"2001-08-07_SHNP572"},"type":"Feature","geometry":{"type":"Point","coordinates":[-78.4740301250242,38.4019311718506]}},{"properties":{"tons":0.178571428571,"AvgLitterD":3.741612816,"sDate":"2001/08/07 00:00:00 +0000","SiteID":"SHNP574","AvgDuffDep":0.261904761905,"hundredHR":5,"tenHR":3,"R":3,"Site_Name":"Central district Pocosin area","Project":"VEGMAP","S":3,"UTMY_N":4254146.00008,"id":"a72g3leuvm7y","oneHR":2,"UTMX_E":720005.0,"SiteVisitI":"2001-08-07_SHNP574"},"type":"Feature","geometry":{"type":"Point","coordinates":[-78.4803173510448,38.4084909033245]}},{"properties":{"tons":1.3875,"AvgLitterD":4.528248672,"sDate":"2001/08/14 00:00:00 +0000","SiteID":"SHNP579","AvgDuffDep":0.55,"hundredHR":7,"tenHR":1,"R":0,"Site_Name":"North district","Project":"VEGMAP","S":2,"UTMY_N":4298050.00008,"id":"a72g3l8qx3li","oneHR":9,"UTMX_E":732162.0,"SiteVisitI":"2001-08-14_SHNP579"},"type":"Feature","geometry":{"type":"Point","coordinates":[-78.3265868160085,38.8006482894317]}},{"properties":{"tons":0.8125,"AvgLitterD":2.818202304,"sDate":"2001/08/14 00:00:00 +0000","SiteID":"SHNP581","AvgDuffDep":0.725,"hundredHR":4,"tenHR":2,"R":1,"Site_Name":"North district","Project":"VEGMAP","S":0,"UTMY_N":4297415.00008,"id":"a72g3l8g90sf","oneHR":6,"UTMX_E":732140.0,"SiteVisitI":"2001-08-14_SHNP581"},"type":"Feature","geometry":{"type":"Point","coordinates":[-78.3270535772233,38.7949379149719]}},{"properties":{"tons":1.7,"AvgLitterD":1.481427456,"sDate":"2001/08/15 00:00:00 +0000","SiteID":"SHNP582","AvgDuffDep":0.5,"hundredHR":1,"tenHR":3,"R":3,"Site_Name":"North district","Project":"VEGMAP","S":6,"UTMY_N":4287479.00008,"id":"a72g3lalmbop","oneHR":9,"UTMX_E":728715.0,"SiteVisitI":"2001-08-15_SHNP582"},"type":"Feature","geometry":{"type":"Point","coordinates":[-78.3697378799244,38.7063871224423]}},{"properties":{"tons":1.125,"AvgLitterD":1.727129232,"sDate":"2001/08/15 00:00:00 +0000","SiteID":"SHNP583","AvgDuffDep":0.4,"hundredHR":2,"tenHR":1,"R":6,"Site_Name":"North district","Project":"VEGMAP","S":2,"UTMY_N":4287803.00008,"id":"a72g3leoikei","oneHR":2,"UTMX_E":730070.0,"SiteVisitI":"2001-08-15_SHNP583"},"type":"Feature","geometry":{"type":"Point","coordinates":[-78.3540629617248,38.7089523761608]}},{"properties":{"tons":0.8875,"AvgLitterD":2.2189332,"sDate":"2001/08/15 00:00:00 +0000","SiteID":"SHNP584","AvgDuffDep":0.6625,"hundredHR":2,"tenHR":5,"R":5,"Site_Name":"North district","Project":"VEGMAP","S":0,"UTMY_N":4287913.00008,"id":"a72g3lc9n1ef","oneHR":2,"UTMX_E":730163.0,"SiteVisitI":"2001-08-15_SHNP584"},"type":"Feature","geometry":{"type":"Point","coordinates":[-78.3529579285278,38.7099184143378]}},{"properties":{"tons":1.95,"AvgLitterD":7.579567584,"sDate":"2001/08/16 00:00:00 +0000","SiteID":"SHNP453","AvgDuffDep":1.1375,"hundredHR":7,"tenHR":17,"R":12,"Site_Name":"SHNP509","Project":"VEGMAP","S":1,"UTMY_N":4288628.0,"id":"a72g3l835kd2","oneHR":21,"UTMX_E":733311.0,"SiteVisitI":"2001-08-16_SHNP453"},"type":"Feature","geometry":{"type":"Point","coordinates":[-78.3165494810836,38.7155298250828]}},{"properties":{"tons":0.860000002384,"AvgLitterD":3.347212368,"sDate":"2001/08/21 00:00:00 +0000","SiteID":"SHNP585","AvgDuffDep":0.809999996424,"hundredHR":4,"tenHR":4,"R":0,"Site_Name":"South District Treyfoot Area","Project":"VEGMAP","S":8,"UTMY_N":4233044.00008,"id":"a72g3l6szdaj","oneHR":5,"UTMX_E":696826.0,"SiteVisitI":"2001-08-21_SHNP585"},"type":"Feature","geometry":{"type":"Point","coordinates":[-78.7514614973874,38.2238638501401]}},{"properties":{"tons":0.0,"AvgLitterD":4.025852304,"sDate":"2001/08/21 00:00:00 +0000","SiteID":"SHNP586","AvgDuffDep":0.0,"hundredHR":3,"tenHR":12,"R":5,"Site_Name":"South District Treyfoot Area","Project":"VEGMAP","S":1,"UTMY_N":4233121.00008,"id":"a72g3l7dcjr5","oneHR":15,"UTMX_E":697646.0,"SiteVisitI":"2001-08-21_SHNP586"},"type":"Feature","geometry":{"type":"Point","coordinates":[-78.7420790842341,38.2243774990559]}},{"properties":{"tons":0.654999998212,"AvgLitterD":4.691348352,"sDate":"2001/08/21 00:00:00 +0000","SiteID":"SHNP587","AvgDuffDep":0.519999995083,"hundredHR":6,"tenHR":6,"R":0,"Site_Name":"South District Ivy Creek/AT","Project":"VEGMAP","S":2,"UTMY_N":4238059.00008,"id":"a72g3l0oyv5y","oneHR":10,"UTMX_E":705086.0,"SiteVisitI":"2001-08-21_SHNP587"},"type":"Feature","geometry":{"type":"Point","coordinates":[-78.6557200289024,38.2671787477583]}},{"properties":{"tons":0.469999998808,"AvgLitterD":3.324467808,"sDate":"2001/08/22 00:00:00 +0000","SiteID":"SHNP588","AvgDuffDep":0.604999993742,"hundredHR":3,"tenHR":9,"R":0,"Site_Name":"South District Swift Run Gap Area","Project":"VEGMAP","S":2,"UTMY_N":4246519.00008,"id":"a72g3lcml96n","oneHR":9,"UTMX_E":717407.0,"SiteVisitI":"2001-08-22_SHNP588"},"type":"Feature","geometry":{"type":"Point","coordinates":[-78.512399526059,38.3404546391087]}},{"properties":{"tons":0.530000001192,"AvgLitterD":0.0,"sDate":"2001/08/22 00:00:00 +0000","SiteID":"SHNP589","AvgDuffDep":0.72499999851,"hundredHR":0,"tenHR":0,"R":0,"Site_Name":"South District Swift Run Gap","Project":"VEGMAP","S":0,"UTMY_N":4246632.00008,"id":"a72g3lg044ht","oneHR":0,"UTMX_E":717468.0,"SiteVisitI":"2001-08-22_SHNP589"},"type":"Feature","geometry":{"type":"Point","coordinates":[-78.5116673389692,38.3414572708971]}},{"properties":{"tons":0.309999993443,"AvgLitterD":0.0,"sDate":"2001/08/22 00:00:00 +0000","SiteID":"SHNP590","AvgDuffDep":0.340000009537,"hundredHR":0,"tenHR":0,"R":0,"Site_Name":"South District North Headwaters of Swift Run","Project":"VEGMAP","S":0,"UTMY_N":4248566.00008,"id":"a72g3l1fpw3y","oneHR":0,"UTMX_E":715290.0,"SiteVisitI":"2001-08-22_SHNP590"},"type":"Feature","geometry":{"type":"Point","coordinates":[-78.5359768818776,38.359397049661]}},{"properties":{"tons":1.02999999449,"AvgLitterD":2.392234176,"sDate":"2001/08/28 00:00:00 +0000","SiteID":"SHNP592","AvgDuffDep":1.16499999985,"hundredHR":3,"tenHR":3,"R":1,"Site_Name":"South District East of Swift Run Gap","Project":"VEGMAP","S":1,"UTMY_N":4246887.00008,"id":"a72g3l0g3e63","oneHR":5,"UTMX_E":716955.0,"SiteVisitI":"2001-08-28_SHNP592"},"type":"Feature","geometry":{"type":"Point","coordinates":[-78.5174537234127,38.3438776377913]}},{"properties":{"tons":0.0,"AvgLitterD":2.904929616,"sDate":"2001/08/28 00:00:00 +0000","SiteID":"SHNP593","AvgDuffDep":0.0,"hundredHR":2,"tenHR":8,"R":2,"Site_Name":"South District East of Swift Run","Project":"VEGMAP","S":9,"UTMY_N":4246982.00008,"id":"a72g3l1dir7j","oneHR":9,"UTMX_E":715679.0,"SiteVisitI":"2001-08-28_SHNP593"},"type":"Feature","geometry":{"type":"Point","coordinates":[-78.5320129730288,38.3450411308948]}},{"properties":{"tons":0.940000000596,"AvgLitterD":1.68610056,"sDate":"2001/08/28 00:00:00 +0000","SiteID":"SHNP594","AvgDuffDep":0.514999997988,"hundredHR":1,"tenHR":5,"R":2,"Site_Name":"South District East of Swift Run Gap","Project":"VEGMAP","S":2,"UTMY_N":4248404.00008,"id":"a72g3l4eo1ty","oneHR":20,"UTMX_E":715383.0,"SiteVisitI":"2001-08-28_SHNP594"},"type":"Feature","geometry":{"type":"Point","coordinates":[-78.534962887348,38.3579160366058]}},{"properties":{"tons":0.860000002384,"AvgLitterD":0.436681584,"sDate":"2001/08/29 00:00:00 +0000","SiteID":"SHNP595","AvgDuffDep":0.339999997616,"hundredHR":0,"tenHR":2,"R":2,"Site_Name":"South District Turk's Gap","Project":"VEGMAP","S":0,"UTMY_N":4223903.00008,"id":"a72g3lc16z97","oneHR":5,"UTMX_E":692753.0,"SiteVisitI":"2001-08-29_SHNP595"},"type":"Feature","geometry":{"type":"Point","coordinates":[-78.8004371514837,38.1424223514349]}},{"properties":{"tons":0.0,"AvgLitterD":4.795712592,"sDate":"2001/08/29 00:00:00 +0000","SiteID":"SHNP596","AvgDuffDep":0.0,"hundredHR":6,"tenHR":6,"R":2,"Site_Name":"South District Turk's Gap","Project":"VEGMAP","S":3,"UTMY_N":4223020.00008,"id":"a72g3l20vlk0","oneHR":7,"UTMX_E":692330.0,"SiteVisitI":"2001-08-29_SHNP596"},"type":"Feature","geometry":{"type":"Point","coordinates":[-78.8054991551181,38.1345602716158]}},{"properties":{"tons":1.6,"AvgLitterD":1.639675584,"sDate":"2001/08/29 00:00:00 +0000","SiteID":"SHNP597","AvgDuffDep":0.9,"hundredHR":2,"tenHR":2,"R":1,"Site_Name":"South District Turk's Gap","Project":"VEGMAP","S":0,"UTMY_N":4223343.00008,"id":"a72g3l6inztp","oneHR":10,"UTMX_E":692373.0,"SiteVisitI":"2001-08-29_SHNP597"},"type":"Feature","geometry":{"type":"Point","coordinates":[-78.8049216777849,38.1374600644507]}},{"properties":{"tons":0.545000010729,"AvgLitterD":0.0,"sDate":"2001/08/30 00:00:00 +0000","SiteID":"SHNP598","AvgDuffDep":0.955000007153,"hundredHR":0,"tenHR":0,"R":0,"Site_Name":"South District Near Dooms","Project":"VEGMAP","S":0,"UTMY_N":4219664.00008,"id":"a72g3lajmvl2","oneHR":0,"UTMX_E":690477.0,"SiteVisitI":"2001-08-30_SHNP598"},"type":"Feature","geometry":{"type":"Point","coordinates":[-78.8275240604169,38.1047283991654]}},{"properties":{"tons":0.2,"AvgLitterD":2.063194656,"sDate":"2001/08/30 00:00:00 +0000","SiteID":"SHNP599","AvgDuffDep":0.125,"hundredHR":2,"tenHR":3,"R":1,"Site_Name":"South District Paine Run","Project":"VEGMAP","S":8,"UTMY_N":4229640.00008,"id":"a72g3lapb0o3","oneHR":9,"UTMX_E":693432.0,"SiteVisitI":"2001-08-30_SHNP599"},"type":"Feature","geometry":{"type":"Point","coordinates":[-78.7911347904435,38.1939440694264]}},{"properties":{"tons":0.0,"AvgLitterD":2.76617616,"sDate":"2001/09/05 00:00:00 +0000","SiteID":"SHNP600","AvgDuffDep":0.0,"hundredHR":3,"tenHR":5,"R":1,"Site_Name":"Central District Camp Hoover","Project":"VEGMAP","S":3,"UTMY_N":4262969.00008,"id":"a72g3l5mm88n","oneHR":5,"UTMX_E":724352.0,"SiteVisitI":"2001-09-05_SHNP600"},"type":"Feature","geometry":{"type":"Point","coordinates":[-78.4277577609417,38.4868448733353]}},{"properties":{"tons":1.32000000477,"AvgLitterD":2.25247968,"sDate":"2001/09/05 00:00:00 +0000","SiteID":"SHNP601","AvgDuffDep":0.270000000298,"hundredHR":2,"tenHR":5,"R":1,"Site_Name":"Central District Camp Hoover","Project":"VEGMAP","S":2,"UTMY_N":4263314.00008,"id":"a72g3l5xig36","oneHR":21,"UTMX_E":724999.0,"SiteVisitI":"2001-09-05_SHNP601"},"type":"Feature","geometry":{"type":"Point","coordinates":[-78.4202359169907,38.4897878163666]}},{"properties":{"tons":0.275,"AvgLitterD":2.039458368,"sDate":"2001/09/05 00:00:00 +0000","SiteID":"SHNP602","AvgDuffDep":0.220000000298,"hundredHR":2,"tenHR":4,"R":4,"Site_Name":"Central District Mill Prong Trail","Project":"VEGMAP","S":1,"UTMY_N":4264846.00008,"id":"a72g3l9rspsz","oneHR":0,"UTMX_E":724511.0,"SiteVisitI":"2001-09-05_SHNP602"},"type":"Feature","geometry":{"type":"Point","coordinates":[-78.425334718474,38.503703504682]}},{"properties":{"tons":0.784999997914,"AvgLitterD":3.468552384,"sDate":"2001/09/06 00:00:00 +0000","SiteID":"SHNP603","AvgDuffDep":0.030000000447,"hundredHR":2,"tenHR":12,"R":3,"Site_Name":"Central District Mary's Rock","Project":"VEGMAP","S":3,"UTMY_N":4280628.00008,"id":"a72g3l6kb83j","oneHR":24,"UTMX_E":733149.0,"SiteVisitI":"2001-09-06_SHNP603"},"type":"Feature","geometry":{"type":"Point","coordinates":[-78.3210987601529,38.643556802043]}},{"properties":{"tons":1.6650000006,"AvgLitterD":2.923926096,"sDate":"2001/09/06 00:00:00 +0000","SiteID":"SHNP604","AvgDuffDep":0.190000000596,"hundredHR":3,"tenHR":3,"R":10,"Site_Name":"Central District Mary's Rock","Project":"VEGMAP","S":4,"UTMY_N":4280706.00008,"id":"a72g3ldvat7x","oneHR":6,"UTMX_E":733545.0,"SiteVisitI":"2001-09-06_SHNP604"},"type":"Feature","geometry":{"type":"Point","coordinates":[-78.3165271109878,38.644154709464]}},{"properties":{"tons":0.775,"AvgLitterD":2.543298096,"sDate":"2001/09/06 00:00:00 +0000","SiteID":"SHNP605","AvgDuffDep":0.085000000149,"hundredHR":2,"tenHR":8,"R":2,"Site_Name":"Central District Mary's Rock","Project":"VEGMAP","S":0,"UTMY_N":4280688.00008,"id":"a72g3l2zfoez","oneHR":3,"UTMX_E":733411.0,"SiteVisitI":"2001-09-06_SHNP605"},"type":"Feature","geometry":{"type":"Point","coordinates":[-78.3180712720982,38.6440279699387]}},{"properties":{"tons":0.354545460845,"AvgLitterD":1.686696528,"sDate":"2002/06/11 00:00:00 +0000","SiteID":"SHNP456","AvgDuffDep":1.59545455263,"hundredHR":0,"tenHR":9,"R":1,"Site_Name":"None","Project":"VEGMAP","S":1,"UTMY_N":4219381.0,"id":"a72g3ldx4mx3","oneHR":30,"UTMX_E":692823.0,"SiteVisitI":"2002-06-11_SHNP456"},"type":"Feature","geometry":{"type":"Point","coordinates":[-78.8008613754846,38.1016820181141]}},{"properties":{"tons":0.577272734859,"AvgLitterD":2.720468208,"sDate":"2002/06/11 00:00:00 +0000","SiteID":"SHNP611","AvgDuffDep":2.40909092806,"hundredHR":3,"tenHR":4,"R":2,"Site_Name":"None","Project":"VEGMAP","S":2,"UTMY_N":4219555.00008,"id":"a72g3le7qaoz","oneHR":17,"UTMX_E":692960.0,"SiteVisitI":"2002-06-11_SHNP611"},"type":"Feature","geometry":{"type":"Point","coordinates":[-78.7992529318085,38.1032198293332]}},{"properties":{"tons":0.545454550873,"AvgLitterD":2.391568368,"sDate":"2002/06/12 00:00:00 +0000","SiteID":"SHNP613","AvgDuffDep":1.62727273594,"hundredHR":1,"tenHR":9,"R":3,"Site_Name":"None","Project":"VEGMAP","S":3,"UTMY_N":4236436.00008,"id":"a72g3l5ut8o6","oneHR":22,"UTMX_E":696019.0,"SiteVisitI":"2002-06-12_SHNP613"},"type":"Feature","geometry":{"type":"Point","coordinates":[-78.7597365331036,38.254587142878]}},{"properties":{"tons":0.34090909836,"AvgLitterD":4.25972784,"sDate":"2002/06/12 00:00:00 +0000","SiteID":"SHNP614","AvgDuffDep":1.43636363948,"hundredHR":4,"tenHR":10,"R":0,"Site_Name":"None","Project":"VEGMAP","S":1,"UTMY_N":4235759.00008,"id":"a72g3lg65hn0","oneHR":36,"UTMX_E":697171.0,"SiteVisitI":"2002-06-12_SHNP614"},"type":"Feature","geometry":{"type":"Point","coordinates":[-78.7467682727286,38.248238380009]}},{"properties":{"tons":0.186363638463,"AvgLitterD":0.0,"sDate":"2002/06/13 00:00:00 +0000","SiteID":"SHNP615","AvgDuffDep":1.59545452554,"hundredHR":0,"tenHR":0,"R":0,"Site_Name":"None","Project":"VEGMAP","S":0,"UTMY_N":4243512.00008,"id":"a72g3lggd9ts","oneHR":0,"UTMX_E":707084.0,"SiteVisitI":"2002-06-13_SHNP615"},"type":"Feature","geometry":{"type":"Point","coordinates":[-78.6313029432842,38.3158231895833]}},{"properties":{"tons":0.159090912816,"AvgLitterD":0.0,"sDate":"2002/06/13 00:00:00 +0000","SiteID":"SHNP616","AvgDuffDep":0.981818178838,"hundredHR":0,"tenHR":0,"R":0,"Site_Name":"None","Project":"VEGMAP","S":0,"UTMY_N":4250021.00008,"id":"a72g3lfd73az","oneHR":0,"UTMX_E":712734.0,"SiteVisitI":"2002-06-13_SHNP616"},"type":"Feature","geometry":{"type":"Point","coordinates":[-78.5647668449935,38.3731090917354]}},{"properties":{"tons":0.572727275166,"AvgLitterD":2.018948688,"sDate":"2002/06/18 00:00:00 +0000","SiteID":"SHNP617","AvgDuffDep":1.44545454295,"hundredHR":2,"tenHR":4,"R":0,"Site_Name":"None","Project":"VEGMAP","S":1,"UTMY_N":4251238.00008,"id":"a72g3l0nn6im","oneHR":21,"UTMX_E":716254.0,"SiteVisitI":"2002-06-18_SHNP617"},"type":"Feature","geometry":{"type":"Point","coordinates":[-78.5241331546592,38.3832231471506]}},{"properties":{"tons":1.19999999147,"AvgLitterD":3.11907768,"sDate":"2002/06/18 00:00:00 +0000","SiteID":"SHNP618","AvgDuffDep":2.28181815859,"hundredHR":2,"tenHR":10,"R":2,"Site_Name":"None","Project":"VEGMAP","S":1,"UTMY_N":4257947.00008,"id":"a72g3l3eugro","oneHR":33,"UTMX_E":720944.0,"SiteVisitI":"2002-06-18_SHNP618"},"type":"Feature","geometry":{"type":"Point","coordinates":[-78.4683776884308,38.4424813213094]}},{"properties":{"tons":0.281818187372,"AvgLitterD":2.292721488,"sDate":"2002/06/18 00:00:00 +0000","SiteID":"SHNP619","AvgDuffDep":1.61363635822,"hundredHR":1,"tenHR":9,"R":4,"Site_Name":"None","Project":"VEGMAP","S":2,"UTMY_N":4257911.00008,"id":"a72g3lfit7oz","oneHR":8,"UTMX_E":720508.0,"SiteVisitI":"2002-06-18_SHNP619"},"type":"Feature","geometry":{"type":"Point","coordinates":[-78.4733802710034,38.4422649998274]}},{"properties":{"tons":0.145454547283,"AvgLitterD":0.834830112,"sDate":"2002/06/19 00:00:00 +0000","SiteID":"SHNP620","AvgDuffDep":0.572727271779,"hundredHR":1,"tenHR":1,"R":0,"Site_Name":"None","Project":"VEGMAP","S":2,"UTMY_N":4264625.00008,"id":"a72g3l0i68s5","oneHR":1,"UTMX_E":723467.0,"SiteVisitI":"2002-06-19_SHNP620"},"type":"Feature","geometry":{"type":"Point","coordinates":[-78.4373666131211,38.5019763388684]}},{"properties":{"tons":1.15000000461,"AvgLitterD":5.992914528,"sDate":"2002/06/19 00:00:00 +0000","SiteID":"SHNP621","AvgDuffDep":1.27727272158,"hundredHR":8,"tenHR":4,"R":3,"Site_Name":"None","Project":"VEGMAP","S":3,"UTMY_N":4261313.00008,"id":"a72g3l9x4ovc","oneHR":38,"UTMX_E":724613.0,"SiteVisitI":"2002-06-19_SHNP621"},"type":"Feature","geometry":{"type":"Point","coordinates":[-78.425298886637,38.4718701060548]}},{"properties":{"tons":0.33181818744,"AvgLitterD":3.536427552,"sDate":"2002/06/20 00:00:00 +0000","SiteID":"SHNP622","AvgDuffDep":0.831818181005,"hundredHR":1,"tenHR":16,"R":1,"Site_Name":"None","Project":"VEGMAP","S":3,"UTMY_N":4273487.00008,"id":"a72g3l4aon76","oneHR":44,"UTMX_E":728166.0,"SiteVisitI":"2002-06-20_SHNP622"},"type":"Feature","geometry":{"type":"Point","coordinates":[-78.3806378812605,38.5805666119302]}},{"properties":{"tons":0.204545454884,"AvgLitterD":1.256780112,"sDate":"2002/06/20 00:00:00 +0000","SiteID":"SHNP623","AvgDuffDep":0.218181815676,"hundredHR":0,"tenHR":6,"R":2,"Site_Name":"None","Project":"VEGMAP","S":2,"UTMY_N":4273482.00008,"id":"a72g3l1p5uyk","oneHR":23,"UTMX_E":728630.0,"SiteVisitI":"2002-06-20_SHNP623"},"type":"Feature","geometry":{"type":"Point","coordinates":[-78.3753179462911,38.5804023053213]}},{"properties":{"tons":0.222727275369,"AvgLitterD":0.233530992,"sDate":"2002/06/20 00:00:00 +0000","SiteID":"SHNP624","AvgDuffDep":0.286363642324,"hundredHR":0,"tenHR":1,"R":1,"Site_Name":"None","Project":"VEGMAP","S":1,"UTMY_N":4272940.00008,"id":"a72g3la2fscs","oneHR":0,"UTMX_E":728220.0,"SiteVisitI":"2002-06-20_SHNP624"},"type":"Feature","geometry":{"type":"Point","coordinates":[-78.3801975589776,38.5756283372412]}},{"properties":{"tons":0.813636356118,"AvgLitterD":9.827135184,"sDate":"2002/06/25 00:00:00 +0000","SiteID":"SHNP625","AvgDuffDep":0.886363636025,"hundredHR":11,"tenHR":17,"R":5,"Site_Name":"None","Project":"VEGMAP","S":2,"UTMY_N":4293145.00008,"id":"a72g3l9mdxrw","oneHR":36,"UTMX_E":736972.0,"SiteVisitI":"2002-06-25_SHNP625"},"type":"Feature","geometry":{"type":"Point","coordinates":[-78.272939265209,38.7552161401478]}},{"properties":{"tons":0.668181820688,"AvgLitterD":8.030077488,"sDate":"2002/06/25 00:00:00 +0000","SiteID":"SHNP626","AvgDuffDep":0.636363635686,"hundredHR":9,"tenHR":14,"R":2,"Site_Name":"None","Project":"VEGMAP","S":7,"UTMY_N":4297346.00008,"id":"a72g3l2xlu9i","oneHR":15,"UTMX_E":744712.0,"SiteVisitI":"2002-06-25_SHNP626"},"type":"Feature","geometry":{"type":"Point","coordinates":[-78.1824779515946,38.7909172199801]}},{"properties":{"tons":0.104545456442,"AvgLitterD":2.858174064,"sDate":"2002/06/26 00:00:00 +0000","SiteID":"SHNP627","AvgDuffDep":1.71818181331,"hundredHR":1,"tenHR":12,"R":4,"Site_Name":"None","Project":"VEGMAP","S":4,"UTMY_N":4291484.00008,"id":"a72g3lc5d79j","oneHR":13,"UTMX_E":732129.0,"SiteVisitI":"2002-06-26_SHNP627"},"type":"Feature","geometry":{"type":"Point","coordinates":[-78.3291729035813,38.7415505717]}},{"properties":{"tons":0.113636365668,"AvgLitterD":0.97254528,"sDate":"2002/06/26 00:00:00 +0000","SiteID":"SHNP628","AvgDuffDep":1.10909089311,"hundredHR":0,"tenHR":5,"R":1,"Site_Name":"None","Project":"VEGMAP","S":0,"UTMY_N":4288457.00008,"id":"a72g3lexzbcu","oneHR":21,"UTMX_E":730604.0,"SiteVisitI":"2002-06-26_SHNP628"},"type":"Feature","geometry":{"type":"Point","coordinates":[-78.3477100721889,38.7147006777477]}},{"properties":{"tons":0.186363641173,"AvgLitterD":0.0,"sDate":"2002/06/27 00:00:00 +0000","SiteID":"SHNP629","AvgDuffDep":0.895454548299,"hundredHR":0,"tenHR":0,"R":0,"Site_Name":"None","Project":"VEGMAP","S":0,"UTMY_N":4275081.00008,"id":"a72g3lg152wp","oneHR":0,"UTMX_E":733620.0,"SiteVisitI":"2002-06-27_SHNP629"},"type":"Feature","geometry":{"type":"Point","coordinates":[-78.3175542803658,38.5934984682638]}},{"properties":{"tons":0.354545455426,"AvgLitterD":4.764149568,"sDate":"2002/06/27 00:00:00 +0000","SiteID":"SHNP630","AvgDuffDep":0.872727272185,"hundredHR":4,"tenHR":14,"R":0,"Site_Name":"None","Project":"VEGMAP","S":3,"UTMY_N":4273513.00008,"id":"a72g3l8nrla3","oneHR":14,"UTMX_E":734883.0,"SiteVisitI":"2002-06-27_SHNP630"},"type":"Feature","geometry":{"type":"Point","coordinates":[-78.3035955561101,38.5790501613621]}},{"properties":{"tons":0.209090912884,"AvgLitterD":5.088435312,"sDate":"2002/07/01 00:00:00 +0000","SiteID":"SHNP631","AvgDuffDep":1.18181817775,"hundredHR":5,"tenHR":11,"R":5,"Site_Name":"None","Project":"VEGMAP","S":0,"UTMY_N":4218989.1058,"id":"a72g3lgodbf5","oneHR":20,"UTMX_E":694763.61535,"SiteVisitI":"2002-07-01_SHNP631"},"type":"Feature","geometry":{"type":"Point","coordinates":[-78.7788508875355,38.0977364156722]}},{"properties":{"tons":1.40909090977,"AvgLitterD":1.193840304,"sDate":"2002/07/01 00:00:00 +0000","SiteID":"SHNP632","AvgDuffDep":1.95454545455,"hundredHR":1,"tenHR":2,"R":2,"Site_Name":"None","Project":"VEGMAP","S":3,"UTMY_N":4224396.61074,"id":"a72g3l21zwdn","oneHR":11,"UTMX_E":692930.493,"SiteVisitI":"2002-07-01_SHNP632"},"type":"Feature","geometry":{"type":"Point","coordinates":[-78.7982794384424,38.1468298757892]}},{"properties":{"tons":1.58181818439,"AvgLitterD":1.81092792,"sDate":"2002/07/02 00:00:00 +0000","SiteID":"SHNP633","AvgDuffDep":1.9772727354,"hundredHR":0,"tenHR":10,"R":2,"Site_Name":"None","Project":"VEGMAP","S":0,"UTMY_N":4225523.70328,"id":"a72g3lg0yoj7","oneHR":25,"UTMX_E":693244.41288,"SiteVisitI":"2002-07-02_SHNP633"},"type":"Feature","geometry":{"type":"Point","coordinates":[-78.794393621874,38.156913248685]}},{"properties":{"tons":0.777272734114,"AvgLitterD":1.307088192,"sDate":"2002/07/02 00:00:00 +0000","SiteID":"SHNP634","AvgDuffDep":1.69090908461,"hundredHR":0,"tenHR":6,"R":4,"Site_Name":"None","Project":"VEGMAP","S":1,"UTMY_N":4226110.03136,"id":"a72g3l2vaehq","oneHR":22,"UTMX_E":692796.27516,"SiteVisitI":"2002-07-02_SHNP634"},"type":"Feature","geometry":{"type":"Point","coordinates":[-78.7993462020411,38.1622896366175]}},{"properties":{"tons":0.609090913426,"AvgLitterD":0.0,"sDate":"2002/07/02 00:00:00 +0000","SiteID":"SHNP635","AvgDuffDep":1.53636362065,"hundredHR":0,"tenHR":0,"R":0,"Site_Name":"None","Project":"VEGMAP","S":0,"UTMY_N":4218859.3586,"id":"a72g3lc3jxcd","oneHR":0,"UTMX_E":692218.70836,"SiteVisitI":"2002-07-02_SHNP635"},"type":"Feature","geometry":{"type":"Point","coordinates":[-78.8078890588466,38.0971128038437]}},{"properties":{"tons":0.163636367091,"AvgLitterD":5.724794112,"sDate":"2002/07/16 00:00:00 +0000","SiteID":"SHNP636","AvgDuffDep":0.24090909179,"hundredHR":5,"tenHR":16,"R":2,"Site_Name":"None","Project":"VEGMAP","S":0,"UTMY_N":4279126.00008,"id":"a72g3l6zwqxf","oneHR":22,"UTMX_E":734368.0,"SiteVisitI":"2002-07-16_SHNP636"},"type":"Feature","geometry":{"type":"Point","coordinates":[-78.3076128815529,38.6297144100387]}},{"properties":{"tons":0.44090909714,"AvgLitterD":0.0,"sDate":"2002/07/16 00:00:00 +0000","SiteID":"SHNP637","AvgDuffDep":1.45454545455,"hundredHR":0,"tenHR":0,"R":0,"Site_Name":"None","Project":"VEGMAP","S":0,"UTMY_N":4278396.00008,"id":"a72g3lgddmjo","oneHR":0,"UTMX_E":734790.0,"SiteVisitI":"2002-07-16_SHNP637"},"type":"Feature","geometry":{"type":"Point","coordinates":[-78.3030163304074,38.6230313788254]}},{"properties":{"tons":0.213636364449,"AvgLitterD":0.0,"sDate":"2002/07/17 00:00:00 +0000","SiteID":"SHNP638","AvgDuffDep":0.309090911665,"hundredHR":0,"tenHR":0,"R":0,"Site_Name":"None","Project":"VEGMAP","S":0,"UTMY_N":4266059.00008,"id":"a72g3l6o7ug0","oneHR":0,"UTMX_E":724050.0,"SiteVisitI":"2002-07-17_SHNP638"},"type":"Feature","geometry":{"type":"Point","coordinates":[-78.430228112121,38.514740252199]}},{"properties":{"tons":0.104545457458,"AvgLitterD":0.841795488,"sDate":"2002/07/17 00:00:00 +0000","SiteID":"SHNP639","AvgDuffDep":0.486363637176,"hundredHR":0,"tenHR":4,"R":4,"Site_Name":"None","Project":"VEGMAP","S":0,"UTMY_N":4265065.00008,"id":"a72g3lckddme","oneHR":6,"UTMX_E":722435.0,"SiteVisitI":"2002-07-17_SHNP639"},"type":"Feature","geometry":{"type":"Point","coordinates":[-78.4490504716703,38.5061960162532]}},{"properties":{"tons":0.395454552025,"AvgLitterD":1.428893808,"sDate":"2002/07/17 00:00:00 +0000","SiteID":"SHNP640","AvgDuffDep":1.40000000325,"hundredHR":1,"tenHR":4,"R":1,"Site_Name":"None","Project":"VEGMAP","S":1,"UTMY_N":4275953.00008,"id":"a72g3lgv5ae7","oneHR":17,"UTMX_E":732005.0,"SiteVisitI":"2002-07-17_SHNP640"},"type":"Feature","geometry":{"type":"Point","coordinates":[-78.3357888289708,38.6017718316658]}},{"properties":{"tons":0.359090911055,"AvgLitterD":0.346974432,"sDate":"2002/07/18 00:00:00 +0000","SiteID":"SHNP641","AvgDuffDep":1.1636363654,"hundredHR":0,"tenHR":1,"R":0,"Site_Name":"None","Project":"VEGMAP","S":4,"UTMY_N":4270030.00008,"id":"a72g3ld0mfci","oneHR":7,"UTMX_E":730658.0,"SiteVisitI":"2002-07-18_SHNP641"},"type":"Feature","geometry":{"type":"Point","coordinates":[-78.3532002943557,38.5488018285438]}},{"properties":{"tons":0.186363640157,"AvgLitterD":1.823294256,"sDate":"2002/07/18 00:00:00 +0000","SiteID":"SHNP642","AvgDuffDep":1.21818181534,"hundredHR":2,"tenHR":3,"R":1,"Site_Name":"None","Project":"VEGMAP","S":0,"UTMY_N":4258395.00008,"id":"a72g3l98sscj","oneHR":14,"UTMX_E":729806.0,"SiteVisitI":"2002-07-18_SHNP642"},"type":"Feature","geometry":{"type":"Point","coordinates":[-78.3667857992829,38.4442773487714]}},{"properties":{"tons":0.163636364381,"AvgLitterD":4.74066936,"sDate":"2002/07/22 00:00:00 +0000","SiteID":"SHNP643","AvgDuffDep":0.922727269205,"hundredHR":5,"tenHR":10,"R":3,"Site_Name":"None","Project":"VEGMAP","S":0,"UTMY_N":4290519.00008,"id":"a72g3lahp2dr","oneHR":7,"UTMX_E":737938.0,"SiteVisitI":"2002-07-22_SHNP643"},"type":"Feature","geometry":{"type":"Point","coordinates":[-78.2627376271834,38.7313185447627]}},{"properties":{"tons":0.468181817708,"AvgLitterD":0.857975088,"sDate":"2002/07/22 00:00:00 +0000","SiteID":"SHNP644","AvgDuffDep":2.80909089609,"hundredHR":0,"tenHR":4,"R":2,"Site_Name":"None","Project":"VEGMAP","S":2,"UTMY_N":4289771.00008,"id":"a72g3l1xaoiz","oneHR":11,"UTMX_E":737846.0,"SiteVisitI":"2002-07-22_SHNP644"},"type":"Feature","geometry":{"type":"Point","coordinates":[-78.2640518778614,38.7246102061766]}},{"properties":{"tons":0.204545458948,"AvgLitterD":2.32166784,"sDate":"2002/07/22 00:00:00 +0000","SiteID":"SHNP645","AvgDuffDep":0.909090909768,"hundredHR":1,"tenHR":10,"R":0,"Site_Name":"None","Project":"VEGMAP","S":2,"UTMY_N":4295560.00008,"id":"a72g3le7why3","oneHR":16,"UTMX_E":746222.0,"SiteVisitI":"2002-07-22_SHNP645"},"type":"Feature","geometry":{"type":"Point","coordinates":[-78.1657490451886,38.7744217421217]}},{"properties":{"tons":0.5681818236,"AvgLitterD":1.883859504,"sDate":"2002/07/23 00:00:00 +0000","SiteID":"SHNP646","AvgDuffDep":2.38636362824,"hundredHR":1,"tenHR":7,"R":1,"Site_Name":"None","Project":"VEGMAP","S":3,"UTMY_N":4266888.00008,"id":"a72g3l6msrq1","oneHR":8,"UTMX_E":711726.0,"SiteVisitI":"2002-07-23_SHNP646"},"type":"Feature","geometry":{"type":"Point","coordinates":[-78.5712078066882,38.525220450911]}},{"properties":{"tons":0.61363637041,"AvgLitterD":1.758701568,"sDate":"2002/07/23 00:00:00 +0000","SiteID":"SHNP647","AvgDuffDep":1.85454547405,"hundredHR":0,"tenHR":9,"R":4,"Site_Name":"None","Project":"VEGMAP","S":2,"UTMY_N":4267399.00008,"id":"a72g3l5hvtsy","oneHR":17,"UTMX_E":711353.0,"SiteVisitI":"2002-07-23_SHNP647"},"type":"Feature","geometry":{"type":"Point","coordinates":[-78.5753285989079,38.5299101450421]}},{"properties":{"tons":0.381818186153,"AvgLitterD":1.407839376,"sDate":"2003/06/10 00:00:00 +0000","SiteID":"SHNP661","AvgDuffDep":0.572727276182,"hundredHR":1,"tenHR":3,"R":5,"Site_Name":"SHNP661","Project":"VEGMAP","S":1,"UTMY_N":4295331.21748,"id":"a72g3l786tdq","oneHR":10,"UTMX_E":742482.55843,"SiteVisitI":"2003-06-10_SHNP661"},"type":"Feature","geometry":{"type":"Point","coordinates":[-78.2088260603292,38.7733981063391]}},{"properties":{"tons":0.695454553108,"AvgLitterD":1.224220704,"sDate":"2003/06/10 00:00:00 +0000","SiteID":"SHNP663","AvgDuffDep":1.01818180897,"hundredHR":1,"tenHR":2,"R":5,"Site_Name":"None","Project":"VEGMAP","S":1,"UTMY_N":4294757.75435,"id":"a72g3lcex83k","oneHR":6,"UTMX_E":740796.02805,"SiteVisitI":"2003-06-10_SHNP663"},"type":"Feature","geometry":{"type":"Point","coordinates":[-78.2284181182859,38.7686981629467]}},{"properties":{"tons":0.890909090638,"AvgLitterD":1.12051296,"sDate":"2003/06/11 00:00:00 +0000","SiteID":"SHNP664","AvgDuffDep":0.895454554395,"hundredHR":0,"tenHR":5,"R":2,"Site_Name":"SHNP664","Project":"VEGMAP","S":2,"UTMY_N":4260479.21397,"id":"a72g3le0gd1l","oneHR":25,"UTMX_E":718149.22535,"SiteVisitI":"2003-06-11_SHNP664"},"type":"Feature","geometry":{"type":"Point","coordinates":[-78.4995851283817,38.4659676978333]}},{"properties":{"tons":0.945454545996,"AvgLitterD":2.26786776,"sDate":"2003/06/11 00:00:00 +0000","SiteID":"SHNP665","AvgDuffDep":1.00000000271,"hundredHR":2,"tenHR":5,"R":0,"Site_Name":"SHNP665","Project":"VEGMAP","S":4,"UTMY_N":4260481.71072,"id":"a72g3l0r8igd","oneHR":20,"UTMX_E":718500.27403,"SiteVisitI":"2003-06-11_SHNP665"},"type":"Feature","geometry":{"type":"Point","coordinates":[-78.4955642068147,38.4659042516911]}},{"properties":{"tons":0.531818189404,"AvgLitterD":2.247409296,"sDate":"2003/06/11 00:00:00 +0000","SiteID":"SHNP666","AvgDuffDep":0.795454552566,"hundredHR":1,"tenHR":8,"R":3,"Site_Name":"SHNP666","Project":"VEGMAP","S":3,"UTMY_N":4260327.65376,"id":"a72g3leym52i","oneHR":23,"UTMX_E":718702.00115,"SiteVisitI":"2003-06-11_SHNP666"},"type":"Feature","geometry":{"type":"Point","coordinates":[-78.4933021156729,38.4644677550571]}},{"properties":{"tons":0.809090908617,"AvgLitterD":1.420410576,"sDate":"2003/06/11 00:00:00 +0000","SiteID":"SHNP667","AvgDuffDep":1.39545454762,"hundredHR":0,"tenHR":8,"R":0,"Site_Name":"SHNP667","Project":"VEGMAP","S":2,"UTMY_N":4260629.5892,"id":"a72g3l0wzl15","oneHR":17,"UTMX_E":718981.69564,"SiteVisitI":"2003-06-11_SHNP667"},"type":"Feature","geometry":{"type":"Point","coordinates":[-78.4900049049277,38.4671176165133]}},{"properties":{"tons":0.427272729237,"AvgLitterD":1.40026872,"sDate":"2003/06/12 00:00:00 +0000","SiteID":"SHNP668","AvgDuffDep":1.11363636296,"hundredHR":0,"tenHR":5,"R":6,"Site_Name":"SHNP668","Project":"VEGMAP","S":4,"UTMY_N":4264177.28932,"id":"a72g3l7l2jqy","oneHR":28,"UTMX_E":718184.23412,"SiteVisitI":"2003-06-12_SHNP668"},"type":"Feature","geometry":{"type":"Point","coordinates":[-78.4980326940295,38.4992549347062]}},{"properties":{"tons":0.563636365939,"AvgLitterD":2.791556016,"sDate":"2003/06/12 00:00:00 +0000","SiteID":"SHNP669","AvgDuffDep":0.899999989366,"hundredHR":3,"tenHR":3,"R":2,"Site_Name":"SHNP669","Project":"VEGMAP","S":5,"UTMY_N":4263790.26157,"id":"a72g3l703ax0","oneHR":32,"UTMX_E":718159.6672,"SiteVisitI":"2003-06-12_SHNP669"},"type":"Feature","geometry":{"type":"Point","coordinates":[-78.4984347491559,38.4957763373534]}},{"properties":{"tons":0.423809524093,"AvgLitterD":1.829212032,"sDate":"2003/06/17 00:00:00 +0000","SiteID":"SHNP670","AvgDuffDep":0.752380955787,"hundredHR":0,"tenHR":11,"R":0,"Site_Name":"SHNP670","Project":"VEGMAP","S":2,"UTMY_N":4242589.12876,"id":"a72g3le39zyt","oneHR":11,"UTMX_E":700794.03089,"SiteVisitI":"2003-06-17_SHNP670"},"type":"Feature","geometry":{"type":"Point","coordinates":[-78.7034577222918,38.3089431643428]}},{"properties":{"tons":0.609090900218,"AvgLitterD":1.327150896,"sDate":"2003/06/17 00:00:00 +0000","SiteID":"SHNP671","AvgDuffDep":1.10909090733,"hundredHR":1,"tenHR":3,"R":0,"Site_Name":"SHNP671","Project":"VEGMAP","S":4,"UTMY_N":4242439.02304,"id":"a72g3la7vjy3","oneHR":16,"UTMX_E":700553.96803,"SiteVisitI":"2003-06-17_SHNP671"},"type":"Feature","geometry":{"type":"Point","coordinates":[-78.7062439551546,38.3076451458215]}},{"properties":{"tons":1.04999999702,"AvgLitterD":3.64129464,"sDate":"2003/06/17 00:00:00 +0000","SiteID":"SHNP672","AvgDuffDep":1.68636363474,"hundredHR":2,"tenHR":10,"R":13,"Site_Name":"SHNP672","Project":"VEGMAP","S":4,"UTMY_N":4242741.56885,"id":"a72g3lau8bwb","oneHR":21,"UTMX_E":698574.43641,"SiteVisitI":"2003-06-17_SHNP672"},"type":"Feature","geometry":{"type":"Point","coordinates":[-78.7287825193421,38.3108101028204]}},{"properties":{"tons":2.00909091668,"AvgLitterD":3.296373504,"sDate":"2003/06/18 00:00:00 +0000","SiteID":"SHNP673","AvgDuffDep":1.48636364124,"hundredHR":3,"tenHR":7,"R":0,"Site_Name":"SHNP673","Project":"VEGMAP","S":9,"UTMY_N":4245625.0458,"id":"a72g3l3zycd1","oneHR":13,"UTMX_E":706848.59692,"SiteVisitI":"2003-06-18_SHNP673"},"type":"Feature","geometry":{"type":"Point","coordinates":[-78.6333744749009,38.3349048538232]}},{"properties":{"tons":0.645454546267,"AvgLitterD":3.43968984,"sDate":"2003/06/18 00:00:00 +0000","SiteID":"SHNP674","AvgDuffDep":0.981818185611,"hundredHR":4,"tenHR":5,"R":0,"Site_Name":"SHNP674","Project":"VEGMAP","S":2,"UTMY_N":4246180.56139,"id":"a72g3l23zv7i","oneHR":24,"UTMX_E":706974.01202,"SiteVisitI":"2003-06-18_SHNP674"},"type":"Feature","geometry":{"type":"Point","coordinates":[-78.6317777710036,38.3398781267434]}},{"properties":{"tons":0.743478265793,"AvgLitterD":0.968992752,"sDate":"2003/06/18 00:00:00 +0000","SiteID":"SHNP675","AvgDuffDep":1.45652174431,"hundredHR":1,"tenHR":1,"R":0,"Site_Name":"SHNP675","Project":"VEGMAP","S":2,"UTMY_N":4246946.43659,"id":"a72g3l9g5qgr","oneHR":18,"UTMX_E":706737.41765,"SiteVisitI":"2003-06-18_SHNP675"},"type":"Feature","geometry":{"type":"Point","coordinates":[-78.6342583541012,38.3468292065053]}},{"properties":{"tons":0.872727280313,"AvgLitterD":2.128248288,"sDate":"2003/06/18 00:00:00 +0000","SiteID":"SHNP676","AvgDuffDep":1.48181817477,"hundredHR":2,"tenHR":4,"R":0,"Site_Name":"SHNP676","Project":"VEGMAP","S":3,"UTMY_N":4246837.17062,"id":"a72g3l8xbb7u","oneHR":26,"UTMX_E":706760.08409,"SiteVisitI":"2003-06-18_SHNP676"},"type":"Feature","geometry":{"type":"Point","coordinates":[-78.6340312079085,38.3458400712467]}},{"properties":{"tons":1.14545455575,"AvgLitterD":1.633282896,"sDate":"2003/06/19 00:00:00 +0000","SiteID":"SHNP677","AvgDuffDep":1.96818180518,"hundredHR":0,"tenHR":8,"R":0,"Site_Name":"SHNP677","Project":"VEGMAP","S":9,"UTMY_N":4252085.93244,"id":"a72g3lepnijn","oneHR":13,"UTMX_E":709524.60417,"SiteVisitI":"2003-06-19_SHNP677"},"type":"Feature","geometry":{"type":"Point","coordinates":[-78.6008613494488,38.3924597452969]}},{"properties":{"tons":0.995454549789,"AvgLitterD":3.63316992,"sDate":"2003/06/19 00:00:00 +0000","SiteID":"SHNP678","AvgDuffDep":0.768181818453,"hundredHR":3,"tenHR":10,"R":0,"Site_Name":"SHNP678","Project":"VEGMAP","S":4,"UTMY_N":4255036.57392,"id":"a72g3la6zpta","oneHR":20,"UTMX_E":716612.92667,"SiteVisitI":"2003-06-19_SHNP678"},"type":"Feature","geometry":{"type":"Point","coordinates":[-78.5188578887771,38.4173379767397]}},{"properties":{"tons":1.00454545902,"AvgLitterD":0.918549648,"sDate":"2003/06/19 00:00:00 +0000","SiteID":"SHNP679","AvgDuffDep":1.47272726792,"hundredHR":0,"tenHR":4,"R":1,"Site_Name":"SHNP679","Project":"VEGMAP","S":1,"UTMY_N":4254841.74265,"id":"a72g3lagphgk","oneHR":29,"UTMX_E":715468.79673,"SiteVisitI":"2003-06-19_SHNP679"},"type":"Feature","geometry":{"type":"Point","coordinates":[-78.5320114894502,38.4158603820395]}},{"properties":{"tons":1.225,"AvgLitterD":0.664695216,"sDate":"2003/06/24 00:00:00 +0000","SiteID":"2L432-1","AvgDuffDep":0.7,"hundredHR":0,"tenHR":3,"R":0,"Site_Name":"Crescent Rock","Project":"TLTEMv2","S":1,"UTMY_N":4272643.0,"id":"a72g3l9t1thf","oneHR":22,"UTMX_E":728409.0,"SiteVisitI":"2003-06-24_2L432-1"},"type":"Feature","geometry":{"type":"Point","coordinates":[-78.3781273326068,38.5729060114129]}},{"properties":{"tons":0.9625,"AvgLitterD":6.867930576,"sDate":"2003/07/01 00:00:00 +0000","SiteID":"1L413-1","AvgDuffDep":0.7,"hundredHR":6,"tenHR":18,"R":4,"Site_Name":"Browntown","Project":"TLTEMv2","S":2,"UTMY_N":4294845.0,"id":"a72g3l9qg8cm","oneHR":31,"UTMX_E":740529.0,"SiteVisitI":"2003-07-01_1L413-1"},"type":"Feature","geometry":{"type":"Point","coordinates":[-78.2314579198052,38.769556297271]}},{"properties":{"tons":1.85,"AvgLitterD":2.590845168,"sDate":"2003/07/01 00:00:00 +0000","SiteID":"2L437-1","AvgDuffDep":0.9375,"hundredHR":3,"tenHR":4,"R":2,"Site_Name":"White Oak Road","Project":"TLTEMv2","S":1,"UTMY_N":4270415.0,"id":"a72g3lgbvvnn","oneHR":5,"UTMX_E":729044.0,"SiteVisitI":"2003-07-01_2L437-1"},"type":"Feature","geometry":{"type":"Point","coordinates":[-78.3715765345325,38.5526849361937]}},{"properties":{"tons":0.8625,"AvgLitterD":3.301048128,"sDate":"2003/07/09 00:00:00 +0000","SiteID":"1L115-1","AvgDuffDep":0.25,"hundredHR":4,"tenHR":4,"R":3,"Site_Name":"Pass Mountain Overlook","Project":"TLTEMv2","S":2,"UTMY_N":4283728.0,"id":"a72g3lbyy1ve","oneHR":8,"UTMX_E":731531.0,"SiteVisitI":"2003-07-09_1L115-1"},"type":"Feature","geometry":{"type":"Point","coordinates":[-78.3386378102793,38.6718875659169]}},{"properties":{"tons":2.25,"AvgLitterD":3.45132984,"sDate":"2003/07/10 00:00:00 +0000","SiteID":"2L103-2","AvgDuffDep":1.3875,"hundredHR":4,"tenHR":5,"R":1,"Site_Name":"Big Meadows Amphitheater","Project":"TLTEMv2","S":1,"UTMY_N":4268135.0,"id":"a72g3lcfesqa","oneHR":24,"UTMX_E":723026.0,"SiteVisitI":"2003-07-10_2L103-2"},"type":"Feature","geometry":{"type":"Point","coordinates":[-78.4413000101957,38.5336877317417]}},{"properties":{"tons":1.4125,"AvgLitterD":14.59649016,"sDate":"2003/07/14 00:00:00 +0000","SiteID":"1L120-1","AvgDuffDep":0.9875,"hundredHR":15,"tenHR":30,"R":3,"Site_Name":"Pass Run","Project":"TLTEMv2","S":2,"UTMY_N":4283693.0,"id":"a72g3l4381v5","oneHR":95,"UTMX_E":732830.0,"SiteVisitI":"2003-07-14_1L120-1"},"type":"Feature","geometry":{"type":"Point","coordinates":[-78.3237331142046,38.6712318947889]}},{"properties":{"tons":1.375,"AvgLitterD":3.45586944,"sDate":"2003/07/16 00:00:00 +0000","SiteID":"1L122-1","AvgDuffDep":1.225,"hundredHR":4,"tenHR":5,"R":1,"Site_Name":"Jeremys Run","Project":"TLTEMv2","S":0,"UTMY_N":4288701.0,"id":"a72g3lez79on","oneHR":29,"UTMX_E":729573.0,"SiteVisitI":"2003-07-16_1L122-1"},"type":"Feature","geometry":{"type":"Point","coordinates":[-78.3594755130176,38.7171655226781]}},{"properties":{"tons":2.1125,"AvgLitterD":3.75173496,"sDate":"2003/07/17 00:00:00 +0000","SiteID":"1L100-1","AvgDuffDep":1.65,"hundredHR":3,"tenHR":10,"R":4,"Site_Name":"Brush Mountain","Project":"TLTEMv2","S":5,"UTMY_N":4295359.0,"id":"a72g3l9vk6wc","oneHR":7,"UTMX_E":742804.0,"SiteVisitI":"2003-07-17_1L100-1"},"type":"Feature","geometry":{"type":"Point","coordinates":[-78.2051203270599,38.7735597798959]}},{"properties":{"tons":0.8875,"AvgLitterD":6.132808704,"sDate":"2003/07/21 00:00:00 +0000","SiteID":"1L103-1","AvgDuffDep":1.2875,"hundredHR":8,"tenHR":7,"R":1,"Site_Name":"Neighbor Mountain (Lower)","Project":"TLTEMv2","S":0,"UTMY_N":4287211.0,"id":"a72g3lfpc4m9","oneHR":23,"UTMX_E":728041.0,"SiteVisitI":"2003-07-21_1L103-1"},"type":"Feature","geometry":{"type":"Point","coordinates":[-78.3775696294149,38.7041485389233]}},{"properties":{"tons":1.6125,"AvgLitterD":0.909866208,"sDate":"2003/07/21 00:00:00 +0000","SiteID":"2L443-1","AvgDuffDep":0.6875,"hundredHR":0,"tenHR":4,"R":2,"Site_Name":"Rose River","Project":"TLTEMv2","S":1,"UTMY_N":4267196.0,"id":"a72g3l26cizw","oneHR":22,"UTMX_E":726126.0,"SiteVisitI":"2003-07-21_2L443-1"},"type":"Feature","geometry":{"type":"Point","coordinates":[-78.4060720664529,38.5244517108764]}},{"properties":{"tons":1.0,"AvgLitterD":3.96837864,"sDate":"2003/07/22 00:00:00 +0000","SiteID":"1L117-3","AvgDuffDep":0.925,"hundredHR":5,"tenHR":5,"R":1,"Site_Name":"Lands Run Fire Road","Project":"TLTEMv2","S":3,"UTMY_N":4301116.0,"id":"a72g3l6po49a","oneHR":4,"UTMX_E":743871.0,"SiteVisitI":"2003-07-22_1L117-3"},"type":"Feature","geometry":{"type":"Point","coordinates":[-78.1908167191196,38.8250832362988]}},{"properties":{"tons":0.7,"AvgLitterD":3.265932576,"sDate":"2003/07/23 00:00:00 +0000","SiteID":"1L126-1","AvgDuffDep":0.6625,"hundredHR":3,"tenHR":8,"R":3,"Site_Name":"Hickerson Hollow","Project":"TLTEMv2","S":0,"UTMY_N":4303281.0,"id":"a72g3l52k2vm","oneHR":12,"UTMX_E":745127.0,"SiteVisitI":"2003-07-23_1L126-1"},"type":"Feature","geometry":{"type":"Point","coordinates":[-78.1755943306137,38.8442209524902]}},{"properties":{"tons":0.875,"AvgLitterD":9.477399744,"sDate":"2003/07/24 00:00:00 +0000","SiteID":"1L114-1","AvgDuffDep":0.9,"hundredHR":12,"tenHR":12,"R":3,"Site_Name":"Frazier Hollow (Cove Hardwood)","Project":"TLTEMv2","S":0,"UTMY_N":4286424.0,"id":"a72g3ld006uv","oneHR":32,"UTMX_E":735856.0,"SiteVisitI":"2003-07-24_1L114-1"},"type":"Feature","geometry":{"type":"Point","coordinates":[-78.2880582729653,38.6950148465437]}},{"properties":{"tons":0.2875,"AvgLitterD":8.375217456,"sDate":"2003/07/28 00:00:00 +0000","SiteID":"1L402-1","AvgDuffDep":0.425,"hundredHR":11,"tenHR":8,"R":5,"Site_Name":"Lands Run Boundary","Project":"TLTEMv2","S":3,"UTMY_N":4300871.0,"id":"a72g3lgdvsu2","oneHR":21,"UTMX_E":742827.0,"SiteVisitI":"2003-07-28_1L402-1"},"type":"Feature","geometry":{"type":"Point","coordinates":[-78.2029156851102,38.8231664873214]}},{"properties":{"tons":1.325,"AvgLitterD":1.930815264,"sDate":"2003/07/28 00:00:00 +0000","SiteID":"1L405-1","AvgDuffDep":1.1125,"hundredHR":1,"tenHR":7,"R":0,"Site_Name":"Tuscarora","Project":"TLTEMv2","S":5,"UTMY_N":4298057.0,"id":"a72g3l13ij9t","oneHR":11,"UTMX_E":731583.0,"SiteVisitI":"2003-07-28_1L405-1"},"type":"Feature","geometry":{"type":"Point","coordinates":[-78.3332450946353,38.800863612293]}},{"properties":{"tons":0.225,"AvgLitterD":7.006111344,"sDate":"2003/07/29 00:00:00 +0000","SiteID":"1L407-1","AvgDuffDep":0.4,"hundredHR":8,"tenHR":12,"R":2,"Site_Name":"Thompson Hollow","Project":"TLTEMv2","S":1,"UTMY_N":4297513.0,"id":"a72g3l1kmrmc","oneHR":27,"UTMX_E":732996.0,"SiteVisitI":"2003-07-29_1L407-1"},"type":"Feature","geometry":{"type":"Point","coordinates":[-78.3171742096495,38.7955942830655]}},{"properties":{"tons":0.8375,"AvgLitterD":4.149348048,"sDate":"2003/07/31 00:00:00 +0000","SiteID":"1L301-2","AvgDuffDep":0.65,"hundredHR":3,"tenHR":9,"R":3,"Site_Name":"Rush River","Project":"TLTEMv2","S":11,"UTMY_N":4293842.0,"id":"a72g3l8c4wub","oneHR":56,"UTMX_E":739772.0,"SiteVisitI":"2003-07-31_1L301-2"},"type":"Feature","geometry":{"type":"Point","coordinates":[-78.2405097836493,38.7607340600438]}},{"properties":{"tons":0.375,"AvgLitterD":1.647567504,"sDate":"2003/08/05 00:00:00 +0000","SiteID":"1L105-2","AvgDuffDep":0.4875,"hundredHR":2,"tenHR":2,"R":1,"Site_Name":"Heiskell-Compton Hollow","Project":"TLTEMv2","S":0,"UTMY_N":4294992.0,"id":"a72g3l8wjznn","oneHR":11,"UTMX_E":732409.0,"SiteVisitI":"2003-08-05_1L105-2"},"type":"Feature","geometry":{"type":"Point","coordinates":[-78.3247750883372,38.7730555787463]}},{"properties":{"tons":1.375,"AvgLitterD":5.479939728,"sDate":"2003/08/12 00:00:00 +0000","SiteID":"2L110-3","AvgDuffDep":0.4625,"hundredHR":6,"tenHR":9,"R":3,"Site_Name":"Hemlock Springs Overlook","Project":"TLTEMv2","S":3,"UTMY_N":4275467.0,"id":"a72g3lb28q96","oneHR":30,"UTMX_E":729431.0,"SiteVisitI":"2003-08-12_2L110-3"},"type":"Feature","geometry":{"type":"Point","coordinates":[-78.3654780554606,38.5980656550878]}},{"properties":{"tons":0.45,"AvgLitterD":3.122229792,"sDate":"2003/08/28 00:00:00 +0000","SiteID":"1L410-1","AvgDuffDep":0.4625,"hundredHR":3,"tenHR":6,"R":4,"Site_Name":"Chester Gap","Project":"TLTEMv2","S":1,"UTMY_N":4296107.0,"id":"a72g3l9cb3x9","oneHR":22,"UTMX_E":744045.0,"SiteVisitI":"2003-08-28_1L410-1"},"type":"Feature","geometry":{"type":"Point","coordinates":[-78.1905869647465,38.7799500417616]}},{"properties":{"tons":0.8375,"AvgLitterD":3.971642496,"sDate":"2003/09/03 00:00:00 +0000","SiteID":"3L123-1","AvgDuffDep":0.4,"hundredHR":3,"tenHR":8,"R":13,"Site_Name":"West Swift Run 2","Project":"TLTEMv2","S":1,"UTMY_N":4248779.0,"id":"a72g3l8groh0","oneHR":38,"UTMX_E":713534.0,"SiteVisitI":"2003-09-03_3L123-1"},"type":"Feature","geometry":{"type":"Point","coordinates":[-78.5559930342801,38.3617354490536]}},{"properties":{"tons":0.6375,"AvgLitterD":0.0,"sDate":"2003/09/05 00:00:00 +0000","SiteID":"2L119-1","AvgDuffDep":0.7,"hundredHR":0,"tenHR":0,"R":0,"Site_Name":"Lee Run","Project":"TLTEMv2","S":0,"UTMY_N":4249324.0,"id":"a72g3l2e3a4f","oneHR":0,"UTMX_E":714085.0,"SiteVisitI":"2003-09-05_2L119-1"},"type":"Feature","geometry":{"type":"Point","coordinates":[-78.5495263408163,38.3665110807826]}},{"properties":{"tons":1.9375,"AvgLitterD":9.053261424,"sDate":"2003/09/09 00:00:00 +0000","SiteID":"3L124-1","AvgDuffDep":1.5125,"hundredHR":11,"tenHR":12,"R":5,"Site_Name":"Austin Mountain","Project":"TLTEMv2","S":5,"UTMY_N":4237349.0,"id":"a72g3l3nyiej","oneHR":21,"UTMX_E":695361.0,"SiteVisitI":"2003-09-09_3L124-1"},"type":"Feature","geometry":{"type":"Point","coordinates":[-78.7669996380358,38.2629525812041]}},{"properties":{"tons":0.7375,"AvgLitterD":6.110962752,"sDate":"2003/09/10 00:00:00 +0000","SiteID":"3L122-1","AvgDuffDep":0.4125,"hundredHR":8,"tenHR":6,"R":3,"Site_Name":"West Swift Run 1","Project":"TLTEMv2","S":4,"UTMY_N":4247768.0,"id":"a72g3lat4idg","oneHR":10,"UTMX_E":713491.0,"SiteVisitI":"2003-09-10_3L122-1"},"type":"Feature","geometry":{"type":"Point","coordinates":[-78.5567909101642,38.3526425226476]}},{"properties":{"tons":0.45,"AvgLitterD":6.342929328,"sDate":"2003/09/11 00:00:00 +0000","SiteID":"3L115-2","AvgDuffDep":0.2875,"hundredHR":5,"tenHR":19,"R":1,"Site_Name":"Simmons Gap","Project":"TLTEMv2","S":1,"UTMY_N":4242185.0,"id":"a72g3lfk6jhd","oneHR":44,"UTMX_E":708048.0,"SiteVisitI":"2003-09-11_3L115-2"},"type":"Feature","geometry":{"type":"Point","coordinates":[-78.6206758166669,38.3036509007122]}},{"properties":{"tons":2.0375,"AvgLitterD":3.421061184,"sDate":"2003/09/16 00:00:00 +0000","SiteID":"2L108-1","AvgDuffDep":0.325,"hundredHR":3,"tenHR":7,"R":2,"Site_Name":"Hazel River Upper","Project":"TLTEMv2","S":9,"UTMY_N":4279284.0,"id":"a72g3lb5mnok","oneHR":17,"UTMX_E":733983.0,"SiteVisitI":"2003-09-16_2L108-1"},"type":"Feature","geometry":{"type":"Point","coordinates":[-78.3119780405935,38.6312383861971]}},{"properties":{"tons":0.784999989718,"AvgLitterD":1.7160852,"sDate":"2004/05/13 00:00:00 +0000","SiteID":"1L707-1","AvgDuffDep":1.67500000671,"hundredHR":1,"tenHR":5,"R":4,"Site_Name":"Green Hollow Lower","Project":"TLTEMv2","S":2,"UTMY_N":4288383.0,"id":"a72g3lf8e6bm","oneHR":12,"UTMX_E":726904.0,"SiteVisitI":"2004-05-13_1L707-1"},"type":"Feature","geometry":{"type":"Point","coordinates":[-78.3902484813106,38.7149918182228]}},{"properties":{"tons":0.835000005364,"AvgLitterD":9.13989096,"sDate":"2004/05/26 00:00:00 +0000","SiteID":"2L120-1","AvgDuffDep":1.14999999702,"hundredHR":9,"tenHR":20,"R":2,"Site_Name":"Limberlost","Project":"TLTEMv2","S":0,"UTMY_N":4272846.0,"id":"a72g3l3pw8b4","oneHR":71,"UTMX_E":728563.0,"SiteVisitI":"2004-05-26_2L120-1"},"type":"Feature","geometry":{"type":"Point","coordinates":[-78.3762947927599,38.5746939304223]}},{"properties":{"tons":0.87499999702,"AvgLitterD":0.986941632,"sDate":"2004/06/03 00:00:00 +0000","SiteID":"1L706-1","AvgDuffDep":2.51499998569,"hundredHR":1,"tenHR":1,"R":3,"Site_Name":"Green Hollow Middle","Project":"TLTEMv2","S":1,"UTMY_N":4287976.0,"id":"a72g3lc9x9yu","oneHR":7,"UTMX_E":726735.0,"SiteVisitI":"2004-06-03_1L706-1"},"type":"Feature","geometry":{"type":"Point","coordinates":[-78.3923235859005,38.7113711795241]}},{"properties":{"tons":1.71999999285,"AvgLitterD":0.466726752,"sDate":"2004/06/07 00:00:00 +0000","SiteID":"1L504-1","AvgDuffDep":1.01999999844,"hundredHR":0,"tenHR":1,"R":4,"Site_Name":"Green Hollow Ridge North","Project":"TLTEMv2","S":3,"UTMY_N":4287556.0,"id":"a72g3l3i4sy1","oneHR":3,"UTMX_E":726427.0,"SiteVisitI":"2004-06-07_1L504-1"},"type":"Feature","geometry":{"type":"Point","coordinates":[-78.3959997431062,38.7076690626148]}},{"properties":{"tons":1.5625,"AvgLitterD":2.86679232,"sDate":"2004/06/07 00:00:00 +0000","SiteID":"1L705-1","AvgDuffDep":1.0125,"hundredHR":3,"tenHR":5,"R":2,"Site_Name":"Green Hollow Ridge South","Project":"TLTEMv2","S":5,"UTMY_N":4287407.0,"id":"a72g3lf281t1","oneHR":3,"UTMX_E":726471.0,"SiteVisitI":"2004-06-07_1L705-1"},"type":"Feature","geometry":{"type":"Point","coordinates":[-78.395542907255,38.7063164266162]}},{"properties":{"tons":1.42000000849,"AvgLitterD":4.620642336,"sDate":"2004/06/08 00:00:00 +0000","SiteID":"2L518-1","AvgDuffDep":1.20999999121,"hundredHR":5,"tenHR":8,"R":4,"Site_Name":"Corbin Mountain","Project":"TLTEMv2","S":1,"UTMY_N":4274073.0,"id":"a72g3lda8s31","oneHR":20,"UTMX_E":731081.0,"SiteVisitI":"2004-06-08_2L518-1"},"type":"Feature","geometry":{"type":"Point","coordinates":[-78.3470123261268,38.585088517793]}},{"properties":{"tons":1.4,"AvgLitterD":2.87291496,"sDate":"2004/06/09 00:00:00 +0000","SiteID":"2L431-1","AvgDuffDep":0.8625,"hundredHR":3,"tenHR":5,"R":3,"Site_Name":"White Oak Bridle Trail","Project":"TLTEMv2","S":0,"UTMY_N":4273670.0,"id":"a72g3l8fhzd6","oneHR":20,"UTMX_E":728926.0,"SiteVisitI":"2004-06-09_2L431-1"},"type":"Feature","geometry":{"type":"Point","coordinates":[-78.371861446722,38.5820185475775]}},{"properties":{"tons":2.225,"AvgLitterD":3.165176736,"sDate":"2004/06/10 00:00:00 +0000","SiteID":"2L536-1","AvgDuffDep":0.7,"hundredHR":4,"tenHR":3,"R":4,"Site_Name":"Staunton River","Project":"TLTEMv2","S":0,"UTMY_N":4259997.0,"id":"a72g3l4c2ryi","oneHR":13,"UTMX_E":726348.0,"SiteVisitI":"2004-06-10_2L536-1"},"type":"Feature","geometry":{"type":"Point","coordinates":[-78.4058544310139,38.459583587911]}},{"properties":{"tons":0.9,"AvgLitterD":3.342686736,"sDate":"2004/06/15 00:00:00 +0000","SiteID":"3L602-1","AvgDuffDep":1.2875,"hundredHR":3,"tenHR":8,"R":0,"Site_Name":"Lewis Peak","Project":"TLTEMv2","S":1,"UTMY_N":4239013.0,"id":"a72g3l2yfe5z","oneHR":35,"UTMX_E":699200.0,"SiteVisitI":"2004-06-15_3L602-1"},"type":"Feature","geometry":{"type":"Point","coordinates":[-78.7226829796507,38.2770944636462]}},{"properties":{"tons":1.2,"AvgLitterD":0.937425072,"sDate":"2004/06/16 00:00:00 +0000","SiteID":"1L564-1","AvgDuffDep":0.975,"hundredHR":1,"tenHR":1,"R":0,"Site_Name":"Brush Mountain","Project":"TLTEMv2","S":2,"UTMY_N":4298975.0,"id":"a72g3l8bcr5b","oneHR":14,"UTMX_E":731957.0,"SiteVisitI":"2004-06-16_1L564-1"},"type":"Feature","geometry":{"type":"Point","coordinates":[-78.3286339320048,38.8090289637115]}},{"properties":{"tons":0.3375,"AvgLitterD":1.579957728,"sDate":"2004/06/21 00:00:00 +0000","SiteID":"2L710-1","AvgDuffDep":0.5625,"hundredHR":0,"tenHR":9,"R":2,"Site_Name":"Rapidan","Project":"TLTEMv2","S":0,"UTMY_N":4258080.0,"id":"a72g3l17ben7","oneHR":15,"UTMX_E":729448.0,"SiteVisitI":"2004-06-21_2L710-1"},"type":"Feature","geometry":{"type":"Point","coordinates":[-78.3709868546421,38.4415335838285]}},{"properties":{"tons":1.0875,"AvgLitterD":2.603127696,"sDate":"2004/06/28 00:00:00 +0000","SiteID":"1L565-1","AvgDuffDep":1.625,"hundredHR":1,"tenHR":8,"R":5,"Site_Name":"Thomson Hollow Upper","Project":"TLTEMv2","S":6,"UTMY_N":4297206.0,"id":"a72g3l38redv","oneHR":43,"UTMX_E":733350.0,"SiteVisitI":"2004-06-28_1L565-1"},"type":"Feature","geometry":{"type":"Point","coordinates":[-78.3132060782744,38.7927371204905]}},{"properties":{"tons":0.375,"AvgLitterD":4.44762072,"sDate":"2004/07/07 00:00:00 +0000","SiteID":"1L112-3","AvgDuffDep":0.85,"hundredHR":2,"tenHR":20,"R":1,"Site_Name":"Jermey's Run - middle","Project":"TLTEMv2","S":0,"UTMY_N":4290872.0,"id":"a72g3lfpgs9n","oneHR":19,"UTMX_E":732052.0,"SiteVisitI":"2004-07-07_1L112-3"},"type":"Feature","geometry":{"type":"Point","coordinates":[-78.3302632167776,38.7360616064024]}},{"properties":{"tons":0.1,"AvgLitterD":4.121416704,"sDate":"2004/07/08 00:00:00 +0000","SiteID":"1L312-1","AvgDuffDep":0.6125,"hundredHR":6,"tenHR":2,"R":3,"Site_Name":"Elkwallow Picnic Area 1","Project":"TLTEMv2","S":0,"UTMY_N":4291197.0,"id":"a72g3lewqo82","oneHR":6,"UTMX_E":733293.0,"SiteVisitI":"2004-07-08_1L312-1"},"type":"Feature","geometry":{"type":"Point","coordinates":[-78.3158905695664,38.7386603820765]}},{"properties":{"tons":0.7125,"AvgLitterD":0.864679728,"sDate":"2004/07/26 00:00:00 +0000","SiteID":"1L503-1","AvgDuffDep":1.4,"hundredHR":0,"tenHR":4,"R":2,"Site_Name":"Green Hollow Upper","Project":"TLTEMv2","S":4,"UTMY_N":4287546.0,"id":"a72g3lfs9gby","oneHR":3,"UTMX_E":726762.0,"SiteVisitI":"2004-07-26_1L503-1"},"type":"Feature","geometry":{"type":"Point","coordinates":[-78.3921540874712,38.7074932023368]}},{"properties":{"tons":0.4375,"AvgLitterD":6.383832288,"sDate":"2004/07/28 00:00:00 +0000","SiteID":"1L569-1","AvgDuffDep":0.6,"hundredHR":8,"tenHR":9,"R":1,"Site_Name":"Heiskell Hollow East","Project":"TLTEMv2","S":3,"UTMY_N":4295151.0,"id":"a72g3l65siy3","oneHR":3,"UTMX_E":731678.0,"SiteVisitI":"2004-07-28_1L569-1"},"type":"Feature","geometry":{"type":"Point","coordinates":[-78.3331276963807,38.7746791329839]}},{"properties":{"tons":0.525,"AvgLitterD":4.633269408,"sDate":"2004/07/29 00:00:00 +0000","SiteID":"1L708-1","AvgDuffDep":0.875,"hundredHR":6,"tenHR":4,"R":4,"Site_Name":"Jeremys Run Flood Plain","Project":"TLTEMv2","S":1,"UTMY_N":4288373.0,"id":"a72g3l1t4che","oneHR":22,"UTMX_E":730844.0,"SiteVisitI":"2004-07-29_1L708-1"},"type":"Feature","geometry":{"type":"Point","coordinates":[-78.3449804589056,38.7138818708538]}},{"properties":{"tons":0.5125,"AvgLitterD":2.844168816,"sDate":"2004/08/04 00:00:00 +0000","SiteID":"3L550-1","AvgDuffDep":0.6875,"hundredHR":2,"tenHR":8,"R":5,"Site_Name":"Mission Home","Project":"TLTEMv2","S":1,"UTMY_N":4237896.0,"id":"a72g3lfq0pkp","oneHR":19,"UTMX_E":707229.0,"SiteVisitI":"2004-08-04_3L550-1"},"type":"Feature","geometry":{"type":"Point","coordinates":[-78.6312909418531,38.265219141782]}},{"properties":{"tons":1.175,"AvgLitterD":5.238968448,"sDate":"2004/08/09 00:00:00 +0000","SiteID":"3L100-1","AvgDuffDep":1.35,"hundredHR":3,"tenHR":19,"R":5,"Site_Name":"Rocky Mount Overlook","Project":"TLTEMv2","S":3,"UTMY_N":4243352.0,"id":"a72g3ld6h67h","oneHR":25,"UTMX_E":708843.0,"SiteVisitI":"2004-08-09_3L100-1"},"type":"Feature","geometry":{"type":"Point","coordinates":[-78.6112462997134,38.3139745189162]}},{"properties":{"tons":0.95,"AvgLitterD":2.91132696,"sDate":"2004/08/09 00:00:00 +0000","SiteID":"3L104-1","AvgDuffDep":0.6625,"hundredHR":2,"tenHR":10,"R":1,"Site_Name":"Loft Mountain Campground","Project":"TLTEMv2","S":0,"UTMY_N":4235321.0,"id":"a72g3l76snfl","oneHR":17,"UTMX_E":703543.0,"SiteVisitI":"2004-08-09_3L104-1"},"type":"Feature","geometry":{"type":"Point","coordinates":[-78.6741306171762,38.2428738559494]}},{"properties":{"tons":0.625,"AvgLitterD":6.219875904,"sDate":"2004/08/11 00:00:00 +0000","SiteID":"2L129-1","AvgDuffDep":0.7625,"hundredHR":4,"tenHR":22,"R":1,"Site_Name":"Garth Spring","Project":"TLTEMv2","S":4,"UTMY_N":4259711.0,"id":"a72g3l89thur","oneHR":34,"UTMX_E":726585.0,"SiteVisitI":"2004-08-11_2L129-1"},"type":"Feature","geometry":{"type":"Point","coordinates":[-78.403233157051,38.4569485956911]}},{"properties":{"tons":0.775,"AvgLitterD":3.420805104,"sDate":"2004/08/12 00:00:00 +0000","SiteID":"2L115-1","AvgDuffDep":1.1625,"hundredHR":2,"tenHR":12,"R":5,"Site_Name":"Timber Hollow Overlook","Project":"TLTEMv2","S":1,"UTMY_N":4273011.0,"id":"a72g3legz8pb","oneHR":15,"UTMX_E":728055.0,"SiteVisitI":"2004-08-12_2L115-1"},"type":"Feature","geometry":{"type":"Point","coordinates":[-78.3820665916663,38.5763098856479]}},{"properties":{"tons":0.7625,"AvgLitterD":2.0221008,"sDate":"2004/08/16 00:00:00 +0000","SiteID":"1L104-1","AvgDuffDep":0.7125,"hundredHR":3,"tenHR":0,"R":2,"Site_Name":"Piney Ridge Trail (Upper)","Project":"TLTEMv2","S":1,"UTMY_N":4291116.0,"id":"a72g3l3bhbto","oneHR":10,"UTMX_E":734585.0,"SiteVisitI":"2004-08-16_1L104-1"},"type":"Feature","geometry":{"type":"Point","coordinates":[-78.3010684499244,38.7375891013244]}},{"properties":{"tons":1.35,"AvgLitterD":3.921548592,"sDate":"2004/08/18 00:00:00 +0000","SiteID":"3L549-1","AvgDuffDep":1.4875,"hundredHR":3,"tenHR":11,"R":3,"Site_Name":"Pinefield Shelter","Project":"TLTEMv2","S":3,"UTMY_N":4240707.0,"id":"a72g3l4l0r6d","oneHR":24,"UTMX_E":705593.0,"SiteVisitI":"2004-08-18_3L549-1"},"type":"Feature","geometry":{"type":"Point","coordinates":[-78.6491599643259,38.2909077422444]}},{"properties":{"tons":1.1,"AvgLitterD":2.89500768,"sDate":"2004/08/19 00:00:00 +0000","SiteID":"1L109-1","AvgDuffDep":0.2875,"hundredHR":3,"tenHR":5,"R":5,"Site_Name":"Hogwallow Flat","Project":"TLTEMv2","S":0,"UTMY_N":4297232.0,"id":"a72g3l0mlnzw","oneHR":11,"UTMX_E":744413.0,"SiteVisitI":"2004-08-19_1L109-1"},"type":"Feature","geometry":{"type":"Point","coordinates":[-78.1859570347926,38.7899740555128]}},{"properties":{"tons":0.525,"AvgLitterD":2.736564,"sDate":"2004/08/23 00:00:00 +0000","SiteID":"2L117-1","AvgDuffDep":0.975,"hundredHR":1,"tenHR":10,"R":7,"Site_Name":"Kite Hollow","Project":"TLTEMv2","S":5,"UTMY_N":4269591.0,"id":"a72g3l75s52f","oneHR":14,"UTMX_E":723829.0,"SiteVisitI":"2004-08-23_2L117-1"},"type":"Feature","geometry":{"type":"Point","coordinates":[-78.4316296107762,38.5465944669141]}},{"properties":{"tons":0.5875,"AvgLitterD":2.94999504,"sDate":"2004/08/23 00:00:00 +0000","SiteID":"2L316-1","AvgDuffDep":0.8625,"hundredHR":2,"tenHR":10,"R":2,"Site_Name":"Cedar Run","Project":"TLTEMv2","S":0,"UTMY_N":4269362.0,"id":"a72g3lfrihz9","oneHR":16,"UTMX_E":727623.0,"SiteVisitI":"2004-08-23_2L316-1"},"type":"Feature","geometry":{"type":"Point","coordinates":[-78.3882108129932,38.5435700011794]}},{"properties":{"tons":3.0375,"AvgLitterD":1.838742864,"sDate":"2004/08/25 00:00:00 +0000","SiteID":"2L310-1","AvgDuffDep":0.975,"hundredHR":2,"tenHR":2,"R":3,"Site_Name":"Old Rag Fire Rd (Lower) (Negro Run)","Project":"TLTEMv2","S":1,"UTMY_N":4272129.0,"id":"a72g3l32rdy1","oneHR":19,"UTMX_E":730989.0,"SiteVisitI":"2004-08-25_2L310-1"},"type":"Feature","geometry":{"type":"Point","coordinates":[-78.34871131911,38.5676119007409]}},{"properties":{"tons":2.2875,"AvgLitterD":2.710807008,"sDate":"2004/09/01 00:00:00 +0000","SiteID":"2L130-1","AvgDuffDep":0.8875,"hundredHR":3,"tenHR":4,"R":0,"Site_Name":"Old Rag Fire Rd (Upper) (Negro Run)","Project":"TLTEMv2","S":1,"UTMY_N":4272738.0,"id":"a72g3lbi08f8","oneHR":32,"UTMX_E":730506.0,"SiteVisitI":"2004-09-01_2L130-1"},"type":"Feature","geometry":{"type":"Point","coordinates":[-78.3540484912802,38.5732197541481]}},{"properties":{"tons":0.85,"AvgLitterD":4.184528784,"sDate":"2004/09/14 00:00:00 +0000","SiteID":"1L110-1","AvgDuffDep":1.0125,"hundredHR":4,"tenHR":7,"R":10,"Site_Name":"Gravel Springs","Project":"TLTEMv2","S":4,"UTMY_N":4294142.0,"id":"a72g3ldjcvts","oneHR":12,"UTMX_E":740622.0,"SiteVisitI":"2004-09-14_1L110-1"},"type":"Feature","geometry":{"type":"Point","coordinates":[-78.2306334486259,38.7632031232153]}},{"properties":{"tons":0.4375,"AvgLitterD":4.342050576,"sDate":"2005/05/04 00:00:00 +0000","SiteID":"2L592-1","AvgDuffDep":1.6875,"hundredHR":3,"tenHR":13,"R":7,"Site_Name":"Elder Ridge","Project":"TLTEMv2","S":1,"UTMY_N":4281117.0,"id":"a72g3l8ae2lf","oneHR":24,"UTMX_E":732195.0,"SiteVisitI":"2005-05-04_2L592-1"},"type":"Feature","geometry":{"type":"Point","coordinates":[-78.3318858897595,38.6482092541005]}},{"properties":{"tons":0.6,"AvgLitterD":1.883719824,"sDate":"2005/05/05 00:00:00 +0000","SiteID":"2L712-1","AvgDuffDep":1.5,"hundredHR":2,"tenHR":2,"R":6,"Site_Name":"Laurel Prong - South","Project":"TLTEMv2","S":1,"UTMY_N":4262628.0,"id":"a72g3l4lcg7n","oneHR":7,"UTMX_E":724425.0,"SiteVisitI":"2005-05-05_2L712-1"},"type":"Feature","geometry":{"type":"Point","coordinates":[-78.4270308136652,38.4837564569271]}},{"properties":{"tons":0.8,"AvgLitterD":3.55050264,"sDate":"2005/05/09 00:00:00 +0000","SiteID":"2L448-1","AvgDuffDep":0.6,"hundredHR":3,"tenHR":10,"R":2,"Site_Name":"The Laurels","Project":"TLTEMv2","S":1,"UTMY_N":4262294.0,"id":"a72g3l54le6l","oneHR":11,"UTMX_E":723789.0,"SiteVisitI":"2005-05-09_2L448-1"},"type":"Feature","geometry":{"type":"Point","coordinates":[-78.4344222615218,38.4809093157834]}},{"properties":{"tons":1.1,"AvgLitterD":2.356112928,"sDate":"2005/05/09 00:00:00 +0000","SiteID":"2L531-1","AvgDuffDep":1.05,"hundredHR":2,"tenHR":4,"R":7,"Site_Name":"Broyles Gap","Project":"TLTEMv2","S":2,"UTMY_N":4264096.0,"id":"a72g3l3fsbq5","oneHR":18,"UTMX_E":726254.0,"SiteVisitI":"2005-05-09_2L531-1"},"type":"Feature","geometry":{"type":"Point","coordinates":[-78.4056074994184,38.4965103506307]}},{"properties":{"tons":0.1625,"AvgLitterD":1.977710496,"sDate":"2005/05/10 00:00:00 +0000","SiteID":"1L303-1","AvgDuffDep":0.525,"hundredHR":1,"tenHR":8,"R":2,"Site_Name":"Indian Run","Project":"TLTEMv2","S":0,"UTMY_N":4301987.0,"id":"a72g3l7mxum4","oneHR":8,"UTMX_E":745759.0,"SiteVisitI":"2005-05-10_1L303-1"},"type":"Feature","geometry":{"type":"Point","coordinates":[-78.1687824432549,38.8323979588815]}},{"properties":{"tons":0.6,"AvgLitterD":5.35011648,"sDate":"2005/05/10 00:00:00 +0000","SiteID":"1L506-1","AvgDuffDep":0.9375,"hundredHR":7,"tenHR":5,"R":2,"Site_Name":"Piney Ridge Trail (Lower)","Project":"TLTEMv2","S":5,"UTMY_N":4289142.0,"id":"a72g3larln2n","oneHR":11,"UTMX_E":735145.0,"SiteVisitI":"2005-05-10_1L506-1"},"type":"Feature","geometry":{"type":"Point","coordinates":[-78.295302787026,38.7196708472681]}},{"properties":{"tons":0.6625,"AvgLitterD":5.494671312,"sDate":"2005/05/11 00:00:00 +0000","SiteID":"1L106-3","AvgDuffDep":1.1625,"hundredHR":7,"tenHR":6,"R":3,"Site_Name":"Hogback Overlook","Project":"TLTEMv2","S":3,"UTMY_N":4294080.0,"id":"a72g3ldleh3a","oneHR":13,"UTMX_E":736312.0,"SiteVisitI":"2005-05-11_1L106-3"},"type":"Feature","geometry":{"type":"Point","coordinates":[-78.2802068695417,38.7638094927608]}},{"properties":{"tons":0.55,"AvgLitterD":3.547466928,"sDate":"2005/05/11 00:00:00 +0000","SiteID":"1L123-1","AvgDuffDep":0.775,"hundredHR":4,"tenHR":4,"R":5,"Site_Name":"Thornton Gap","Project":"TLTEMv2","S":3,"UTMY_N":4283612.0,"id":"a72g3lfocgmr","oneHR":23,"UTMX_E":733400.0,"SiteVisitI":"2005-05-11_1L123-1"},"type":"Feature","geometry":{"type":"Point","coordinates":[-78.3172151371738,38.6703526823502]}},{"properties":{"tons":0.4,"AvgLitterD":5.771745216,"sDate":"2005/05/19 00:00:00 +0000","SiteID":"1L113-1","AvgDuffDep":2.075,"hundredHR":7,"tenHR":8,"R":3,"Site_Name":"Piney Branch-Piney Ridge","Project":"TLTEMv2","S":2,"UTMY_N":4289185.0,"id":"a72g3l9if52f","oneHR":14,"UTMX_E":736455.0,"SiteVisitI":"2005-05-19_1L113-1"},"type":"Feature","geometry":{"type":"Point","coordinates":[-78.2802358843758,38.7197084890716]}},{"properties":{"tons":0.1375,"AvgLitterD":1.469331168,"sDate":"2005/05/23 00:00:00 +0000","SiteID":"1L478-1","AvgDuffDep":1.0375,"hundredHR":1,"tenHR":4,"R":4,"Site_Name":"Lands Run Ridge","Project":"TLTEMv2","S":2,"UTMY_N":4301373.0,"id":"a72g3l419nyl","oneHR":0,"UTMX_E":743254.0,"SiteVisitI":"2005-05-23_1L478-1"},"type":"Feature","geometry":{"type":"Point","coordinates":[-78.1978253613463,38.8275670778318]}},{"properties":{"tons":0.4375,"AvgLitterD":0.811415088,"sDate":"2005/06/02 00:00:00 +0000","SiteID":"1L498-1","AvgDuffDep":1.0625,"hundredHR":0,"tenHR":4,"R":1,"Site_Name":"Shenk Hollow Upper","Project":"TLTEMv2","S":2,"UTMY_N":4282930.0,"id":"a72g3l5opyy4","oneHR":11,"UTMX_E":731794.0,"SiteVisitI":"2005-06-02_1L498-1"},"type":"Feature","geometry":{"type":"Point","coordinates":[-78.335884169968,38.6646350803694]}},{"properties":{"tons":0.675,"AvgLitterD":4.148342352,"sDate":"2005/06/06 00:00:00 +0000","SiteID":"1L415-1","AvgDuffDep":1.1125,"hundredHR":5,"tenHR":1,"R":12,"Site_Name":"Matthews Arm","Project":"TLTEMv2","S":10,"UTMY_N":4293940.0,"id":"a72g3l0mwbc5","oneHR":8,"UTMX_E":733943.0,"SiteVisitI":"2005-06-06_1L415-1"},"type":"Feature","geometry":{"type":"Point","coordinates":[-78.3074917412522,38.7631803510413]}},{"properties":{"tons":0.925,"AvgLitterD":7.79293344,"sDate":"2005/06/06 00:00:00 +0000","SiteID":"3L559-1","AvgDuffDep":1.2875,"hundredHR":10,"tenHR":10,"R":3,"Site_Name":"Turk Mountain","Project":"TLTEMv2","S":1,"UTMY_N":4221706.0,"id":"a72g3l358j52","oneHR":6,"UTMX_E":692955.0,"SiteVisitI":"2005-06-06_3L559-1"},"type":"Feature","geometry":{"type":"Point","coordinates":[-78.7987282858934,38.1225929322455]}},{"properties":{"tons":0.5125,"AvgLitterD":4.297376256,"sDate":"2005/06/07 00:00:00 +0000","SiteID":"2L430-1","AvgDuffDep":0.975,"hundredHR":5,"tenHR":3,"R":16,"Site_Name":"Hazel River (Top)","Project":"TLTEMv2","S":0,"UTMY_N":4279006.0,"id":"a72g3l10es0e","oneHR":9,"UTMX_E":733558.0,"SiteVisitI":"2005-06-07_2L430-1"},"type":"Feature","geometry":{"type":"Point","coordinates":[-78.3169488522281,38.6288478604997]}},{"properties":{"tons":1.5375,"AvgLitterD":2.852135232,"sDate":"2005/06/07 00:00:00 +0000","SiteID":"2L435-1","AvgDuffDep":2.1625,"hundredHR":3,"tenHR":6,"R":2,"Site_Name":"Naked Top","Project":"TLTEMv2","S":0,"UTMY_N":4270782.0,"id":"a72g3l1ttokc","oneHR":4,"UTMX_E":725786.0,"SiteVisitI":"2005-06-07_2L435-1"},"type":"Feature","geometry":{"type":"Point","coordinates":[-78.408809738172,38.5568221805922]}},{"properties":{"tons":2.2375,"AvgLitterD":4.788342144,"sDate":"2005/06/08 00:00:00 +0000","SiteID":"2L449-1","AvgDuffDep":0.9375,"hundredHR":4,"tenHR":12,"R":4,"Site_Name":"Conway River Fire Road","Project":"TLTEMv2","S":3,"UTMY_N":4261077.0,"id":"a72g3lb7mvuj","oneHR":32,"UTMX_E":722788.0,"SiteVisitI":"2005-06-08_2L449-1"},"type":"Feature","geometry":{"type":"Point","coordinates":[-78.4462742198154,38.4702031436583]}},{"properties":{"tons":2.0375,"AvgLitterD":2.737886304,"sDate":"2005/06/09 00:00:00 +0000","SiteID":"2L109-1","AvgDuffDep":3.0875,"hundredHR":2,"tenHR":7,"R":4,"Site_Name":"Pocosin Hollow","Project":"TLTEMv2","S":5,"UTMY_N":4254185.0,"id":"a72g3l4khfux","oneHR":13,"UTMX_E":722079.0,"SiteVisitI":"2005-06-09_2L109-1"},"type":"Feature","geometry":{"type":"Point","coordinates":[-78.4565734029027,38.4083291253437]}},{"properties":{"tons":0.75,"AvgLitterD":3.590292816,"sDate":"2005/06/13 00:00:00 +0000","SiteID":"2L121-1","AvgDuffDep":0.9375,"hundredHR":5,"tenHR":3,"R":2,"Site_Name":"Laurel Prong","Project":"TLTEMv2","S":0,"UTMY_N":4263168.0,"id":"a72g3l5ljf2y","oneHR":2,"UTMX_E":724658.0,"SiteVisitI":"2005-06-13_2L121-1"},"type":"Feature","geometry":{"type":"Point","coordinates":[-78.4241888715405,38.4885593987353]}},{"properties":{"tons":0.8,"AvgLitterD":0.675939456,"sDate":"2005/06/13 00:00:00 +0000","SiteID":"3L703-1","AvgDuffDep":2.7,"hundredHR":0,"tenHR":3,"R":0,"Site_Name":"Gas Line","Project":"TLTEMv2","S":2,"UTMY_N":4218837.0,"id":"a72g3lfbj372","oneHR":19,"UTMX_E":692860.0,"SiteVisitI":"2005-06-13_3L703-1"},"type":"Feature","geometry":{"type":"Point","coordinates":[-78.8005866050276,38.096774808134]}},{"properties":{"tons":1.5375,"AvgLitterD":0.0,"sDate":"2005/06/14 00:00:00 +0000","SiteID":"3L119-1","AvgDuffDep":1.675,"hundredHR":0,"tenHR":0,"R":0,"Site_Name":"Black Rock Gap","Project":"TLTEMv2","S":0,"UTMY_N":4231718.0,"id":"a72g3lg5mj1x","oneHR":0,"UTMX_E":697523.0,"SiteVisitI":"2005-06-14_3L119-1"},"type":"Feature","geometry":{"type":"Point","coordinates":[-78.7438736144419,38.21176971346]}},{"properties":{"tons":0.675,"AvgLitterD":2.645357616,"sDate":"2005/06/14 00:00:00 +0000","SiteID":"3L600-1","AvgDuffDep":1.8,"hundredHR":3,"tenHR":3,"R":6,"Site_Name":"Milepost 72","Project":"TLTEMv2","S":0,"UTMY_N":4243633.0,"id":"a72g3l8eib2y","oneHR":12,"UTMX_E":708563.0,"SiteVisitI":"2005-06-14_3L600-1"},"type":"Feature","geometry":{"type":"Point","coordinates":[-78.6143634290594,38.3165699704747]}},{"properties":{"tons":0.275,"AvgLitterD":0.0,"sDate":"2005/06/15 00:00:00 +0000","SiteID":"3L553-1","AvgDuffDep":1.3,"hundredHR":0,"tenHR":0,"R":0,"Site_Name":"Chimney Rock","Project":"TLTEMv2","S":0,"UTMY_N":4228356.0,"id":"a72g3l86qg7b","oneHR":0,"UTMX_E":694503.0,"SiteVisitI":"2005-06-15_3L553-1"},"type":"Feature","geometry":{"type":"Point","coordinates":[-78.7792644229553,38.1821499190503]}},{"properties":{"tons":0.725,"AvgLitterD":0.893290848,"sDate":"2005/06/16 00:00:00 +0000","SiteID":"2L101-1","AvgDuffDep":2.425,"hundredHR":0,"tenHR":4,"R":3,"Site_Name":"Big Ugly Run (Middle)","Project":"TLTEMv2","S":1,"UTMY_N":4255247.0,"id":"a72g3lavp3n7","oneHR":14,"UTMX_E":715030.0,"SiteVisitI":"2005-06-16_2L101-1"},"type":"Feature","geometry":{"type":"Point","coordinates":[-78.5369092136235,38.4196149863108]}},{"properties":{"tons":1.25,"AvgLitterD":3.715041024,"sDate":"2005/06/16 00:00:00 +0000","SiteID":"2L113-1","AvgDuffDep":0.9375,"hundredHR":5,"tenHR":2,"R":1,"Site_Name":"Nicholson Hollow","Project":"TLTEMv2","S":7,"UTMY_N":4275071.0,"id":"a72g3l1duqbr","oneHR":12,"UTMX_E":732832.0,"SiteVisitI":"2005-06-16_2L113-1"},"type":"Feature","geometry":{"type":"Point","coordinates":[-78.3265963549411,38.5936154152583]}},{"properties":{"tons":0.5,"AvgLitterD":1.70228016,"sDate":"2005/06/22 00:00:00 +0000","SiteID":"2L106-1","AvgDuffDep":1.4,"hundredHR":1,"tenHR":5,"R":3,"Site_Name":"Broad Hollow","Project":"TLTEMv2","S":0,"UTMY_N":4275378.0,"id":"a72g3la4ih5m","oneHR":25,"UTMX_E":736874.0,"SiteVisitI":"2005-06-22_2L106-1"},"type":"Feature","geometry":{"type":"Point","coordinates":[-78.2801293941307,38.5953099540757]}},{"properties":{"tons":0.5125,"AvgLitterD":4.396576992,"sDate":"2005/06/22 00:00:00 +0000","SiteID":"3L474-1","AvgDuffDep":1.6125,"hundredHR":4,"tenHR":11,"R":5,"Site_Name":"Big Branch Thicket","Project":"TLTEMv2","S":0,"UTMY_N":4227453.0,"id":"a72g3lcv0g6i","oneHR":9,"UTMX_E":695754.0,"SiteVisitI":"2005-06-22_3L474-1"},"type":"Feature","geometry":{"type":"Point","coordinates":[-78.7652396552378,38.1737467857144]}},{"properties":{"tons":1.6625,"AvgLitterD":2.8584348,"sDate":"2005/06/22 00:00:00 +0000","SiteID":"3L607-1","AvgDuffDep":1.225,"hundredHR":0,"tenHR":15,"R":5,"Site_Name":"Riprap overlook","Project":"TLTEMv2","S":4,"UTMY_N":4226006.0,"id":"a72g3ldw6n4a","oneHR":26,"UTMX_E":695599.0,"SiteVisitI":"2005-06-22_3L607-1"},"type":"Feature","geometry":{"type":"Point","coordinates":[-78.7674056181255,38.1607490717869]}},{"properties":{"tons":0.392857142857,"AvgLitterD":13.337056128,"sDate":"2005/06/23 00:00:00 +0000","SiteID":"2L529-1","AvgDuffDep":0.797619047619,"hundredHR":12,"tenHR":34,"R":11,"Site_Name":"Pine Hill Gap","Project":"TLTEMv2","S":0,"UTMY_N":4275221.0,"id":"a72g3lawm2ta","oneHR":50,"UTMX_E":736354.0,"SiteVisitI":"2005-06-23_2L529-1"},"type":"Feature","geometry":{"type":"Point","coordinates":[-78.2861472462846,38.5940352331463]}},{"properties":{"tons":0.25,"AvgLitterD":3.672368784,"sDate":"2005/06/23 00:00:00 +0000","SiteID":"2L577-1","AvgDuffDep":0.35,"hundredHR":4,"tenHR":7,"R":2,"Site_Name":"Skinner Ridge","Project":"TLTEMv2","S":0,"UTMY_N":4281516.0,"id":"a72g3l8zw44l","oneHR":12,"UTMX_E":734732.0,"SiteVisitI":"2005-06-23_2L577-1"},"type":"Feature","geometry":{"type":"Point","coordinates":[-78.3026287040243,38.6511326953408]}},{"properties":{"tons":1.5,"AvgLitterD":2.072609088,"sDate":"2005/06/23 00:00:00 +0000","SiteID":"3L555-1","AvgDuffDep":2.2375,"hundredHR":2,"tenHR":4,"R":2,"Site_Name":"Rip Rap Trail","Project":"TLTEMv2","S":1,"UTMY_N":4225223.0,"id":"a72g3l60tmp5","oneHR":16,"UTMX_E":694885.0,"SiteVisitI":"2005-06-23_3L555-1"},"type":"Feature","geometry":{"type":"Point","coordinates":[-78.7757639474591,38.1538521002615]}},{"properties":{"tons":0.1875,"AvgLitterD":8.523399312,"sDate":"2005/06/27 00:00:00 +0000","SiteID":"3L111-2","AvgDuffDep":1.6375,"hundredHR":11,"tenHR":11,"R":1,"Site_Name":"Doyles River-Jones Run","Project":"TLTEMv2","S":2,"UTMY_N":4233830.0,"id":"a72g3l0du039","oneHR":10,"UTMX_E":701749.0,"SiteVisitI":"2005-06-27_3L111-2"},"type":"Feature","geometry":{"type":"Point","coordinates":[-78.6950392323929,38.2298514445732]}},